Packet Number,SIV,FixType,Latitude,Longitude,Altitude,Year,Month,Day,Hour,Min,Sec,NNV,NEV,NDV,Battery,3v3 Supply,5v Supply,Radio Supply,Analog Internal,Analog External,AltimeterTemp,Digital Internal,Digital External,Pressure,Accel A,Accel Y,Accel Z,Pitch,Roll,Yaw
0,0,0,0,0,0,2020,8,2,0,0,2,0,0,0,3.76,3.32,4.98,4.99,39.65,40.80,36.98,38.01,35.61,921.63,0.08,-1.84,9.03,0.48,-11.50,-135.96
1,0,0,0,0,0,2020,8,2,0,0,3,0,0,0,3.76,3.31,4.98,4.99,40.28,40.51,37.04,38.07,35.68,921.01,-1.57,-2.26,9.41,-9.21,-13.31,-117.92
2,0,0,0,0,0,2020,8,2,0,0,4,0,0,0,3.69,3.31,4.98,4.99,41.14,40.20,37.14,38.10,35.80,921.48,-0.31,-1.84,9.29,-1.85,-11.17,-132.09
3,0,0,0,0,0,2020,8,2,0,0,5,0,0,0,3.76,3.31,4.98,4.99,40.85,40.41,37.24,38.16,35.89,921.31,0.88,-2.10,9.98,4.93,-11.86,-140.71
4,0,0,0,0,0,2020,8,2,0,0,6,0,0,0,3.76,3.32,4.98,4.99,41.34,41.19,37.31,38.22,35.97,921.33,0.80,-1.76,9.71,4.65,-10.23,-139.96
5,0,0,0,0,0,2020,8,2,0,0,7,0,0,0,3.75,3.31,4.98,4.99,40.68,40.75,37.38,38.22,36.03,921.24,0.84,-1.95,9.26,5.08,-11.85,-141.06
6,0,0,0,0,0,2020,8,2,0,0,8,0,0,0,3.75,3.32,4.98,4.99,41.34,41.26,37.45,38.30,36.03,921.49,0.73,-1.95,9.03,4.50,-12.16,-141.91
7,0,0,0,0,0,2020,8,2,0,0,9,0,0,0,3.76,3.31,4.98,4.99,40.61,40.72,37.52,38.36,36.12,921.60,0.08,-0.69,9.37,0.47,-4.20,-134.98
8,0,0,0,0,0,2020,8,2,0,0,10,0,0,0,3.76,3.31,4.98,4.99,41.38,41.58,37.58,38.44,36.16,921.40,0.04,-0.38,9.75,0.22,-2.25,-136.85
9,0,0,0,0,0,2020,8,2,0,0,11,0,0,0,3.76,3.31,4.98,4.99,40.97,41.04,37.64,38.54,36.24,921.62,0.08,-0.65,9.91,0.44,-3.76,-135.05
10,0,0,0,0,0,2020,8,2,0,0,12,0,0,0,3.76,3.31,4.98,4.96,41.84,41.44,37.72,38.59,36.34,921.49,0.31,-1.38,9.18,1.89,-8.53,-140.40
11,0,0,0,0,0,2020,8,2,0,0,13,0,0,0,3.68,3.31,4.98,4.99,41.24,40.74,37.77,38.70,36.41,920.85,0.23,-2.26,8.91,1.43,-14.21,-134.60
12,0,0,0,0,0,2020,8,2,0,0,14,0,0,0,3.76,3.32,4.98,4.99,42.03,39.93,37.77,38.78,36.48,920.93,0.50,-1.45,9.68,2.91,-8.53,-128.25
13,0,0,0,0,0,2020,8,2,0,0,15,0,0,0,3.74,3.31,4.98,4.99,41.59,41.06,37.81,38.84,36.62,921.40,-0.11,-0.50,12.12,-0.54,-2.35,-117.70
14,0,0,0,0,0,2020,8,2,0,0,16,0,0,0,3.75,3.31,4.98,4.99,39.24,40.61,37.89,38.91,36.77,921.00,-1.87,-1.87,9.37,-11.10,-11.10,-103.31
15,0,0,0,0,0,2020,8,2,0,0,17,0,0,0,3.69,3.30,4.98,4.99,41.33,41.33,37.94,38.95,36.91,921.02,-2.22,-2.26,10.63,-11.53,-11.74,-118.82
16,0,0,0,0,0,2020,8,2,0,0,18,0,0,0,3.76,3.31,4.98,4.99,41.84,39.67,38.04,39.05,36.82,925.34,0.27,-1.22,8.68,1.75,-8.02,-151.42
17,0,0,0,0,0,2020,8,2,0,0,19,0,0,0,3.68,3.30,4.98,4.99,42.45,41.25,37.88,39.11,36.66,921.58,0.34,-1.61,9.75,1.99,-9.35,-144.67
18,0,0,0,0,0,2020,8,2,0,0,20,0,0,0,3.75,3.31,4.98,4.99,42.49,39.11,37.90,39.20,36.53,921.74,-0.15,-1.34,9.14,-0.95,-8.33,-143.62
19,0,0,0,0,0,2020,8,2,0,0,21,0,0,0,3.75,3.31,4.98,4.99,42.21,41.13,37.88,39.27,36.52,921.32,1.53,-0.61,9.33,9.29,-3.70,-137.71
20,0,0,0,0,0,2020,8,2,0,0,22,0,0,0,3.75,3.31,4.98,4.99,43.28,41.67,37.86,39.38,36.70,921.06,1.95,-1.45,7.96,13.56,-10.06,-137.90
21,0,0,0,0,0,2020,8,2,0,0,23,0,0,0,3.75,3.30,4.98,4.99,42.10,41.30,38.23,39.39,36.80,936.63,-2.45,-2.49,9.75,-13.67,-13.89,-98.03
22,0,0,0,0,0,2020,8,2,0,0,24,0,0,0,3.74,3.31,4.98,4.99,42.50,41.06,38.22,39.48,36.80,941.23,-1.91,-2.29,9.41,-11.17,-13.44,-96.42
23,0,0,0,0,0,2020,8,2,0,0,25,0,0,0,3.75,3.30,4.98,4.95,42.13,40.90,37.99,39.38,36.67,941.39,-1.26,-1.53,9.52,-7.45,-9.05,-107.38
24,0,0,0,0,0,2020,8,2,0,0,26,0,0,0,3.74,3.31,4.98,4.99,42.60,40.75,37.79,39.36,36.59,941.38,-1.15,-2.03,9.37,-6.82,-12.12,-109.35
25,0,0,0,0,0,2020,8,2,0,0,27,0,0,0,3.75,3.30,4.98,4.99,42.19,41.02,37.29,39.36,36.57,920.85,-3.86,-4.25,7.30,-24.57,-27.19,-76.63
26,0,0,0,0,0,2020,8,2,0,0,28,0,0,0,3.74,3.31,4.98,4.99,43.24,41.26,37.45,39.48,36.81,920.86,-1.91,-4.21,10.36,-9.70,-21.76,-109.23
0,0,0,0,0,0,2020,8,2,0,0,2,0,0,0,3.75,3.32,4.98,4.99,31.92,32.18,28.75,29.28,28.93,951.71,-0.11,-0.15,6.85,-0.96,-1.28,101.29
1,0,0,0,0,0,2020,8,2,0,0,3,0,0,0,3.75,3.31,4.98,4.99,32.06,33.38,28.76,29.26,28.96,951.72,5.70,-8.22,-1.42,34.33,-54.47,-168.24
2,0,0,0,0,0,2020,8,2,0,0,4,0,0,0,3.71,3.32,4.98,4.99,31.55,32.63,28.55,29.28,28.98,941.69,3.25,-8.95,0.46,19.94,-69.85,-163.36
3,0,0,0,0,0,2020,8,2,0,0,5,0,0,0,3.75,3.31,4.98,4.99,32.37,33.89,29.12,29.30,29.02,951.25,2.98,-9.56,-2.87,16.64,-66.60,-152.04
4,0,0,0,0,0,2020,8,2,0,0,6,0,0,0,3.76,3.32,4.98,4.99,31.55,32.12,29.03,29.37,29.06,949.55,5.32,3.25,-8.22,31.02,18.37,46.51
5,0,0,0,0,0,2020,8,2,0,0,7,0,0,0,3.76,3.31,4.98,4.99,32.70,33.68,29.03,29.43,29.06,952.50,-0.15,0.96,-10.36,-0.84,5.27,-1.61
6,0,0,0,0,0,2020,8,2,0,0,8,0,0,0,3.76,3.32,4.98,4.99,31.23,31.70,29.00,29.42,29.02,952.28,-1.11,-0.08,-9.71,-6.51,-0.45,-33.67
7,0,0,0,0,0,2020,8,2,0,0,9,0,0,0,3.75,3.30,4.98,4.99,32.63,33.18,28.97,29.43,29.02,952.35,-1.11,-0.04,-9.64,-6.56,-0.23,-33.16
8,0,0,0,0,0,2020,8,2,0,0,10,0,0,0,3.75,3.32,4.98,4.99,31.78,32.53,28.97,29.49,29.05,952.40,-1.07,-0.04,-9.60,-6.37,-0.23,-30.16
9,0,0,0,0,0,2020,8,2,0,0,11,0,0,0,3.76,3.31,4.98,4.99,32.96,33.49,28.95,29.49,29.04,952.38,-1.11,0.00,-9.60,-6.59,0.00,-30.45
10,0,0,0,0,0,2020,8,2,0,0,12,0,0,0,3.75,3.31,4.98,4.95,31.64,32.11,28.94,29.53,29.05,952.25,-1.19,-0.15,-9.56,-7.07,-0.91,-34.34
11,0,0,0,0,0,2020,8,2,0,0,13,0,0,0,3.71,3.31,4.98,4.99,32.31,33.28,28.94,29.56,29.04,952.46,-1.07,-0.04,-9.68,-6.32,-0.23,-30.82
12,0,0,0,0,0,2020,8,2,0,0,14,0,0,0,3.75,3.32,4.98,4.99,31.51,32.19,28.92,29.62,29.05,952.44,-1.07,-0.08,-9.60,-6.37,-0.45,-31.78
13,0,0,0,0,0,2020,8,2,0,0,15,0,0,0,3.75,3.31,4.98,4.99,32.49,32.90,28.90,29.66,29.02,952.25,-1.19,0.11,-9.64,-7.01,0.68,-30.32
14,0,0,0,0,0,2020,8,2,0,0,16,0,0,0,3.75,3.32,4.98,4.99,32.40,32.13,28.91,29.70,29.03,952.22,-1.19,-0.04,-9.75,-6.93,-0.22,-35.10
15,0,0,0,0,0,2020,8,2,0,0,17,0,0,0,3.73,3.31,4.98,4.99,32.38,32.99,28.91,29.75,29.01,952.19,-1.22,-0.08,-9.71,-7.18,-0.45,-31.34
16,0,0,0,0,0,2020,8,2,0,0,18,0,0,0,3.75,3.31,4.98,4.99,32.55,31.88,28.92,29.77,29.02,952.33,-1.22,0.04,-9.52,-7.32,0.23,-31.56
17,0,0,0,0,0,2020,8,2,0,0,19,0,0,0,3.69,3.31,4.98,4.99,33.04,32.90,28.90,29.79,29.03,952.19,-1.15,-0.04,-9.52,-6.87,-0.23,-31.24
18,0,0,0,0,0,2020,8,2,0,0,20,0,0,0,3.75,3.32,4.98,4.99,32.49,32.38,28.92,29.85,29.06,952.22,-1.19,-0.15,-9.94,-6.80,-0.88,-31.95
19,0,0,0,0,0,2020,8,2,0,0,21,0,0,0,3.74,3.31,4.98,4.99,33.54,32.90,28.92,29.93,29.02,952.10,-1.15,-0.04,-9.83,-6.66,-0.22,-31.53
20,0,0,0,0,0,2020,8,2,0,0,22,0,0,0,3.75,3.32,4.98,4.99,32.58,32.90,28.91,29.88,29.02,952.18,-1.11,-0.08,-9.56,-6.62,-0.46,-32.54
21,0,0,0,0,0,2020,8,2,0,0,23,0,0,0,3.75,3.31,4.98,4.99,33.36,33.08,28.89,29.98,29.03,952.10,-1.22,0.00,-9.64,-7.24,0.00,-33.30
22,0,0,0,0,0,2020,8,2,0,0,24,0,0,0,3.75,3.32,4.98,4.99,33.08,31.79,28.89,30.01,29.03,952.23,-1.15,-0.11,-9.60,-6.82,-0.68,-34.45
23,0,0,0,0,0,2020,8,2,0,0,25,0,0,0,3.75,3.30,4.98,4.95,33.61,32.78,28.90,30.03,29.03,952.28,-1.11,-0.08,-9.64,-6.56,-0.45,-31.56
24,0,0,0,0,0,2020,8,2,0,0,26,0,0,0,3.74,3.32,4.98,4.99,33.06,32.33,28.90,30.07,28.99,952.32,-1.11,-0.11,-9.41,-6.72,-0.69,-33.14
25,0,0,0,0,0,2020,8,2,0,0,27,0,0,0,3.74,3.30,4.98,4.99,33.45,33.90,28.89,30.12,29.03,952.21,-1.11,-0.04,-9.71,-6.51,-0.22,-29.48
26,0,0,0,0,0,2020,8,2,0,0,28,0,0,0,3.75,3.31,4.98,4.99,32.88,32.71,28.90,30.14,29.02,952.27,-1.07,-0.08,-9.60,-6.37,-0.45,-31.33
27,0,0,0,0,0,2020,8,2,0,0,29,0,0,0,3.74,3.30,4.98,4.97,33.16,33.04,28.89,30.19,29.02,952.32,-1.11,-0.11,-9.56,-6.62,-0.68,-33.60
28,0,0,0,0,0,2020,8,2,0,0,30,0,0,0,3.74,3.31,4.98,4.99,33.23,32.35,28.91,30.23,29.07,952.40,-1.19,-0.08,-9.41,-7.18,-0.46,-33.42
29,0,0,0,0,0,2020,8,2,0,0,31,0,0,0,3.75,3.30,4.98,4.94,33.27,33.34,28.88,30.30,29.05,952.33,-1.15,-0.11,-9.71,-6.74,-0.67,-33.18
30,0,0,0,0,0,2020,8,2,0,0,32,0,0,0,3.68,3.31,4.98,4.99,33.38,32.40,28.90,30.31,29.04,952.38,-1.03,-0.08,-9.71,-6.07,-0.45,-29.93
31,0,0,0,0,0,2020,8,2,0,0,33,0,0,0,3.75,3.31,4.98,4.99,32.99,32.40,28.92,30.37,29.05,952.32,-1.15,-0.11,-9.87,-6.63,-0.66,-31.95
32,0,0,0,0,0,2020,8,2,0,0,34,0,0,0,3.75,3.31,4.98,4.99,33.52,32.59,28.90,30.38,29.04,952.32,-1.15,-0.11,-9.83,-6.66,-0.66,-31.86
33,0,0,0,0,0,2020,8,2,0,0,35,0,0,0,3.74,3.31,4.98,4.99,32.44,32.85,28.92,30.44,29.05,952.31,-1.11,-0.11,-9.56,-6.62,-0.68,-33.55
34,0,0,0,0,0,2020,8,2,0,0,36,0,0,0,3.74,3.32,4.98,4.99,33.88,32.82,28.91,30.49,29.00,952.36,-1.11,-0.04,-9.75,-6.49,-0.22,-29.14
35,0,0,0,0,0,2020,8,2,0,0,37,0,0,0,3.74,3.30,4.98,4.99,34.91,33.05,28.90,30.49,29.05,952.39,-1.15,0.04,-9.83,-6.66,0.22,-33.32
36,0,0,0,0,0,2020,8,2,0,0,38,0,0,0,3.69,3.31,4.98,4.99,34.04,32.14,28.89,30.52,29.03,952.34,-1.30,-0.04,-9.56,-7.74,-0.23,-34.15
37,0,0,0,0,0,2020,8,2,0,0,39,0,0,0,3.75,3.31,4.98,4.99,34.55,31.58,28.89,30.60,29.05,952.35,-1.19,0.00,-9.48,-7.13,0.00,-32.60
38,0,0,0,0,0,2020,8,2,0,0,40,0,0,0,3.75,3.32,4.98,4.99,33.95,32.72,28.89,30.61,29.05,952.32,-1.07,-0.11,-9.41,-6.49,-0.69,-32.54
39,0,0,0,0,0,2020,8,2,0,0,41,0,0,0,3.75,3.31,4.98,4.99,35.14,33.01,28.88,30.62,29.04,952.26,-0.84,0.08,-9.33,-5.15,0.47,-29.16
40,0,0,0,0,0,2020,8,2,0,0,42,0,0,0,3.72,3.32,4.98,4.99,34.37,32.76,28.88,30.68,29.04,952.25,-1.03,-0.04,-9.56,-6.16,-0.23,-32.03
41,0,0,0,0,0,2020,8,2,0,0,43,0,0,0,3.74,3.30,4.98,4.99,35.51,32.55,28.87,30.73,29.06,952.36,-1.11,0.00,-9.64,-6.56,0.00,-31.89
42,0,0,0,0,0,2020,8,2,0,0,44,0,0,0,3.75,3.31,4.98,4.95,34.80,32.24,28.88,30.76,29.03,952.37,-1.07,0.00,-9.52,-6.42,0.00,-30.68
43,0,0,0,0,0,2020,8,2,0,0,45,0,0,0,3.75,3.31,4.98,4.99,35.22,32.87,28.88,30.76,29.04,952.34,-1.03,0.00,-9.75,-6.04,0.00,-31.83
44,0,0,0,0,0,2020,8,2,0,0,46,0,0,0,3.74,3.32,4.98,4.99,34.64,32.71,28.88,30.78,29.03,952.40,-0.99,-0.08,-9.75,-5.82,-0.45,-32.20
45,0,0,0,0,0,2020,8,2,0,0,47,0,0,0,3.75,3.30,4.98,4.99,35.60,32.55,28.89,30.85,29.04,952.22,-1.11,0.00,-9.64,-6.56,0.00,-32.06
46,0,0,0,0,0,2020,8,2,0,0,48,0,0,0,3.75,3.31,4.98,4.99,32.69,32.31,28.89,30.88,29.04,952.19,-1.07,-0.04,-9.52,-6.42,-0.23,-33.67
47,0,0,0,0,0,2020,8,2,0,0,49,0,0,0,3.75,3.30,4.98,4.99,35.77,32.90,28.92,30.89,29.07,952.30,-1.03,-0.04,-9.45,-6.24,-0.23,-32.50
48,0,0,0,0,0,2020,8,2,0,0,50,0,0,0,3.75,3.31,4.98,4.97,34.74,32.43,28.92,30.95,29.10,952.49,-1.15,0.00,-9.60,-6.82,0.00,-30.39
49,0,0,0,0,0,2020,8,2,0,0,51,0,0,0,3.74,3.30,4.98,4.99,35.47,33.35,28.92,30.97,29.05,952.44,-1.11,0.04,-9.75,-6.49,0.22,-30.20
50,0,0,0,0,0,2020,8,2,0,0,52,0,0,0,3.75,3.31,4.98,4.99,33.88,32.51,28.92,31.00,29.06,952.32,-1.07,0.00,-9.60,-6.37,0.00,-32.36
51,0,0,0,0,0,2020,8,2,0,0,53,0,0,0,3.75,3.30,4.98,4.99,35.60,32.81,28.93,31.06,29.04,952.21,-1.07,0.00,-9.64,-6.34,0.00,-32.76
52,0,0,0,0,0,2020,8,2,0,0,54,0,0,0,3.74,3.31,4.98,4.96,34.37,32.42,28.94,31.05,29.05,952.24,0.11,0.57,-9.91,0.66,3.31,-19.40
53,0,0,0,0,0,2020,8,2,0,0,55,0,0,0,3.70,3.31,4.98,4.99,36.00,32.80,28.94,31.08,29.09,952.13,-1.61,-0.31,-10.14,-9.00,-1.71,-23.92
54,0,0,0,0,0,2020,8,2,0,0,56,0,0,0,3.74,3.31,4.98,4.99,35.43,32.63,28.94,31.16,29.07,952.15,0.46,0.38,-9.98,2.63,2.19,-11.56
55,0,0,0,0,0,2020,8,2,0,0,57,0,0,0,3.74,3.30,4.98,4.99,36.32,32.97,28.96,31.22,29.05,951.82,-3.33,0.31,-8.76,-20.79,1.87,-14.73
56,0,0,0,0,0,2020,8,2,0,0,58,0,0,0,3.74,3.32,4.98,4.99,35.34,32.17,28.94,31.19,29.07,951.20,0.19,2.33,-7.69,1.36,16.88,37.02
57,0,0,0,0,0,2020,8,2,0,0,59,0,0,0,3.74,3.30,4.98,4.99,36.49,33.23,28.90,31.26,29.13,947.70,0.80,8.18,-8.61,3.87,43.44,71.44
58,0,0,0,0,0,2020,8,2,0,1,0,0,0,0,3.75,3.31,4.98,4.99,35.81,32.82,28.96,31.35,29.11,948.67,0.84,5.12,-6.62,5.74,37.54,54.32
59,0,0,0,0,0,2020,8,2,0,1,1,0,0,0,3.68,3.30,4.98,4.99,36.41,33.32,29.00,31.39,29.15,949.32,-0.96,8.18,-8.30,-4.69,44.41,51.06
60,0,0,0,0,0,2020,8,2,0,1,2,0,0,0,3.75,3.31,4.98,4.99,35.87,32.36,29.01,31.39,29.15,950.00,-2.14,6.62,-7.19,-12.36,41.41,46.82
61,0,0,0,0,0,2020,8,2,0,1,3,0,0,0,3.75,3.31,4.98,4.99,36.76,32.88,29.03,31.43,29.14,949.93,-1.03,7.38,-6.27,-6.09,49.27,46.21
62,0,0,0,0,0,2020,8,2,0,1,4,0,0,0,3.75,3.31,4.98,4.99,35.59,32.69,29.06,31.50,29.17,950.66,-3.33,9.22,-5.81,-16.98,53.99,40.15
63,0,0,0,0,0,2020,8,2,0,1,5,0,0,0,3.74,3.31,4.98,4.99,36.48,33.17,29.08,31.52,29.18,950.85,-6.16,-4.74,-1.84,-50.45,-36.43,-47.93
64,0,0,0,0,0,2020,8,2,0,1,6,0,0,0,3.74,3.31,4.98,4.99,36.19,32.89,29.09,31.57,29.15,950.92,-5.35,-7.65,-1.87,-34.21,-53.44,-57.74
65,0,0,0,0,0,2020,8,2,0,1,7,0,0,0,3.74,3.30,4.98,4.95,36.22,32.76,29.11,31.56,29.20,951.00,-5.74,-7.76,-2.14,-35.46,-51.74,-58.16
66,0,0,0,0,0,2020,8,2,0,1,8,0,0,0,3.74,3.32,4.98,4.99,36.19,33.06,29.13,31.62,29.20,951.40,-5.51,-7.88,-1.99,-34.13,-53.38,-53.74
67,0,0,0,0,0,2020,8,2,0,1,9,0,0,0,3.74,3.31,4.98,4.99,36.89,33.02,29.14,31.64,29.22,951.44,-5.74,-7.76,-2.10,-35.50,-51.80,-51.82
68,0,0,0,0,0,2020,8,2,0,1,10,0,0,0,3.74,3.31,4.98,4.99,36.53,32.65,29.12,31.70,29.21,951.32,-4.13,-6.35,1.49,-32.35,-55.33,-68.63
69,0,0,0,0,0,2020,8,2,0,1,11,0,0,0,3.74,3.30,4.98,4.99,36.19,32.92,29.10,31.70,29.17,950.99,-4.59,-8.38,-2.03,-28.04,-59.08,-61.66
70,0,0,0,0,0,2020,8,2,0,1,12,0,0,0,3.74,3.31,4.98,4.99,36.09,32.86,29.13,31.77,29.18,951.06,-5.09,-7.53,0.38,-33.99,-55.90,-51.60
71,0,0,0,0,0,2020,8,2,0,1,13,0,0,0,3.74,3.30,4.98,4.94,37.40,33.17,29.14,31.83,29.18,951.33,-5.05,-8.03,-1.49,-31.72,-56.76,-52.34
72,0,0,0,0,0,2020,8,2,0,1,14,0,0,0,3.67,3.31,4.98,4.99,36.61,32.55,29.13,31.85,29.22,951.13,-4.97,-8.38,-0.27,-30.68,-59.27,-51.25
73,0,0,0,0,0,2020,8,2,0,1,15,0,0,0,3.74,3.31,4.98,4.99,35.63,32.98,29.15,31.86,29.21,950.96,-4.70,-9.14,-0.34,-27.22,-62.71,-34.99
74,0,0,0,0,0,2020,8,2,0,1,16,0,0,0,3.74,3.31,4.98,4.99,36.65,32.55,29.17,31.92,29.22,950.73,-5.58,-8.15,-0.80,-34.30,-55.30,-41.70
75,0,0,0,0,0,2020,8,2,0,1,17,0,0,0,3.74,3.30,4.98,4.99,36.44,32.69,29.18,31.98,29.23,951.04,-4.93,-8.41,0.46,-30.35,-59.51,-43.46
76,0,0,0,0,0,2020,8,2,0,1,18,0,0,0,3.74,3.32,4.98,4.99,36.76,32.75,29.18,32.00,29.23,950.61,-6.58,-5.74,-2.98,-45.49,-38.46,-45.99
77,0,0,0,0,0,2020,8,2,0,1,19,0,0,0,3.74,3.31,4.98,4.99,37.50,33.23,29.14,32.04,29.25,948.78,-4.70,3.79,-10.59,-22.69,18.09,37.32
78,0,0,0,0,0,2020,8,2,0,1,20,0,0,0,3.72,3.32,4.98,4.99,36.70,32.89,29.20,32.04,29.25,950.23,-3.52,-8.30,3.10,-21.66,-60.54,-55.39
79,0,0,0,0,0,2020,8,2,0,1,21,0,0,0,3.75,3.31,4.98,4.99,37.18,30.08,29.20,32.05,29.24,950.88,-5.20,-8.22,1.11,-32.08,-57.11,-44.69
80,0,0,0,0,0,2020,8,2,0,1,22,0,0,0,3.74,3.31,4.98,4.99,36.55,32.35,29.22,32.09,29.23,950.86,-6.16,-7.61,1.99,-38.05,-49.63,-24.75
81,0,0,0,0,0,2020,8,2,0,1,23,0,0,0,3.75,3.30,4.98,4.99,37.73,33.31,29.22,32.13,29.25,951.08,-6.81,-6.62,3.21,-42.79,-41.31,-16.46
82,0,0,0,0,0,2020,8,2,0,1,24,0,0,0,3.72,3.32,4.98,4.99,36.87,32.90,29.21,32.13,29.23,950.81,-5.47,-6.62,1.95,-38.41,-48.73,-20.92
83,0,0,0,0,0,2020,8,2,0,1,25,0,0,0,3.74,3.30,4.98,4.99,37.41,32.78,29.23,32.16,29.27,950.85,-5.81,-5.97,1.99,-42.75,-44.16,-27.66
84,0,0,0,0,0,2020,8,2,0,1,26,0,0,0,3.74,3.31,4.98,4.95,36.90,32.72,29.24,32.20,29.23,951.35,-6.92,-6.46,-0.61,-46.84,-42.93,-38.04
85,0,0,0,0,0,2020,8,2,0,1,27,0,0,0,3.74,3.30,4.98,4.99,37.73,32.90,29.24,32.25,29.26,951.32,-7.23,-6.27,0.88,-48.77,-40.74,-41.82
86,0,0,0,0,0,2020,8,2,0,1,28,0,0,0,3.74,3.31,4.98,4.99,36.96,33.26,29.23,32.27,29.27,951.26,-8.18,-6.77,-0.42,-50.35,-39.56,-43.33
87,0,0,0,0,0,2020,8,2,0,1,29,0,0,0,3.74,3.31,4.98,4.99,38.00,32.83,29.22,32.29,29.28,950.62,-8.61,-6.73,-0.46,-51.90,-37.99,-38.34
88,0,0,0,0,0,2020,8,2,0,1,30,0,0,0,3.74,3.31,4.98,5.00,35.39,33.15,29.25,32.32,29.27,951.13,-8.87,-5.58,-1.26,-57.17,-31.92,-49.06
89,0,0,0,0,0,2020,8,2,0,1,31,0,0,0,3.74,3.30,4.98,4.99,37.88,33.10,29.26,32.32,29.27,951.08,-8.30,-6.27,-0.80,-52.70,-36.95,-43.06
90,0,0,0,0,0,2020,8,2,0,1,32,0,0,0,3.74,3.31,4.98,4.96,36.85,32.80,29.26,32.37,29.24,949.82,-9.48,-3.82,-0.99,-67.38,-21.85,-49.83
91,0,0,0,0,0,2020,8,2,0,1,33,0,0,0,3.74,3.31,4.98,4.99,37.76,33.06,29.24,32.41,29.30,948.98,-9.37,-0.65,-4.25,-65.38,-3.62,-49.91
92,0,0,0,0,0,2020,8,2,0,1,34,0,0,0,3.74,3.31,4.98,4.99,35.23,33.13,29.26,32.52,29.34,948.49,-7.76,0.92,-6.31,-50.60,5.24,-40.39
93,0,0,0,0,0,2020,8,2,0,1,35,0,0,0,3.74,3.30,4.98,4.99,37.60,32.38,29.36,32.54,29.37,952.21,-7.88,2.60,-4.51,-56.53,15.98,19.32
94,0,0,0,0,0,2020,8,2,0,1,36,0,0,0,3.74,3.31,4.98,4.97,35.57,32.81,29.33,32.54,29.37,952.40,-2.94,4.51,-9.10,-16.16,25.25,22.86
95,0,0,0,0,0,2020,8,2,0,1,37,0,0,0,3.69,3.30,4.98,4.99,37.84,33.01,29.35,32.52,29.35,952.38,-0.11,1.11,-9.75,-0.67,6.49,-8.94
96,0,0,0,0,0,2020,8,2,0,1,38,0,0,0,3.74,3.31,4.98,4.99,37.18,32.78,29.35,32.56,29.34,952.22,-0.76,0.34,-9.45,-4.63,2.08,-20.39
97,0,0,0,0,0,2020,8,2,0,1,39,0,0,0,3.71,3.31,4.98,4.99,38.17,33.11,29.37,32.62,29.34,952.36,-0.73,0.31,-9.64,-4.31,1.81,-21.83
98,0,0,0,0,0,2020,8,2,0,1,40,0,0,0,3.74,3.32,4.98,4.99,36.90,32.27,29.35,32.63,29.32,952.39,-0.69,0.34,-9.64,-4.08,2.04,-19.59
99,0,0,0,0,0,2020,8,2,0,1,41,0,0,0,3.74,3.30,4.98,4.99,38.55,33.25,29.37,32.65,29.34,952.45,-0.61,0.23,-9.75,-3.59,1.35,-19.29
100,0,0,0,0,0,2020,8,2,0,1,42,0,0,0,3.74,3.31,4.98,4.99,37.39,33.27,29.38,32.70,29.34,952.32,-0.61,0.31,-9.75,-3.59,1.79,-21.20
101,0,0,0,0,0,2020,8,2,0,1,43,0,0,0,3.68,3.30,4.98,4.99,38.47,33.03,29.38,32.70,29.34,952.28,-0.65,0.27,-9.68,-3.84,1.58,-21.31
102,0,0,0,0,0,2020,8,2,0,1,44,0,0,0,3.74,3.31,4.98,4.99,37.38,33.03,29.40,32.70,29.34,952.17,-0.80,0.42,-9.71,-4.72,2.47,-20.53
103,0,0,0,0,0,2020,8,2,0,1,45,0,0,0,3.75,3.30,4.98,4.99,38.37,33.22,29.38,32.75,29.38,952.18,-0.65,0.11,-9.48,-3.92,0.69,-24.02
104,0,0,0,0,0,2020,8,2,0,1,46,0,0,0,3.74,3.31,4.98,4.99,37.67,33.35,29.40,32.73,29.32,952.28,-0.65,0.31,-9.94,-3.74,1.76,-21.69
105,0,0,0,0,0,2020,8,2,0,1,47,0,0,0,3.74,3.30,4.98,4.99,38.72,33.40,29.39,32.77,29.36,952.30,-0.61,0.23,-9.64,-3.63,1.36,-21.36
106,0,0,0,0,0,2020,8,2,0,1,48,0,0,0,3.74,3.31,4.98,4.99,37.63,33.05,29.40,32.82,29.35,952.18,-0.69,0.23,-9.45,-4.17,1.39,-22.42
107,0,0,0,0,0,2020,8,2,0,1,49,0,0,0,3.73,3.30,4.98,4.97,37.10,33.72,29.41,32.82,29.34,952.15,-0.76,0.11,-9.48,-4.61,0.69,-22.78
108,0,0,0,0,0,2020,8,2,0,1,50,0,0,0,3.74,3.31,4.98,4.99,37.23,33.14,29.41,32.86,29.35,952.20,-0.80,0.34,-9.75,-4.70,2.01,-21.45
109,0,0,0,0,0,2020,8,2,0,1,51,0,0,0,3.75,3.30,4.98,4.96,38.21,33.00,29.41,32.89,29.32,952.28,-0.69,0.31,-9.83,-4.00,1.78,-21.28
110,0,0,0,0,0,2020,8,2,0,1,52,0,0,0,3.74,3.31,4.98,4.99,37.33,32.97,29.43,32.90,29.37,952.14,-0.69,0.23,-9.64,-4.08,1.36,-22.08
111,0,0,0,0,0,2020,8,2,0,1,53,0,0,0,3.74,3.30,4.98,4.98,36.45,33.36,29.43,32.93,29.38,952.13,-0.69,0.34,-9.75,-4.04,2.02,-21.54
112,0,0,0,0,0,2020,8,2,0,1,54,0,0,0,3.74,3.31,4.98,4.99,37.69,32.88,29.43,32.94,29.37,952.33,-0.76,0.27,-9.79,-4.47,1.56,-20.95
113,0,0,0,0,0,2020,8,2,0,1,55,0,0,0,3.75,3.30,4.98,4.95,38.40,33.21,29.42,33.03,29.37,952.44,-0.76,0.31,-9.75,-4.48,1.79,-20.36
114,0,0,0,0,0,2020,8,2,0,1,56,0,0,0,3.72,3.31,4.98,4.99,37.55,32.78,29.42,32.98,29.36,952.36,-0.69,0.27,-9.56,-4.12,1.60,-23.97
115,0,0,0,0,0,2020,8,2,0,1,57,0,0,0,3.74,3.30,4.98,4.99,38.36,32.43,29.44,33.01,29.38,952.26,-0.73,0.27,-9.79,-4.24,1.56,-20.47
116,0,0,0,0,0,2020,8,2,0,1,58,0,0,0,3.72,3.31,4.98,4.99,37.48,33.45,29.45,33.05,29.39,952.21,-0.65,0.23,-9.33,-3.98,1.41,-20.96
117,0,0,0,0,0,2020,8,2,0,1,59,0,0,0,3.74,3.30,4.98,4.99,38.07,32.02,29.47,33.09,29.41,952.39,-0.76,0.34,-9.60,-4.55,2.05,-21.39
118,0,0,0,0,0,2020,8,2,0,2,0,0,0,0,3.74,3.31,4.98,4.99,37.60,33.17,29.47,33.10,29.38,952.27,-0.88,0.34,-9.64,-5.21,2.04,-22.45
119,0,0,0,0,0,2020,8,2,0,2,1,0,0,0,3.75,3.31,4.98,4.99,38.05,33.72,29.48,33.18,29.39,952.38,-0.69,0.19,-9.79,-4.02,1.12,-23.77
120,0,0,0,0,0,2020,8,2,0,2,2,0,0,0,3.70,3.31,4.98,4.99,37.61,33.26,29.47,33.13,29.41,952.30,-0.69,0.23,-9.83,-4.01,1.33,-22.64
121,0,0,0,0,0,2020,8,2,0,2,3,0,0,0,3.74,3.30,4.98,4.99,38.79,33.10,29.47,33.16,29.41,952.49,-0.69,0.11,-9.52,-4.13,0.69,-22.38
122,0,0,0,0,0,2020,8,2,0,2,4,0,0,0,3.74,3.32,4.98,4.99,37.87,33.16,29.47,33.17,29.41,952.43,-0.65,0.27,-9.68,-3.84,1.58,-22.34
123,0,0,0,0,0,2020,8,2,0,2,5,0,0,0,3.74,3.31,4.98,4.99,39.00,32.76,29.46,33.22,29.41,952.38,-0.73,0.31,-9.68,-4.29,1.81,-19.99
124,0,0,0,0,0,2020,8,2,0,2,6,0,0,0,3.74,3.31,4.98,4.99,37.46,33.16,29.47,33.21,29.40,952.28,-0.73,0.31,-9.68,-4.29,1.81,-20.18
125,0,0,0,0,0,2020,8,2,0,2,7,0,0,0,3.75,3.30,4.98,4.99,38.64,33.52,29.47,33.26,29.43,952.29,-0.69,0.31,-9.71,-4.05,1.80,-20.61
126,0,0,0,0,0,2020,8,2,0,2,8,0,0,0,3.74,3.32,4.98,4.96,37.69,33.27,29.48,33.29,29.45,952.35,-0.80,0.31,-9.60,-4.78,1.82,-21.12
127,0,0,0,0,0,2020,8,2,0,2,9,0,0,0,3.75,3.30,4.98,4.99,38.53,32.97,29.48,33.28,29.41,952.36,-0.57,0.19,-9.52,-3.45,1.15,-22.12
128,0,0,0,0,0,2020,8,2,0,2,10,0,0,0,3.73,3.31,4.98,4.99,37.81,33.29,29.49,33.30,29.43,952.32,-0.65,0.38,-9.71,-3.83,2.25,-20.53
129,0,0,0,0,0,2020,8,2,0,2,11,0,0,0,3.74,3.30,4.98,4.99,38.51,33.58,29.51,33.34,29.45,952.24,-0.54,0.31,-9.52,-3.22,1.84,-19.87
130,0,0,0,0,0,2020,8,2,0,2,12,0,0,0,3.74,3.31,4.98,5.00,36.43,33.39,29.51,33.38,29.45,952.20,-0.73,0.31,-9.45,-4.40,1.85,-21.83
131,0,0,0,0,0,2020,8,2,0,2,13,0,0,0,3.74,3.30,4.98,4.99,38.89,33.12,29.53,33.41,29.45,952.22,-0.65,0.23,-9.68,-3.84,1.36,-22.34
132,0,0,0,0,0,2020,8,2,0,2,14,0,0,0,3.74,3.31,4.98,4.96,38.15,33.24,29.54,33.43,29.44,952.22,-0.65,0.23,-9.37,-3.97,1.40,-20.01
133,0,0,0,0,0,2020,8,2,0,2,15,0,0,0,3.74,3.30,4.98,4.99,38.63,33.14,29.55,33.46,29.45,952.05,-0.54,0.19,-10.29,-2.98,1.06,-22.81
134,0,0,0,0,0,2020,8,2,0,2,16,0,0,0,3.74,3.31,4.98,4.99,37.51,32.62,29.56,33.51,29.45,952.39,-0.65,0.23,-9.79,-3.80,1.34,-21.71
135,0,0,0,0,0,2020,8,2,0,2,17,0,0,0,3.74,3.30,4.98,4.99,38.61,32.76,29.55,33.48,29.45,952.09,-0.69,0.34,-9.75,-4.04,2.02,-20.57
136,0,0,0,0,0,2020,8,2,0,2,18,0,0,0,3.74,3.31,4.98,4.99,37.14,32.92,29.57,33.53,29.47,952.26,-0.76,0.23,-9.29,-4.70,1.41,-22.72
137,0,0,0,0,0,2020,8,2,0,2,19,0,0,0,3.74,3.30,4.98,4.99,39.03,33.01,29.56,33.54,29.47,952.30,-0.88,0.23,-9.45,-5.32,1.39,-22.87
138,0,0,0,0,0,2020,8,2,0,2,20,0,0,0,3.75,3.31,4.98,4.99,37.94,33.20,29.57,33.56,29.49,952.18,-0.46,0.34,-9.94,-2.64,1.98,-22.49
139,0,0,0,0,0,2020,8,2,0,2,21,0,0,0,3.71,3.30,4.98,4.99,39.15,33.61,29.59,33.63,29.46,952.05,-0.73,0.23,-9.48,-4.38,1.38,-22.06
140,0,0,0,0,0,2020,8,2,0,2,22,0,0,0,3.74,3.31,4.98,4.99,38.06,33.01,29.58,33.63,29.48,951.79,-2.72,0.46,-8.18,-18.33,3.05,-17.63
141,0,0,0,0,0,2020,8,2,0,2,23,0,0,0,3.74,3.30,4.98,4.99,38.70,33.14,29.59,33.66,29.49,951.91,-1.38,0.92,-6.81,-11.33,7.53,-8.27
142,0,0,0,0,0,2020,8,2,0,2,24,0,0,0,3.74,3.31,4.98,4.99,38.30,33.33,29.59,33.66,29.48,951.81,0.65,-0.19,-9.75,3.81,-1.12,-13.54
143,0,0,0,0,0,2020,8,2,0,2,25,0,0,0,3.69,3.30,4.98,4.99,39.21,33.59,29.61,33.70,29.50,951.30,0.34,-0.31,-9.06,2.17,-1.93,5.91
144,0,0,0,0,0,2020,8,2,0,2,26,0,0,0,3.73,3.31,4.98,4.99,38.55,33.36,29.59,33.72,29.49,950.65,1.26,2.75,-10.17,6.83,15.04,56.94
145,0,0,0,0,0,2020,8,2,0,2,27,0,0,0,3.73,3.31,4.98,4.99,39.42,33.34,29.58,33.78,29.49,948.93,-5.28,1.72,-9.94,-27.61,8.69,77.24
146,0,0,0,0,0,2020,8,2,0,2,28,0,0,0,3.73,3.31,4.98,4.99,38.59,33.80,29.62,33.80,29.55,948.73,-3.10,-0.57,-6.65,-24.88,-4.47,-6.51
147,0,0,0,0,0,2020,8,2,0,2,29,0,0,0,3.75,3.30,4.98,4.99,39.14,33.32,29.68,33.83,29.60,948.92,0.73,1.72,-9.14,4.47,10.63,66.11
148,0,0,0,0,0,2020,8,2,0,2,30,0,0,0,3.74,3.31,4.98,4.99,38.40,33.58,29.74,33.82,29.60,950.26,-0.73,0.99,-9.18,-4.50,6.16,52.55
149,0,0,0,0,0,2020,8,2,0,2,31,0,0,0,3.75,3.30,4.98,4.99,39.34,33.89,29.74,33.85,29.63,950.73,-0.76,0.46,-9.64,-4.53,2.72,49.79
150,0,0,0,0,0,2020,8,2,0,2,32,0,0,0,3.74,3.31,4.98,4.99,38.51,33.74,29.76,33.87,29.61,950.54,-0.69,0.50,-9.56,-4.11,2.97,50.51
151,0,0,0,0,0,2020,8,2,0,2,33,0,0,0,3.74,3.30,4.98,4.95,39.68,33.78,29.77,33.91,29.64,950.36,-0.65,0.46,-9.75,-3.81,2.69,48.83
152,0,0,0,0,0,2020,8,2,0,2,34,0,0,0,3.73,3.31,4.98,4.99,38.75,33.69,29.81,33.91,29.69,950.73,-0.61,0.38,-9.60,-3.64,2.28,46.16
153,0,0,0,0,0,2020,8,2,0,2,35,0,0,0,3.74,3.31,4.98,4.99,38.07,33.26,29.83,33.97,29.67,950.69,-0.54,0.38,-9.60,-3.19,2.28,47.24
154,0,0,0,0,0,2020,8,2,0,2,36,0,0,0,3.73,3.31,4.98,4.99,38.79,33.52,29.84,33.93,29.68,950.82,-0.69,0.46,-9.64,-4.08,2.72,48.47
155,0,0,0,0,0,2020,8,2,0,2,37,0,0,0,3.74,3.31,4.98,4.95,39.35,33.74,29.86,33.94,29.73,950.77,-0.69,0.42,-9.75,-4.03,2.46,48.82
156,0,0,0,0,0,2020,8,2,0,2,38,0,0,0,3.71,3.31,4.98,4.99,38.46,33.54,29.88,33.97,29.73,950.61,-0.61,0.38,-9.75,-3.59,2.24,48.50
157,0,0,0,0,0,2020,8,2,0,2,39,0,0,0,3.73,3.31,4.98,4.99,39.59,33.20,29.88,34.00,29.73,950.76,-0.76,0.54,-9.60,-4.55,3.18,48.36
158,0,0,0,0,0,2020,8,2,0,2,40,0,0,0,3.72,3.31,4.98,4.99,39.28,33.75,29.89,34.01,29.73,950.59,-0.65,0.42,-9.41,-3.95,2.55,48.89
159,0,0,0,0,0,2020,8,2,0,2,41,0,0,0,3.74,3.30,4.98,4.99,39.70,33.55,29.91,34.05,29.76,950.70,-0.69,0.42,-9.91,-3.97,2.43,49.99
160,0,0,0,0,0,2020,8,2,0,2,42,0,0,0,3.73,3.31,4.98,4.99,39.01,34.02,29.93,34.05,29.76,950.91,-0.65,0.50,-9.64,-3.85,2.95,48.19
161,0,0,0,0,0,2020,8,2,0,2,43,0,0,0,3.74,3.30,4.98,4.99,39.97,33.68,29.94,34.05,29.77,950.83,-0.76,0.34,-9.68,-4.52,2.03,49.46
162,0,0,0,0,0,2020,8,2,0,2,44,0,0,0,3.64,3.31,4.98,4.99,38.44,33.91,29.95,34.10,29.77,950.71,-0.61,0.42,-9.75,-3.59,2.47,47.93
163,0,0,0,0,0,2020,8,2,0,2,45,0,0,0,3.74,3.30,4.98,4.99,39.90,34.47,29.97,34.13,29.80,950.74,-0.57,0.46,-9.79,-3.35,2.68,46.93
164,0,0,0,0,0,2020,8,2,0,2,46,0,0,0,3.74,3.31,4.98,4.99,39.03,33.58,29.98,34.13,29.77,950.83,-0.65,0.50,-9.60,-3.87,2.96,48.71
165,0,0,0,0,0,2020,8,2,0,2,47,0,0,0,3.72,3.30,4.98,4.99,39.63,33.89,29.99,34.14,29.80,951.03,-0.61,0.50,-9.71,-3.60,2.92,49.02
166,0,0,0,0,0,2020,8,2,0,2,48,0,0,0,3.74,3.31,4.98,4.99,38.82,33.11,29.99,34.16,29.78,951.01,-0.80,0.42,-9.64,-4.76,2.49,49.07
167,0,0,0,0,0,2020,8,2,0,2,49,0,0,0,3.73,3.31,4.98,4.99,39.52,33.73,30.00,34.16,29.78,950.75,-0.73,0.34,-9.79,-4.24,2.01,48.43
168,0,0,0,0,0,2020,8,2,0,2,50,0,0,0,3.74,3.31,4.98,4.96,39.51,33.75,30.03,34.19,29.81,950.89,-0.61,0.38,-9.71,-3.60,2.25,48.71
169,0,0,0,0,0,2020,8,2,0,2,51,0,0,0,3.74,3.30,4.98,4.99,40.09,34.03,30.03,34.20,29.80,950.87,-0.73,0.46,-9.83,-4.22,2.67,46.91
170,0,0,0,0,0,2020,8,2,0,2,52,0,0,0,3.74,3.31,4.98,4.99,39.56,33.79,30.04,34.25,29.80,951.03,-0.65,0.42,-9.45,-3.93,2.54,49.08
171,0,0,0,0,0,2020,8,2,0,2,53,0,0,0,3.72,3.31,4.98,4.99,39.92,33.35,30.04,34.26,29.80,950.88,-0.65,0.46,-9.60,-3.87,2.73,48.19
172,0,0,0,0,0,2020,8,2,0,2,54,0,0,0,3.74,3.31,4.98,4.99,39.15,33.57,30.08,34.28,29.85,951.07,-0.69,0.38,-9.64,-4.08,2.27,47.97
173,0,0,0,0,0,2020,8,2,0,2,55,0,0,0,3.73,3.30,4.98,4.99,40.06,34.08,30.09,34.34,29.86,951.02,-0.73,0.46,-9.52,-4.36,2.75,50.53
174,0,0,0,0,0,2020,8,2,0,2,56,0,0,0,3.73,3.30,4.98,4.97,39.65,34.18,30.10,34.31,29.87,951.16,-0.69,0.38,-9.71,-4.05,2.25,48.92
175,0,0,0,0,0,2020,8,2,0,2,57,0,0,0,3.73,3.30,4.99,4.99,40.12,34.25,30.11,34.34,29.88,950.82,-0.65,0.38,-9.71,-3.83,2.25,47.35
176,0,0,0,0,0,2020,8,2,0,2,58,0,0,0,3.74,3.31,4.98,4.99,39.26,33.85,30.11,34.39,29.88,950.91,-0.61,0.50,-9.79,-3.57,2.90,48.33
177,0,0,0,0,0,2020,8,2,0,2,59,0,0,0,3.74,3.30,4.98,4.99,39.82,34.11,30.13,34.38,29.88,950.69,-0.69,0.42,-9.83,-4.00,2.44,48.76
178,0,0,0,0,0,2020,8,2,0,3,0,0,0,0,3.74,3.31,4.98,4.99,39.05,33.96,30.14,34.40,29.89,950.85,-0.57,0.42,-9.56,-3.43,2.51,48.39
179,0,0,0,0,0,2020,8,2,0,3,1,0,0,0,3.70,3.30,4.98,4.99,39.70,34.17,30.15,34.45,29.87,950.90,-0.65,0.50,-9.68,-3.84,2.93,48.14
180,0,0,0,0,0,2020,8,2,0,3,2,0,0,0,3.74,3.31,4.98,4.99,39.43,34.08,30.17,34.44,29.90,950.94,-0.69,0.42,-9.60,-4.10,2.50,47.01
181,0,0,0,0,0,2020,8,2,0,3,3,0,0,0,3.69,3.30,4.98,4.99,40.15,34.34,30.15,34.44,29.90,951.13,-0.61,0.42,-9.75,-3.59,2.47,48.34
182,0,0,0,0,0,2020,8,2,0,3,4,0,0,0,3.74,3.31,4.98,4.99,39.28,33.39,30.18,34.48,29.91,951.33,-0.61,0.38,-9.64,-3.63,2.27,49.26
183,0,0,0,0,0,2020,8,2,0,3,5,0,0,0,3.73,3.30,4.98,4.99,40.16,34.09,30.18,34.52,29.90,951.04,-0.65,0.38,-9.60,-3.87,2.28,48.80
184,0,0,0,0,0,2020,8,2,0,3,6,0,0,0,3.73,3.31,4.98,4.99,39.49,34.03,30.20,34.53,29.94,951.15,-0.65,0.46,-9.64,-3.85,2.72,48.30
185,0,0,0,0,0,2020,8,2,0,3,7,0,0,0,3.69,3.30,4.98,4.99,40.49,33.93,30.21,34.52,29.94,951.10,-0.69,0.50,-9.60,-4.10,2.96,49.92
186,0,0,0,0,0,2020,8,2,0,3,8,0,0,0,3.74,3.31,4.98,4.99,39.32,34.23,30.23,34.57,29.96,951.06,-0.69,0.50,-9.79,-4.02,2.90,50.12
187,0,0,0,0,0,2020,8,2,0,3,9,0,0,0,3.74,3.30,4.98,4.99,40.06,34.14,30.24,34.56,29.96,951.17,-0.61,0.38,-9.64,-3.63,2.27,48.81
188,0,0,0,0,0,2020,8,2,0,3,10,0,0,0,3.73,3.31,4.98,4.99,39.57,34.23,30.24,34.59,29.98,950.99,-0.69,0.38,-9.68,-4.07,2.26,47.13
189,0,0,0,0,0,2020,8,2,0,3,11,0,0,0,3.75,3.31,4.98,4.99,40.00,34.36,30.26,34.60,30.00,951.07,-0.65,0.46,-9.79,-3.80,2.68,49.53
190,0,0,0,0,0,2020,8,2,0,3,12,0,0,0,3.74,3.31,4.97,4.99,39.88,34.29,30.26,34.63,29.98,951.28,-0.65,0.42,-9.60,-3.87,2.50,49.90
191,0,0,0,0,0,2020,8,2,0,3,13,0,0,0,3.74,3.30,4.98,4.97,40.11,34.18,30.26,34.64,30.01,950.86,-0.61,0.42,-9.79,-3.57,2.46,48.46
192,0,0,0,0,0,2020,8,2,0,3,14,0,0,0,3.74,3.31,4.98,4.99,39.72,33.94,30.28,34.70,29.99,951.28,-0.54,0.34,-9.83,-3.12,2.00,46.32
193,0,0,0,0,0,2020,8,2,0,3,15,0,0,0,3.74,3.30,4.98,4.97,39.70,34.28,30.28,34.71,30.02,950.93,-0.61,0.54,-9.64,-3.63,3.17,49.01
194,0,0,0,0,0,2020,8,2,0,3,16,0,0,0,3.74,3.31,4.98,4.99,39.60,34.15,30.27,34.71,29.98,950.88,-0.65,0.38,-9.48,-3.92,2.30,46.52
195,0,0,0,0,0,2020,8,2,0,3,17,0,0,0,3.74,3.30,4.98,4.99,40.59,34.66,30.27,34.75,29.98,950.89,-0.65,0.38,-9.68,-3.84,2.26,49.81
196,0,0,0,0,0,2020,8,2,0,3,18,0,0,0,3.73,3.31,4.98,4.99,39.99,34.31,30.27,34.75,30.00,950.95,-0.69,0.57,-9.71,-4.05,3.37,48.95
197,0,0,0,0,0,2020,8,2,0,3,19,0,0,0,3.74,3.31,4.98,4.96,39.86,34.08,30.28,34.78,29.99,951.04,-0.65,0.38,-9.52,-3.90,2.29,49.06
198,0,0,0,0,0,2020,8,2,0,3,20,0,0,0,3.74,3.31,4.98,4.99,39.91,34.41,30.30,34.83,30.02,951.15,-0.65,0.50,-9.64,-3.85,2.95,49.07
199,0,0,0,0,0,2020,8,2,0,3,21,0,0,0,3.74,3.31,4.98,4.99,40.68,33.71,30.31,34.81,30.01,951.04,-0.65,0.46,-9.56,-3.89,2.74,48.29
200,0,0,0,0,0,2020,8,2,0,3,22,0,0,0,3.73,3.32,4.98,4.99,40.02,34.72,30.33,34.83,30.05,951.07,-0.61,0.54,-9.64,-3.63,3.17,49.13
201,0,0,0,0,0,2020,8,2,0,3,23,0,0,0,3.74,3.30,4.98,4.99,39.03,34.70,30.35,34.87,30.08,950.92,-0.54,0.46,-9.64,-3.18,2.72,47.99
202,0,0,0,0,0,2020,8,2,0,3,24,0,0,0,3.74,3.31,4.98,4.99,39.49,34.17,30.36,34.89,30.05,951.25,-0.65,0.42,-9.79,-3.80,2.46,47.45
203,0,0,0,0,0,2020,8,2,0,3,25,0,0,0,3.74,3.30,4.98,4.99,40.28,34.55,30.35,34.93,30.05,951.04,-0.50,0.46,-9.56,-2.97,2.74,50.62
204,0,0,0,0,0,2020,8,2,0,3,26,0,0,0,3.63,3.31,4.98,4.99,39.97,34.53,30.39,34.96,30.09,951.19,-0.54,0.42,-9.56,-3.20,2.52,46.86
205,0,0,0,0,0,2020,8,2,0,3,27,0,0,0,3.73,3.30,4.98,4.99,40.63,33.51,30.39,34.95,30.08,951.01,-0.73,0.46,-9.71,-4.27,2.70,50.85
206,0,0,0,0,0,2020,8,2,0,3,28,0,0,0,3.73,3.31,4.98,4.99,39.89,34.39,30.40,34.99,30.09,950.92,-0.65,0.42,-9.71,-3.83,2.47,48.96
207,0,0,0,0,0,2020,8,2,0,3,29,0,0,0,3.74,3.30,4.98,4.99,40.33,34.61,30.42,34.99,30.09,951.08,-0.61,0.46,-9.71,-3.60,2.70,49.19
208,0,0,0,0,0,2020,8,2,0,3,30,0,0,0,3.74,3.31,4.98,4.99,39.81,33.93,30.43,35.01,30.11,950.93,-0.57,0.42,-9.71,-3.38,2.48,47.50
209,0,0,0,0,0,2020,8,2,0,3,31,0,0,0,3.74,3.30,4.98,4.99,40.43,34.73,30.44,35.03,30.12,951.03,-0.73,0.54,-9.71,-4.27,3.15,48.76
210,0,0,0,0,0,2020,8,2,0,3,32,0,0,0,3.74,3.31,4.98,4.98,40.12,34.30,30.46,35.05,30.16,950.97,-0.65,0.50,-9.56,-3.88,2.97,47.90
211,0,0,0,0,0,2020,8,2,0,3,33,0,0,0,3.74,3.30,4.98,4.99,40.30,35.07,30.44,35.09,30.16,951.11,-0.57,0.42,-9.52,-3.44,2.52,49.74
212,0,0,0,0,0,2020,8,2,0,3,34,0,0,0,3.73,3.31,4.98,4.99,40.55,34.09,30.43,35.09,30.16,951.10,-0.65,0.50,-9.68,-3.84,2.93,50.70
213,0,0,0,0,0,2020,8,2,0,3,35,0,0,0,3.74,3.30,4.98,4.99,40.89,34.34,30.42,35.13,30.16,951.08,-0.73,0.38,-9.52,-4.36,2.29,49.87
214,0,0,0,0,0,2020,8,2,0,3,36,0,0,0,3.74,3.31,4.98,4.99,39.72,34.67,30.42,35.13,30.17,950.94,-0.65,0.46,-9.48,-3.92,2.76,48.61
215,0,0,0,0,0,2020,8,2,0,3,37,0,0,0,3.73,3.30,4.98,4.99,40.84,34.63,30.44,35.16,30.18,950.88,-0.69,0.42,-9.64,-4.08,2.49,49.79
216,0,0,0,0,0,2020,8,2,0,3,38,0,0,0,3.73,3.31,4.98,4.95,40.20,34.18,30.46,35.14,30.22,951.04,-0.73,0.42,-9.64,-4.31,2.49,50.65
217,0,0,0,0,0,2020,8,2,0,3,39,0,0,0,3.73,3.30,4.98,4.99,40.89,34.08,30.47,35.20,30.20,950.82,-0.65,0.31,-9.33,-3.98,1.87,46.79
218,0,0,0,0,0,2020,8,2,0,3,40,0,0,0,3.74,3.31,4.98,4.99,39.96,34.24,30.50,35.19,30.23,950.96,-0.65,0.42,-9.68,-3.84,2.48,48.19
219,0,0,0,0,0,2020,8,2,0,3,41,0,0,0,3.73,3.31,4.98,4.99,40.48,34.08,30.51,35.26,30.23,951.18,-0.65,0.38,-9.60,-3.87,2.28,50.31
220,0,0,0,0,0,2020,8,2,0,3,42,0,0,0,3.74,3.31,4.98,4.99,39.09,34.31,30.53,35.26,30.24,951.09,-0.69,0.42,-9.75,-4.03,2.46,48.40
221,0,0,0,0,0,2020,8,2,0,3,43,0,0,0,3.73,3.30,4.98,4.99,40.61,34.01,30.53,35.34,30.24,951.01,-0.65,0.46,-9.71,-3.82,2.70,48.58
222,0,0,0,0,0,2020,8,2,0,3,44,0,0,0,3.73,3.31,4.98,4.99,40.29,34.59,30.53,35.32,30.23,950.83,-0.57,0.50,-9.48,-3.46,3.00,49.11
223,0,0,0,0,0,2020,8,2,0,3,45,0,0,0,3.67,3.31,4.98,4.99,40.65,34.14,30.55,35.31,30.27,951.09,-0.73,0.42,-9.71,-4.27,2.47,48.57
224,0,0,0,0,0,2020,8,2,0,3,46,0,0,0,3.73,3.31,4.98,4.99,40.42,33.63,30.53,35.34,30.26,951.08,-0.73,0.54,-9.60,-4.32,3.18,50.55
225,0,0,0,0,0,2020,8,2,0,3,47,0,0,0,3.73,3.30,4.98,4.99,40.57,33.82,30.53,35.34,30.25,951.11,-0.61,0.38,-9.68,-3.62,2.26,48.83
226,0,0,0,0,0,2020,8,2,0,3,48,0,0,0,3.74,3.31,4.98,4.99,40.47,34.22,30.55,35.36,30.24,950.93,-0.61,0.42,-9.71,-3.60,2.47,49.60
227,0,0,0,0,0,2020,8,2,0,3,49,0,0,0,3.70,3.30,4.98,4.99,40.70,34.91,30.56,35.39,30.28,950.92,-0.65,0.38,-9.71,-3.83,2.25,49.74
228,0,0,0,0,0,2020,8,2,0,3,50,0,0,0,3.74,3.31,4.98,4.99,39.88,34.66,30.59,35.41,30.29,950.94,-0.73,0.42,-9.64,-4.31,2.49,51.50
229,0,0,0,0,0,2020,8,2,0,3,51,0,0,0,3.73,3.30,4.98,4.98,41.10,34.34,30.60,35.45,30.33,950.83,-0.69,0.50,-9.52,-4.13,2.98,49.46
230,0,0,0,0,0,2020,8,2,0,3,52,0,0,0,3.73,3.31,4.98,4.99,40.75,34.24,30.62,35.45,30.30,950.96,-0.69,0.38,-9.52,-4.13,2.29,49.14
231,0,0,0,0,0,2020,8,2,0,3,53,0,0,0,3.72,3.31,4.98,4.99,40.98,34.41,30.61,35.49,30.34,950.85,-0.61,0.46,-9.64,-3.63,2.72,49.83
232,0,0,0,0,0,2020,8,2,0,3,54,0,0,0,3.74,3.31,4.98,4.99,40.83,34.59,30.60,35.50,30.34,951.09,-0.69,0.54,-9.56,-4.11,3.20,46.30
233,0,0,0,0,0,2020,8,2,0,3,55,0,0,0,3.73,3.30,4.98,4.95,41.17,34.29,30.61,35.49,30.35,950.90,-0.73,0.42,-9.68,-4.29,2.48,49.59
234,0,0,0,0,0,2020,8,2,0,3,56,0,0,0,3.73,3.31,4.98,4.99,40.91,34.41,30.59,35.53,30.35,951.08,-0.65,0.50,-9.75,-3.81,2.91,49.43
235,0,0,0,0,0,2020,8,2,0,3,57,0,0,0,3.73,3.31,4.98,4.95,41.24,34.86,30.60,35.51,30.34,951.05,-0.61,0.38,-9.64,-3.63,2.27,48.36
236,0,0,0,0,0,2020,8,2,0,3,58,0,0,0,3.67,3.31,4.98,4.99,40.89,34.50,30.56,35.54,30.37,950.97,-0.76,0.38,-9.79,-4.46,2.23,50.04
237,0,0,0,0,0,2020,8,2,0,3,59,0,0,0,3.73,3.30,4.98,4.99,40.86,33.82,30.57,35.57,30.34,950.99,-0.69,0.38,-9.75,-4.03,2.24,48.71
238,0,0,0,0,0,2020,8,2,0,4,0,0,0,0,3.73,3.31,4.98,4.99,40.80,34.65,30.58,35.58,30.36,951.00,-0.73,0.42,-9.52,-4.36,2.52,51.11
239,0,0,0,0,0,2020,8,2,0,4,1,0,0,0,3.72,3.30,4.98,4.96,40.95,34.90,30.58,35.59,30.36,950.88,-0.69,0.61,-9.64,-4.08,3.62,48.93
240,0,0,0,0,0,2020,8,2,0,4,2,0,0,0,3.70,3.31,4.98,4.99,40.76,34.63,30.59,35.61,30.37,950.92,-0.50,0.50,-9.52,-2.98,2.98,49.03
241,0,0,0,0,0,2020,8,2,0,4,3,0,0,0,3.73,3.30,4.98,4.99,41.06,34.11,30.60,35.63,30.38,951.23,-0.61,0.46,-9.75,-3.59,2.69,49.81
242,0,0,0,0,0,2020,8,2,0,4,4,0,0,0,3.72,3.31,4.98,4.99,40.67,34.64,30.62,35.66,30.41,951.32,-0.54,0.42,-9.56,-3.20,2.52,48.73
243,0,0,0,0,0,2020,8,2,0,4,5,0,0,0,3.76,3.30,4.98,4.99,40.40,34.43,30.63,35.63,30.41,951.59,-0.69,0.46,-9.64,-4.08,2.72,51.40
244,0,0,0,0,0,2020,8,2,0,4,6,0,0,0,3.74,3.31,4.98,4.99,40.67,34.69,30.65,35.63,30.42,951.37,-0.69,0.42,-9.22,-4.27,2.61,48.04
245,0,0,0,0,0,2020,8,2,0,4,7,0,0,0,3.73,3.30,4.98,4.99,41.45,34.44,30.64,35.70,30.41,951.24,-0.65,0.50,-9.79,-3.79,2.90,51.05
246,0,0,0,0,0,2020,8,2,0,4,8,0,0,0,3.65,3.31,4.98,4.99,40.54,34.51,30.68,35.67,30.43,951.45,-0.61,0.38,-9.71,-3.60,2.25,47.08
247,0,0,0,0,0,2020,8,2,0,4,9,0,0,0,3.72,3.30,4.98,4.99,41.11,33.53,30.69,35.71,30.44,951.31,-0.69,0.38,-9.83,-4.00,2.22,49.38
248,0,0,0,0,0,2020,8,2,0,4,10,0,0,0,3.74,3.31,4.98,4.99,40.84,34.42,30.71,35.70,30.41,951.37,-0.65,0.42,-9.75,-3.81,2.46,48.44
249,0,0,0,0,0,2020,8,2,0,4,11,0,0,0,3.73,3.30,4.98,4.99,41.15,34.60,30.72,35.72,30.46,951.11,-0.61,0.42,-9.56,-3.66,2.51,49.26
250,0,0,0,0,0,2020,8,2,0,4,12,0,0,0,3.72,3.31,4.98,4.99,40.90,34.60,30.72,35.71,30.46,951.27,-0.57,0.46,-9.64,-3.40,2.72,50.02
251,0,0,0,0,0,2020,8,2,0,4,13,0,0,0,3.76,3.30,4.98,4.99,41.02,34.76,30.73,35.73,30.46,951.15,-0.73,0.38,-9.79,-4.24,2.23,49.61
252,0,0,0,0,0,2020,8,2,0,4,14,0,0,0,3.74,3.31,4.98,4.99,41.11,34.20,30.70,35.73,30.48,951.24,-0.61,0.46,-9.60,-3.64,2.73,48.48
253,0,0,0,0,0,2020,8,2,0,4,15,0,0,0,3.71,3.30,4.98,4.99,41.20,35.08,30.71,35.75,30.45,951.29,-0.61,0.38,-9.71,-3.60,2.25,49.11
254,0,0,0,0,0,2020,8,2,0,4,16,0,0,0,3.74,3.31,4.98,4.99,41.84,34.73,30.68,35.76,30.45,951.34,-0.54,0.42,-9.56,-3.20,2.52,47.35
255,0,0,0,0,0,2020,8,2,0,4,17,0,0,0,3.73,3.30,4.98,4.99,41.65,34.61,30.66,35.77,30.48,951.48,-0.65,0.42,-9.91,-3.75,2.43,49.92
256,0,0,0,0,0,2020,8,2,0,4,18,0,0,0,3.74,3.31,4.98,4.99,41.24,34.57,30.68,35.77,30.47,951.34,-0.73,0.50,-9.56,-4.34,2.97,50.05
257,0,0,0,0,0,2020,8,2,0,4,19,0,0,0,3.73,3.30,4.98,4.99,41.19,34.44,30.69,35.80,30.48,951.18,-0.65,0.31,-9.45,-3.94,1.85,48.32
258,0,0,0,0,0,2020,8,2,0,4,20,0,0,0,3.73,3.31,4.98,4.94,41.49,34.81,30.70,35.84,30.48,951.25,-0.57,0.38,-9.60,-3.42,2.28,50.81
259,0,0,0,0,0,2020,8,2,0,4,21,0,0,0,3.75,3.30,4.98,4.98,41.50,34.49,30.68,35.80,30.50,951.05,-0.65,0.50,-9.56,-3.88,2.97,49.49
260,0,0,0,0,0,2020,8,2,0,4,22,0,0,0,3.74,3.31,4.98,4.99,41.39,34.33,30.70,35.80,30.51,951.48,-0.61,0.50,-9.68,-3.61,2.94,49.12
261,0,0,0,0,0,2020,8,2,0,4,23,0,0,0,3.74,3.30,4.98,4.99,41.59,34.67,30.69,35.84,30.51,951.86,-0.19,0.11,-9.98,-1.10,0.66,44.05
262,0,0,0,0,0,2020,8,2,0,4,24,0,0,0,3.73,3.31,4.98,4.99,41.25,34.90,30.70,35.82,30.49,951.80,-0.76,0.61,-9.71,-4.49,3.59,51.23
263,0,0,0,0,0,2020,8,2,0,4,25,0,0,0,3.73,3.31,4.98,4.99,41.16,34.80,30.69,35.86,30.52,951.27,-0.69,0.54,-9.75,-4.03,3.13,50.56
264,0,0,0,0,0,2020,8,2,0,4,26,0,0,0,3.73,3.31,4.98,4.99,41.04,34.00,30.68,35.85,30.53,950.91,-0.73,0.42,-9.56,-4.34,2.51,50.19
265,0,0,0,0,0,2020,8,2,0,4,27,0,0,0,3.67,3.30,4.98,4.99,41.38,35.04,30.69,35.88,30.52,951.11,-0.65,0.50,-9.71,-3.82,2.92,50.61
266,0,0,0,0,0,2020,8,2,0,4,28,0,0,0,3.74,3.31,4.98,4.99,41.25,33.69,30.71,35.91,30.52,951.19,-0.57,0.50,-9.64,-3.40,2.95,51.18
267,0,0,0,0,0,2020,8,2,0,4,29,0,0,0,3.75,3.30,4.98,4.98,41.38,34.46,30.71,35.91,30.52,951.18,-0.69,0.46,-9.68,-4.06,2.71,49.71
268,0,0,0,0,0,2020,8,2,0,4,30,0,0,0,3.73,3.31,4.98,4.99,41.12,34.44,30.71,35.91,30.52,951.33,-0.92,0.54,-9.52,-5.50,3.20,50.60
269,0,0,0,0,0,2020,8,2,0,4,31,0,0,0,3.70,3.31,4.98,4.99,41.48,33.95,30.73,35.93,30.50,951.21,-0.76,0.42,-9.41,-4.64,2.55,50.25
270,0,0,0,0,0,2020,8,2,0,4,32,0,0,0,3.73,3.31,4.98,4.99,41.44,34.77,30.77,35.92,30.55,951.11,-0.65,0.46,-9.64,-3.85,2.72,49.79
271,0,0,0,0,0,2020,8,2,0,4,33,0,0,0,3.74,3.31,4.98,4.99,41.52,34.83,30.77,35.92,30.52,951.30,-0.73,0.50,-9.64,-4.31,2.94,51.63
272,0,0,0,0,0,2020,8,2,0,4,34,0,0,0,3.73,3.31,4.98,4.99,41.82,35.01,30.79,36.02,30.52,951.27,-0.65,0.42,-9.60,-3.87,2.50,49.97
273,0,0,0,0,0,2020,8,2,0,4,35,0,0,0,3.73,3.30,4.98,4.99,42.30,34.94,30.79,36.03,30.56,951.05,-0.76,0.38,-9.60,-4.55,2.27,51.81
274,0,0,0,0,0,2020,8,2,0,4,36,0,0,0,3.73,3.31,4.98,4.99,41.56,34.84,30.81,36.04,30.52,951.14,-0.73,0.46,-9.26,-4.48,2.83,50.62
275,0,0,0,0,0,2020,8,2,0,4,37,0,0,0,3.74,3.30,4.98,4.97,41.48,34.73,30.82,36.05,30.55,951.20,-0.69,0.46,-9.79,-4.02,2.68,50.19
276,0,0,0,0,0,2020,8,2,0,4,38,0,0,0,3.75,3.31,4.98,4.99,41.25,34.64,30.85,36.09,30.55,951.17,-0.65,0.54,-9.79,-3.79,3.12,49.30
277,0,0,0,0,0,2020,8,2,0,4,39,0,0,0,3.76,3.30,4.98,4.95,42.09,34.32,30.86,36.05,30.55,951.13,-0.65,0.46,-9.14,-4.06,2.87,51.52
278,0,0,0,0,0,2020,8,2,0,4,40,0,0,0,3.68,3.31,4.98,4.99,41.31,34.53,30.87,36.07,30.57,951.12,-0.69,0.50,-9.56,-4.11,2.97,47.20
279,0,0,0,0,0,2020,8,2,0,4,41,0,0,0,3.73,3.30,4.98,4.99,41.31,34.52,30.87,36.11,30.58,951.21,-0.61,0.46,-9.64,-3.63,2.72,49.93
280,0,0,0,0,0,2020,8,2,0,4,42,0,0,0,3.74,3.31,4.98,4.99,41.54,34.78,30.87,36.14,30.59,951.27,-0.54,0.50,-9.87,-3.10,2.88,49.46
281,0,0,0,0,0,2020,8,2,0,4,43,0,0,0,3.74,3.31,4.98,4.96,41.46,34.86,30.87,36.15,30.59,951.22,-0.61,0.54,-9.64,-3.63,3.17,49.95
282,0,0,0,0,0,2020,8,2,0,4,44,0,0,0,3.73,3.31,4.98,4.99,41.14,35.14,30.89,36.14,30.58,951.24,-0.65,0.42,-9.83,-3.78,2.45,50.24
283,0,0,0,0,0,2020,8,2,0,4,45,0,0,0,3.74,3.30,4.98,4.99,42.11,34.32,30.89,36.18,30.58,951.18,-0.69,0.46,-9.52,-4.13,2.75,50.77
284,0,0,0,0,0,2020,8,2,0,4,46,0,0,0,3.74,3.31,4.98,4.99,41.11,35.00,30.92,36.15,30.58,951.58,-0.57,0.50,-9.60,-3.42,2.96,48.60
285,0,0,0,0,0,2020,8,2,0,4,47,0,0,0,3.74,3.30,4.99,4.99,40.52,34.65,30.91,36.20,30.58,951.49,-0.65,0.46,-9.79,-3.80,2.68,49.85
286,0,0,0,0,0,2020,8,2,0,4,48,0,0,0,3.73,3.31,4.98,4.99,41.48,34.59,30.92,36.20,30.55,951.51,-0.69,0.42,-9.56,-4.11,2.51,50.17
287,0,0,0,0,0,2020,8,2,0,4,49,0,0,0,3.74,3.31,4.98,4.99,41.80,33.96,30.92,36.24,30.58,951.38,-0.73,0.42,-9.52,-4.36,2.52,51.09
288,0,0,0,0,0,2020,8,2,0,4,50,0,0,0,3.64,3.31,4.98,4.99,41.73,35.02,30.93,36.22,30.59,951.73,-0.04,0.15,-9.10,-0.24,0.96,42.74
289,0,0,0,0,0,2020,8,2,0,4,51,0,0,0,3.74,3.31,4.98,4.99,41.70,34.37,30.95,36.25,30.59,951.52,-0.73,0.50,-9.60,-4.32,2.96,51.46
290,0,0,0,0,0,2020,8,2,0,4,52,0,0,0,3.73,3.31,4.98,4.98,41.34,34.52,30.95,36.27,30.59,951.58,-0.76,0.46,-9.91,-4.41,2.64,46.66
291,0,0,0,0,0,2020,8,2,0,4,53,0,0,0,3.72,3.30,4.98,4.99,41.46,34.55,30.97,36.29,30.63,951.38,-1.07,0.99,-10.06,-6.05,5.61,55.44
292,0,0,0,0,0,2020,8,2,0,4,54,0,0,0,3.72,3.31,4.98,4.99,41.42,34.98,30.98,36.32,30.66,951.44,-0.84,0.73,-10.02,-4.79,4.13,50.74
293,0,0,0,0,0,2020,8,2,0,4,55,0,0,0,3.74,3.30,4.99,4.99,41.86,34.68,30.96,36.30,30.66,951.39,-0.65,0.50,-9.64,-3.85,2.95,50.09
294,0,0,0,0,0,2020,8,2,0,4,56,0,0,0,3.73,3.31,4.98,4.98,41.28,35.36,30.99,36.34,30.67,951.41,-0.57,0.42,-9.64,-3.40,2.50,47.34
295,0,0,0,0,0,2020,8,2,0,4,57,0,0,0,3.72,3.30,4.98,4.99,41.67,35.24,31.01,36.37,30.65,951.26,-0.54,0.42,-9.68,-3.16,2.49,47.18
296,0,0,0,0,0,2020,8,2,0,4,58,0,0,0,3.73,3.31,4.98,4.99,41.54,34.82,31.00,36.37,30.70,951.35,-0.57,0.34,-9.60,-3.42,2.05,49.60
297,0,0,0,0,0,2020,8,2,0,4,59,0,0,0,3.73,3.30,4.98,4.99,41.95,35.50,30.99,36.35,30.67,951.41,-0.61,0.34,-9.56,-3.66,2.06,46.50
298,0,0,0,0,0,2020,8,2,0,5,0,0,0,0,3.74,3.31,4.98,4.99,41.34,34.99,30.99,36.38,30.66,951.48,-0.50,0.27,-9.52,-2.99,1.61,45.15
299,0,0,0,0,0,2020,8,2,0,5,1,0,0,0,3.74,3.30,4.98,4.99,41.66,35.43,31.00,36.39,30.66,951.49,-0.57,0.34,-9.98,-3.29,1.97,46.24
300,0,0,0,0,0,2020,8,2,0,5,2,0,0,0,3.74,3.31,4.98,4.94,41.21,34.65,31.01,36.42,30.66,951.36,-0.54,0.38,-9.75,-3.14,2.24,46.84
301,0,0,0,0,0,2020,8,2,0,5,3,0,0,0,3.74,3.30,4.98,4.99,41.70,34.52,31.03,36.44,30.66,951.33,-0.54,0.34,-9.75,-3.14,2.02,46.21
302,0,0,0,0,0,2020,8,2,0,5,4,0,0,0,3.73,3.31,4.98,4.99,41.56,34.39,31.02,36.45,30.66,951.42,-0.65,0.38,-9.60,-3.87,2.28,46.88
303,0,0,0,0,0,2020,8,2,0,5,5,0,0,0,3.74,3.30,4.98,4.99,41.75,35.14,31.04,36.45,30.69,951.48,-0.57,0.23,-9.60,-3.42,1.37,44.64
304,0,0,0,0,0,2020,8,2,0,5,6,0,0,0,3.74,3.31,4.98,4.98,41.86,34.61,31.05,36.46,30.70,951.40,-0.42,0.31,-9.64,-2.50,1.82,41.93
305,0,0,0,0,0,2020,8,2,0,5,7,0,0,0,3.69,3.31,4.98,4.99,41.97,35.01,31.06,36.47,30.70,951.33,-0.57,0.34,-9.87,-3.33,1.99,48.32
306,0,0,0,0,0,2020,8,2,0,5,8,0,0,0,3.71,3.31,4.98,4.99,41.64,34.70,31.09,36.53,30.70,951.61,-0.54,0.31,-9.64,-3.18,1.82,47.14
307,0,0,0,0,0,2020,8,2,0,5,9,0,0,0,3.66,3.30,4.98,4.99,42.13,34.94,31.10,36.51,30.73,951.40,-0.57,0.19,-9.87,-3.33,1.11,45.06
308,0,0,0,0,0,2020,8,2,0,5,10,0,0,0,3.72,3.31,4.98,4.99,41.47,34.58,31.13,36.52,30.73,951.45,-0.50,0.34,-9.64,-2.95,2.04,46.79
309,0,0,0,0,0,2020,8,2,0,5,11,0,0,0,3.73,3.30,4.98,4.99,41.56,35.18,31.12,36.55,30.71,951.52,-0.42,0.31,-9.56,-2.52,1.83,45.51
310,0,0,0,0,0,2020,8,2,0,5,12,0,0,0,3.72,3.31,4.98,4.99,41.48,35.37,31.12,36.54,30.77,951.71,-0.61,0.38,-9.60,-3.64,2.28,47.18
311,0,0,0,0,0,2020,8,2,0,5,13,0,0,0,3.66,3.30,4.98,4.98,42.24,34.90,31.12,36.56,30.76,951.63,-0.61,0.38,-9.64,-3.63,2.27,47.15
312,0,0,0,0,0,2020,8,2,0,5,14,0,0,0,3.74,3.31,4.98,4.99,41.38,35.03,31.15,36.55,30.76,951.70,-0.50,0.38,-9.56,-2.97,2.29,48.22
313,0,0,0,0,0,2020,8,2,0,5,15,0,0,0,3.75,3.30,4.98,4.99,42.15,34.87,31.16,36.59,30.79,951.60,-0.46,0.31,-9.75,-2.69,1.79,45.29
314,0,0,0,0,0,2020,8,2,0,5,16,0,0,0,3.74,3.31,4.98,4.99,41.47,35.04,31.16,36.61,30.77,951.63,-0.57,0.31,-9.68,-3.39,1.81,45.53
315,0,0,0,0,0,2020,8,2,0,5,17,0,0,0,3.75,3.31,4.98,4.99,42.13,35.36,31.17,36.64,30.80,951.64,-0.57,0.34,-9.68,-3.39,2.03,48.42
316,0,0,0,0,0,2020,8,2,0,5,18,0,0,0,3.72,3.31,4.98,4.99,41.46,35.01,31.19,36.63,30.80,951.59,-0.57,0.34,-9.71,-3.38,2.03,48.96
317,0,0,0,0,0,2020,8,2,0,5,19,0,0,0,3.72,3.30,4.98,4.99,40.71,35.77,31.20,36.66,30.82,951.39,-0.54,0.34,-9.48,-3.23,2.08,47.52
318,0,0,0,0,0,2020,8,2,0,5,20,0,0,0,3.73,3.31,4.98,4.99,41.41,35.29,31.19,36.65,30.81,951.52,-0.54,0.34,-9.33,-3.28,2.11,48.37
319,0,0,0,0,0,2020,8,2,0,5,21,0,0,0,3.74,3.30,4.98,4.94,41.94,35.17,31.21,36.65,30.84,951.59,-0.46,0.31,-9.75,-2.69,1.79,47.20
320,0,0,0,0,0,2020,8,2,0,5,22,0,0,0,3.68,3.31,4.98,4.99,41.97,35.12,31.20,36.65,30.84,951.23,-0.42,0.34,-9.48,-2.54,2.08,46.26
321,0,0,0,0,0,2020,8,2,0,5,23,0,0,0,3.74,3.31,4.98,4.99,41.33,34.82,31.22,36.67,30.86,951.37,-0.61,0.34,-9.64,-3.63,2.04,47.65
322,0,0,0,0,0,2020,8,2,0,5,24,0,0,0,3.73,3.31,4.98,4.99,42.02,35.29,31.25,36.70,30.86,951.36,-0.61,0.27,-9.60,-3.65,1.59,45.17
323,0,0,0,0,0,2020,8,2,0,5,25,0,0,0,3.73,3.30,4.98,4.95,41.69,35.22,31.26,36.70,30.88,951.24,-0.50,0.34,-9.60,-2.96,2.05,48.07
324,0,0,0,0,0,2020,8,2,0,5,26,0,0,0,3.70,3.31,4.98,4.99,42.29,35.41,31.26,36.71,30.89,951.28,-0.57,0.50,-9.79,-3.35,2.90,46.15
325,0,0,0,0,0,2020,8,2,0,5,27,0,0,0,3.74,3.30,4.98,4.98,42.37,34.53,31.26,36.70,30.88,951.18,-0.50,0.42,-9.52,-2.99,2.53,47.93
326,0,0,0,0,0,2020,8,2,0,5,28,0,0,0,3.73,3.31,4.98,4.99,41.65,35.70,31.25,36.71,30.88,951.26,-0.42,0.38,-9.75,-2.47,2.24,46.52
327,0,0,0,0,0,2020,8,2,0,5,29,0,0,0,3.74,3.30,4.98,4.99,41.56,34.72,31.26,36.76,30.91,951.28,-0.54,0.23,-9.48,-3.23,1.38,44.84
328,0,0,0,0,0,2020,8,2,0,5,30,0,0,0,3.75,3.32,4.98,4.99,41.65,35.26,31.26,36.77,30.88,951.31,-0.46,0.27,-9.71,-2.70,1.58,46.71
329,0,0,0,0,0,2020,8,2,0,5,31,0,0,0,3.74,3.30,4.98,4.98,42.20,34.94,31.27,36.74,30.90,951.28,-0.50,0.31,-9.60,-2.96,1.82,47.01
330,0,0,0,0,0,2020,8,2,0,5,32,0,0,0,3.64,3.31,4.97,4.99,41.80,35.21,31.28,36.75,30.90,951.40,-0.57,0.42,-9.48,-3.46,2.54,47.34
331,0,0,0,0,0,2020,8,2,0,5,33,0,0,0,3.73,3.30,4.99,4.98,42.21,34.61,31.27,36.77,30.88,951.27,-0.57,0.27,-9.60,-3.42,1.59,49.51
332,0,0,0,0,0,2020,8,2,0,5,34,0,0,0,3.69,3.31,4.98,4.96,41.55,35.03,31.28,36.79,30.90,951.45,-0.57,0.42,-9.75,-3.36,2.47,47.35
333,0,0,0,0,0,2020,8,2,0,5,35,0,0,0,3.74,3.30,4.98,4.99,41.91,35.57,31.28,36.80,30.91,951.20,-0.57,0.34,-9.56,-3.43,2.06,47.39
334,0,0,0,0,0,2020,8,2,0,5,36,0,0,0,3.74,3.31,4.98,4.99,42.08,35.29,31.29,36.84,30.91,951.12,-0.54,0.54,-9.71,-3.15,3.15,48.00
335,0,0,0,0,0,2020,8,2,0,5,37,0,0,0,3.75,3.31,4.99,4.99,41.91,35.32,31.29,36.84,30.89,951.42,-0.57,0.42,-9.79,-3.35,2.46,47.01
336,0,0,0,0,0,2020,8,2,0,5,38,0,0,0,3.71,3.31,4.98,4.99,41.75,34.96,31.25,36.84,30.84,951.25,-0.57,0.23,-9.37,-3.50,1.40,45.16
337,0,0,0,0,0,2020,8,2,0,5,39,0,0,0,3.72,3.30,4.98,4.99,42.16,35.20,31.22,36.82,30.80,951.57,-0.50,0.42,-9.71,-2.93,2.48,47.31
338,0,0,0,0,0,2020,8,2,0,5,40,0,0,0,3.76,3.31,4.98,4.98,42.07,34.80,31.22,36.86,30.80,951.37,-0.50,0.34,-9.91,-2.87,1.99,48.08
339,0,0,0,0,0,2020,8,2,0,5,41,0,0,0,3.72,3.30,4.98,4.98,42.33,35.21,31.21,36.88,30.79,951.46,-0.50,0.42,-9.68,-2.94,2.49,45.64
340,0,0,0,0,0,2020,8,2,0,5,42,0,0,0,3.74,3.31,4.98,4.99,41.57,35.18,31.21,36.87,30.78,951.32,-0.50,0.34,-9.75,-2.92,2.02,46.06
341,0,0,0,0,0,2020,8,2,0,5,43,0,0,0,3.72,3.30,4.98,4.99,42.28,35.16,31.21,36.90,30.80,951.46,-0.61,0.31,-9.71,-3.60,1.80,47.95
342,0,0,0,0,0,2020,8,2,0,5,44,0,0,0,3.74,3.31,4.98,4.95,42.01,34.95,31.22,36.93,30.80,951.57,-0.54,0.31,-9.71,-3.15,1.80,46.52
343,0,0,0,0,0,2020,8,2,0,5,45,0,0,0,3.73,3.31,4.98,4.99,42.03,35.45,31.22,36.93,30.77,951.50,-0.65,0.31,-9.52,-3.90,1.84,47.34
344,0,0,0,0,0,2020,8,2,0,5,46,0,0,0,3.72,3.31,4.98,4.99,41.78,34.73,31.21,36.91,30.80,951.62,-0.54,0.34,-9.75,-3.14,2.02,48.57
345,0,0,0,0,0,2020,8,2,0,5,47,0,0,0,3.73,3.30,4.98,4.99,41.91,35.19,31.22,36.94,30.82,951.47,-0.54,0.46,-9.64,-3.18,2.72,48.01
346,0,0,0,0,0,2020,8,2,0,5,48,0,0,0,3.74,3.31,4.97,4.99,40.55,35.36,31.24,36.94,30.84,950.91,-0.61,0.38,-9.64,-3.63,2.27,48.01
347,0,0,0,0,0,2020,8,2,0,5,49,0,0,0,3.70,3.31,4.98,4.99,42.07,34.92,31.22,36.98,30.83,950.92,-0.34,0.57,-9.87,-1.99,3.33,48.62
348,0,0,0,0,0,2020,8,2,0,5,50,0,0,0,3.76,3.31,4.98,4.99,42.15,34.47,31.22,36.99,30.83,951.11,-0.57,0.34,-9.71,-3.38,2.03,47.15
349,0,0,0,0,0,2020,8,2,0,5,51,0,0,0,3.70,3.31,4.98,4.99,42.48,34.56,31.21,36.98,30.80,951.22,-0.61,0.38,-9.60,-3.64,2.28,48.47
350,0,0,0,0,0,2020,8,2,0,5,52,0,0,0,3.77,3.31,4.98,4.99,41.58,34.70,31.25,36.99,30.80,951.43,-0.69,0.34,-9.64,-4.08,2.04,47.22
351,0,0,0,0,0,2020,8,2,0,5,53,0,0,0,3.74,3.31,4.98,4.99,41.82,35.31,31.26,37.02,30.86,951.48,-0.73,0.38,-9.48,-4.38,2.30,49.56
352,0,0,0,0,0,2020,8,2,0,5,54,0,0,0,3.76,3.31,4.97,4.99,41.23,34.86,31.25,37.04,30.86,951.20,-0.61,0.34,-9.41,-3.72,2.09,48.09
353,0,0,0,0,0,2020,8,2,0,5,55,0,0,0,3.68,3.30,4.98,4.99,42.08,35.82,31.25,37.05,30.87,951.44,-0.54,0.38,-9.60,-3.19,2.28,47.64
354,0,0,0,0,0,2020,8,2,0,5,56,0,0,0,3.77,3.31,4.98,4.99,41.39,34.89,31.25,37.06,30.86,951.39,-0.46,0.34,-9.60,-2.74,2.05,45.80
355,0,0,0,0,0,2020,8,2,0,5,57,0,0,0,3.73,3.31,4.98,4.98,41.97,35.33,31.26,37.06,30.86,951.29,-0.50,0.38,-9.33,-3.05,2.34,47.40
356,0,0,0,0,0,2020,8,2,0,5,58,0,0,0,3.75,3.31,4.98,4.99,41.90,35.12,31.25,37.05,30.88,951.56,-0.54,0.27,-9.64,-3.18,1.59,45.98
357,0,0,0,0,0,2020,8,2,0,5,59,0,0,0,3.74,3.30,4.98,4.98,41.69,34.72,31.23,37.07,30.83,951.48,-0.69,0.34,-9.64,-4.08,2.04,48.77
358,0,0,0,0,0,2020,8,2,0,6,0,0,0,0,3.72,3.31,4.98,4.99,41.43,35.19,31.22,37.10,30.80,951.27,-0.61,0.34,-9.48,-3.69,2.07,48.60
359,0,0,0,0,0,2020,8,2,0,6,1,0,0,0,3.74,3.30,4.98,4.94,41.73,35.35,31.21,37.08,30.77,951.26,-0.54,0.42,-9.79,-3.13,2.46,46.50
360,0,0,0,0,0,2020,8,2,0,6,2,0,0,0,3.75,3.31,4.98,4.99,41.39,34.87,31.20,37.09,30.79,951.41,-0.61,0.46,-9.60,-3.64,2.73,49.54
361,0,0,0,0,0,2020,8,2,0,6,3,0,0,0,3.73,3.30,4.98,4.95,42.30,35.28,31.24,37.10,30.80,951.52,-0.65,0.46,-9.79,-3.80,2.68,50.48
362,0,0,0,0,0,2020,8,2,0,6,4,0,0,0,3.73,3.31,4.98,4.99,41.54,34.86,31.26,37.13,30.80,951.36,-0.61,0.31,-9.48,-3.69,1.84,46.73
363,0,0,0,0,0,2020,8,2,0,6,5,0,0,0,3.73,3.30,4.98,4.99,41.34,35.59,31.29,37.16,30.87,951.26,-0.69,0.42,-9.48,-4.15,2.53,49.49
364,0,0,0,0,0,2020,8,2,0,6,6,0,0,0,3.73,3.31,4.98,4.99,41.61,35.47,31.30,37.15,30.88,951.38,-0.57,0.38,-9.68,-3.39,2.26,47.93
365,0,0,0,0,0,2020,8,2,0,6,7,0,0,0,3.73,3.30,4.98,4.96,40.55,35.14,31.32,37.16,30.90,951.42,-0.54,0.46,-9.60,-3.19,2.73,48.82
366,0,0,0,0,0,2020,8,2,0,6,8,0,0,0,3.72,3.31,4.98,4.99,41.21,35.29,31.32,37.13,30.90,951.44,-0.65,0.27,-9.52,-3.90,1.61,46.70
367,0,0,0,0,0,2020,8,2,0,6,9,0,0,0,3.73,3.31,4.98,4.99,42.43,34.85,31.32,37.15,30.89,951.51,-0.46,0.38,-9.79,-2.68,2.23,47.77
368,0,0,0,0,0,2020,8,2,0,6,10,0,0,0,3.73,3.30,4.98,4.99,41.50,34.76,31.35,37.17,30.94,951.48,-0.57,0.42,-9.71,-3.38,2.48,47.52
369,0,0,0,0,0,2020,8,2,0,6,11,0,0,0,3.73,3.30,4.98,4.99,41.08,35.31,31.35,37.19,30.96,951.43,-0.57,0.31,-9.79,-3.35,1.79,47.58
370,0,0,0,0,0,2020,8,2,0,6,12,0,0,0,3.73,3.31,4.98,4.99,41.67,35.19,31.37,37.20,30.98,951.33,-0.57,0.42,-9.60,-3.42,2.50,46.88
371,0,0,0,0,0,2020,8,2,0,6,13,0,0,0,3.74,3.30,4.98,4.98,42.13,35.49,31.37,37.23,30.98,951.36,0.23,2.37,-10.48,1.22,12.75,52.93
372,0,0,0,0,0,2020,8,2,0,6,14,0,0,0,3.65,3.31,4.98,4.99,41.56,35.29,31.37,37.16,30.97,951.55,-0.50,0.34,-9.60,-2.96,2.05,47.59
373,0,0,0,0,0,2020,8,2,0,6,15,0,0,0,3.73,3.30,4.98,4.99,41.81,35.55,31.36,37.20,30.98,951.60,-0.61,0.27,-9.68,-3.62,1.58,48.19
374,0,0,0,0,0,2020,8,2,0,6,16,0,0,0,3.66,3.31,4.98,4.97,41.28,35.02,31.35,37.20,30.96,952.01,0.65,1.34,-9.64,3.82,7.89,47.10
375,0,0,0,0,0,2020,8,2,0,6,17,0,0,0,3.73,3.30,4.98,4.99,41.63,35.31,31.33,37.20,30.95,952.56,-4.21,5.89,0.80,-35.29,53.98,-18.02
376,0,0,0,0,0,2020,8,2,0,6,18,0,0,0,3.73,3.31,4.98,5.00,41.51,34.95,31.29,37.25,30.91,952.11,1.57,-3.67,6.62,11.71,-28.37,-155.62
377,0,0,0,0,0,2020,8,2,0,6,19,0,0,0,3.71,3.30,4.98,4.99,41.91,35.50,31.28,37.24,30.93,952.01,1.57,-2.18,7.50,11.36,-15.89,175.17
378,0,0,0,0,0,2020,8,2,0,6,20,0,0,0,3.70,3.31,4.98,4.98,41.07,34.69,31.26,37.24,30.95,952.06,1.11,-3.56,10.67,5.63,-18.34,-178.99
0,0,0,0,0,0,2020,8,2,0,0,2,0,0,0,3.74,3.32,4.98,4.99,37.07,33.80,31.15,34.79,31.17,950.60,7.30,-3.37,3.33,57.06,-22.75,161.03
1,0,0,0,0,0,2020,8,2,0,0,3,0,0,0,3.73,3.31,4.98,4.99,38.31,36.16,31.15,34.75,31.19,950.94,7.00,-6.39,0.88,47.35,-42.16,-171.87
2,0,0,0,0,0,2020,8,2,0,0,4,0,0,0,3.66,3.31,4.98,4.99,37.09,35.28,31.15,34.74,31.21,951.33,5.24,-7.80,-1.19,33.58,-55.45,-169.98
3,0,0,0,0,0,2020,8,2,0,0,5,0,0,0,3.74,3.31,4.98,4.99,38.00,35.65,31.14,34.74,31.19,950.90,6.96,-6.27,-0.99,47.62,-41.73,-166.01
4,0,0,0,0,0,2020,8,2,0,0,6,0,0,0,3.74,3.31,4.98,4.96,37.25,33.95,31.13,34.75,31.21,950.96,7.00,-6.27,-0.19,48.12,-41.86,-167.99
5,0,0,0,0,0,2020,8,2,0,0,7,0,0,0,3.73,3.30,4.98,4.99,38.13,35.67,31.14,34.73,31.20,951.05,7.80,-6.58,2.10,48.48,-39.15,176.92
6,0,0,0,0,0,2020,8,2,0,0,8,0,0,0,3.73,3.31,4.98,4.99,37.53,35.06,31.13,34.76,31.20,950.82,6.54,-7.50,-1.53,40.52,-48.14,-176.47
7,0,0,0,0,0,2020,8,2,0,0,9,0,0,0,3.73,3.30,4.98,4.99,38.26,35.28,31.14,34.77,31.15,950.68,8.53,-5.39,5.55,47.79,-27.93,-143.75
8,0,0,0,0,0,2020,8,2,0,0,10,0,0,0,3.66,3.31,4.98,4.99,37.35,35.27,31.17,34.79,31.16,950.77,2.14,-8.87,-0.57,13.54,-75.97,-153.44
9,0,0,0,0,0,2020,8,2,0,0,11,0,0,0,3.73,3.31,4.98,4.99,38.56,35.70,31.20,34.83,31.15,950.78,2.07,-9.22,1.26,12.52,-75.29,-152.55
10,0,0,0,0,0,2020,8,2,0,0,12,0,0,0,3.73,3.31,4.98,4.95,37.44,35.15,31.22,34.82,31.16,950.72,0.96,-9.33,2.10,5.71,-76.09,-149.54
11,0,0,0,0,0,2020,8,2,0,0,13,0,0,0,3.72,3.31,4.98,4.99,38.06,35.43,31.24,34.81,31.19,950.74,2.72,-9.64,0.54,15.71,-73.98,-160.78
12,0,0,0,0,0,2020,8,2,0,0,14,0,0,0,3.73,3.31,4.98,4.99,37.71,34.48,31.28,34.86,31.19,950.86,0.38,-9.48,1.99,2.26,-77.95,-158.28
13,0,0,0,0,0,2020,8,2,0,0,15,0,0,0,3.73,3.31,4.98,4.99,38.51,35.34,31.23,34.89,31.16,950.77,2.22,-9.22,2.07,13.22,-71.80,-160.18
14,0,0,0,0,0,2020,8,2,0,0,16,0,0,0,3.73,3.31,4.98,4.98,36.79,34.69,31.19,34.90,31.10,950.63,1.53,-9.18,1.64,9.32,-76.25,-165.71
15,0,0,0,0,0,2020,8,2,0,0,17,0,0,0,3.69,3.30,4.98,4.99,38.49,35.42,31.21,34.88,31.11,950.44,1.68,-9.06,2.03,10.27,-73.79,-167.06
16,0,0,0,0,0,2020,8,2,0,0,18,0,0,0,3.73,3.31,4.98,4.99,37.80,35.21,31.22,34.93,31.15,950.45,-1.19,-8.64,1.76,-7.66,-76.21,-164.01
17,0,0,0,0,0,2020,8,2,0,0,19,0,0,0,3.73,3.31,4.98,4.99,38.14,35.21,31.26,34.95,31.15,951.23,2.75,-8.99,-0.57,17.00,-72.62,-151.17
18,0,0,0,0,0,2020,8,2,0,0,20,0,0,0,3.73,3.31,4.98,4.99,37.01,34.60,31.29,34.95,31.17,951.12,0.80,-9.56,-1.26,4.76,-81.11,-147.65
19,0,0,0,0,0,2020,8,2,0,0,21,0,0,0,3.66,3.31,4.98,4.99,38.93,35.48,31.27,34.98,31.17,951.00,1.76,-9.37,-0.50,10.62,-78.96,-151.55
20,0,0,0,0,0,2020,8,2,0,0,22,0,0,0,3.74,3.31,4.98,4.99,37.69,35.15,31.27,35.03,31.14,951.38,1.72,-9.14,0.04,10.66,-79.33,-155.84
21,0,0,0,0,0,2020,8,2,0,0,23,0,0,0,3.65,3.30,4.98,4.99,38.41,35.26,31.27,35.04,31.17,951.45,1.72,-9.33,2.18,10.18,-73.43,-159.44
22,0,0,0,0,0,2020,8,2,0,0,24,0,0,0,3.74,3.31,4.98,4.99,37.91,34.84,31.22,35.07,31.12,950.86,0.57,-9.37,1.22,3.47,-81.79,-179.67
23,0,0,0,0,0,2020,8,2,0,0,25,0,0,0,3.74,3.31,4.98,4.98,38.38,35.85,31.25,35.09,31.14,950.41,0.65,-9.60,1.95,3.80,-77.91,-176.09
24,0,0,0,0,0,2020,8,2,0,0,26,0,0,0,3.73,3.31,4.98,4.99,38.20,35.22,31.28,35.13,31.15,950.55,0.84,-9.29,2.79,4.96,-72.58,-167.44
25,0,0,0,0,0,2020,8,2,0,0,27,0,0,0,3.73,3.31,4.98,4.99,38.11,36.07,31.34,35.13,31.16,950.47,0.50,-9.26,2.41,2.98,-75.11,-168.32
26,0,0,0,0,0,2020,8,2,0,0,28,0,0,0,3.73,3.31,4.98,4.99,38.07,35.13,31.35,35.16,31.17,950.42,-1.76,-9.71,1.53,-10.14,-76.50,-164.93
27,0,0,0,0,0,2020,8,2,0,0,29,0,0,0,3.74,3.30,4.98,4.99,36.04,35.90,31.35,35.20,31.16,950.65,0.61,-8.80,1.53,3.92,-79.39,177.47
28,0,0,0,0,0,2020,8,2,0,0,30,0,0,0,3.73,3.31,4.98,4.99,38.07,35.31,31.39,35.23,31.21,951.57,0.92,-9.56,1.03,5.45,-81.78,174.33
29,0,0,0,0,0,2020,8,2,0,0,31,0,0,0,3.73,3.31,4.98,4.97,38.54,35.67,31.35,35.23,31.21,950.42,0.19,-9.37,2.26,1.14,-76.41,-178.99
30,0,0,0,0,0,2020,8,2,0,0,32,0,0,0,3.73,3.31,4.98,4.99,38.32,35.38,31.39,35.28,31.23,950.57,1.07,-9.37,1.80,6.40,-77.41,-172.44
31,0,0,0,0,0,2020,8,2,0,0,33,0,0,0,3.73,3.30,4.98,4.96,38.04,35.54,31.43,35.29,31.23,950.52,0.23,-9.48,1.30,1.37,-82.07,-177.40
32,0,0,0,0,0,2020,8,2,0,0,34,0,0,0,3.74,3.31,4.98,4.99,38.24,35.51,31.46,35.34,31.25,950.78,-0.19,-9.68,1.57,-1.12,-80.73,178.85
33,0,0,0,0,0,2020,8,2,0,0,35,0,0,0,3.73,3.30,4.98,4.93,39.05,35.78,31.48,35.31,31.27,950.50,-0.34,-9.48,1.42,-2.06,-81.27,-173.93
34,0,0,0,0,0,2020,8,2,0,0,36,0,0,0,3.68,3.31,4.98,4.99,38.34,35.26,31.46,35.38,31.27,950.16,0.23,-9.14,-2.60,1.38,-74.06,-145.74
35,0,0,0,0,0,2020,8,2,0,0,37,0,0,0,3.73,3.30,4.98,4.99,38.93,35.82,31.46,35.41,31.25,949.95,-0.50,-8.49,-1.26,-3.31,-80.92,-145.19
36,0,0,0,0,0,2020,8,2,0,0,38,0,0,0,3.73,3.31,4.98,4.99,38.45,35.68,31.46,35.41,31.27,950.05,-0.15,-9.75,-1.30,-0.89,-82.35,-157.84
37,0,0,0,0,0,2020,8,2,0,0,39,0,0,0,3.73,3.31,4.98,4.99,38.97,35.51,31.48,35.45,31.30,949.93,-2.03,-8.95,-1.76,-12.53,-73.31,-123.02
38,0,0,0,0,0,2020,8,2,0,0,40,0,0,0,3.66,3.31,4.98,4.99,38.05,35.36,31.51,35.49,31.29,951.78,-1.11,-9.26,-2.68,-6.57,-72.61,-124.19
39,0,0,0,0,0,2020,8,2,0,0,41,0,0,0,3.73,3.31,4.98,4.99,39.01,34.37,31.43,35.48,31.29,949.77,-3.33,-9.06,0.11,-20.16,-69.83,-101.97
40,0,0,0,0,0,2020,8,2,0,0,42,0,0,0,3.69,3.31,4.98,4.99,38.42,35.49,31.47,35.48,31.31,949.95,-2.26,-9.33,-0.23,-13.59,-76.34,-122.37
41,0,0,0,0,0,2020,8,2,0,0,43,0,0,0,3.72,3.31,4.98,4.99,38.79,34.24,31.51,35.51,31.35,950.42,-3.02,-9.10,2.45,-17.77,-66.87,-106.46
42,0,0,0,0,0,2020,8,2,0,0,44,0,0,0,3.73,3.32,4.98,4.99,38.72,35.60,31.50,35.52,31.34,950.32,-1.57,-9.18,2.60,-9.33,-71.69,-135.55
43,0,0,0,0,0,2020,8,2,0,0,45,0,0,0,3.73,3.30,4.98,4.99,39.10,35.72,31.52,35.56,31.32,950.34,-1.07,-8.68,2.75,-6.71,-71.21,-144.05
44,0,0,0,0,0,2020,8,2,0,0,46,0,0,0,3.70,3.31,4.98,4.99,38.85,35.59,31.52,35.55,31.33,950.38,-2.60,-9.26,2.41,-15.21,-69.04,-137.06
45,0,0,0,0,0,2020,8,2,0,0,47,0,0,0,3.73,3.31,4.98,4.99,39.56,35.80,31.53,35.62,31.31,949.83,-0.69,-9.48,-0.73,-4.14,-83.98,-145.93
46,0,0,0,0,0,2020,8,2,0,0,48,0,0,0,3.73,3.31,4.98,4.96,38.68,35.29,31.53,35.62,31.30,949.64,-1.30,-9.94,0.00,-7.45,-82.55,-141.87
47,0,0,0,0,0,2020,8,2,0,0,49,0,0,0,3.73,3.30,4.98,4.99,39.50,35.87,31.53,35.64,31.34,949.65,-0.88,-9.37,-0.27,-5.36,-84.40,-146.77
48,0,0,0,0,0,2020,8,2,0,0,50,0,0,0,3.73,3.32,4.98,4.99,38.69,35.40,31.55,35.67,31.38,949.90,-0.65,-9.71,0.19,-3.83,-86.01,-168.69
49,0,0,0,0,0,2020,8,2,0,0,51,0,0,0,3.74,3.30,4.98,4.99,39.85,35.50,31.59,35.67,31.38,951.41,-0.15,-10.02,-1.22,-0.87,-82.98,-170.88
50,0,0,0,0,0,2020,8,2,0,0,52,0,0,0,3.72,3.31,4.98,4.95,38.79,35.47,31.60,35.68,31.36,951.26,-0.99,-9.10,-0.80,-6.21,-82.01,-144.74
51,0,0,0,0,0,2020,8,2,0,0,53,0,0,0,3.73,3.31,4.98,4.99,39.61,35.66,31.59,35.74,31.41,951.31,-0.46,-9.60,-0.46,-2.73,-86.13,-159.67
52,0,0,0,0,0,2020,8,2,0,0,54,0,0,0,3.73,3.31,4.98,4.95,39.42,35.42,31.60,35.76,31.38,951.46,-0.88,-9.68,-0.61,-5.18,-83.68,-162.66
53,0,0,0,0,0,2020,8,2,0,0,55,0,0,0,3.74,3.31,4.98,4.99,39.49,36.12,31.61,35.75,31.40,951.32,-0.23,-9.60,-0.57,-1.37,-86.32,-171.27
54,0,0,0,0,0,2020,8,2,0,0,56,0,0,0,3.73,3.31,4.98,4.99,39.25,34.80,31.60,35.81,31.38,951.10,0.88,-9.41,-0.99,5.31,-81.97,-149.99
55,0,0,0,0,0,2020,8,2,0,0,57,0,0,0,3.74,3.31,4.98,4.99,39.55,35.91,31.58,35.82,31.41,949.27,-1.03,-9.52,-2.07,-6.05,-76.37,-121.90
56,0,0,0,0,0,2020,8,2,0,0,58,0,0,0,3.73,3.31,4.98,4.97,38.23,35.08,31.60,35.85,31.44,949.43,-0.99,-9.37,-1.99,-5.93,-76.65,-129.00
57,0,0,0,0,0,2020,8,2,0,0,59,0,0,0,3.72,3.30,4.98,4.98,40.04,35.83,31.61,35.89,31.43,949.80,-0.42,-9.60,-1.91,-2.46,-78.47,-134.70
58,0,0,0,0,0,2020,8,2,0,1,0,0,0,0,3.73,3.31,4.98,4.99,39.56,35.54,31.62,35.92,31.46,949.62,-0.31,-9.56,-2.22,-1.79,-76.82,-136.25
59,0,0,0,0,0,2020,8,2,0,1,1,0,0,0,3.72,3.31,4.98,4.99,39.84,36.12,31.64,35.93,31.47,949.91,-0.19,-9.60,-1.34,-1.13,-81.98,-143.82
60,0,0,0,0,0,2020,8,2,0,1,2,0,0,0,3.73,3.31,4.98,4.99,39.37,35.27,31.64,35.98,31.47,949.89,-0.31,-9.60,-1.34,-1.81,-81.86,-142.14
