Packet Number,SIV,FixType,Latitude,Longitude,Altitude,Year,Month,Day,Hour,Min,Sec,NNV,NEV,NDV,Battery,3v3 Supply,5v Supply,Radio Supply,Analog Internal,Analog External,AltimeterTemp,Digital Internal,Digital External,Pressure,Accel A,Accel Y,Accel Z,Pitch,Roll,Yaw
0,0,0,0,0,0,2020,8,2,0,0,2,0,0,0,3.43,3.33,4.98,4.99,26.71,27.57,24.31,24.99,24.14,990.86,-0.80,9.06,3.86,-4.66,66.48,-101.47
1,0,0,0,0,0,2020,8,2,0,0,3,0,0,0,3.43,3.32,4.98,4.98,26.06,27.46,24.32,25.00,24.11,991.65,-0.73,9.10,4.09,-4.16,65.46,-108.26
2,0,0,0,0,0,2020,8,2,0,0,4,0,0,0,3.36,3.33,4.98,4.99,26.07,28.06,24.30,25.02,24.12,991.36,-0.80,9.06,3.90,-4.65,66.28,-100.01
3,0,0,0,0,0,2020,8,2,0,0,5,0,0,0,3.42,3.32,4.98,4.98,26.37,27.75,24.28,24.98,24.13,991.35,-0.76,9.10,3.86,-4.42,66.61,-108.93
4,0,0,0,0,0,2020,8,2,0,0,6,0,0,0,3.41,3.31,4.98,4.99,25.91,27.74,24.28,25.01,24.08,991.42,-0.80,9.10,4.02,-4.62,65.78,-111.61
5,0,0,0,0,0,2020,8,2,0,0,7,0,0,0,3.43,3.32,4.98,4.98,25.95,27.38,24.27,25.01,24.08,991.51,-0.76,9.10,3.86,-4.42,66.61,-109.95
6,0,0,0,0,0,2020,8,2,0,0,8,0,0,0,3.43,3.32,4.98,4.99,26.28,28.10,24.28,25.05,24.08,991.33,-1.11,10.25,2.98,-5.93,72.75,-97.38
7,0,0,0,0,0,2020,8,2,0,0,9,0,0,0,3.42,3.32,4.98,4.98,25.66,27.36,24.24,25.05,24.06,991.38,-0.69,10.06,1.80,-3.85,79.17,-106.11
8,0,0,0,0,0,2020,8,2,0,0,10,0,0,0,3.43,3.33,4.98,4.97,25.52,27.99,24.24,25.16,24.09,991.55,-0.88,9.52,2.03,-5.16,76.94,-105.63
9,0,0,0,0,0,2020,8,2,0,0,11,0,0,0,3.42,3.32,4.98,4.99,26.47,27.06,24.25,25.10,24.03,991.38,0.80,9.26,3.40,4.66,69.30,-147.91
10,0,0,0,0,0,2020,8,2,0,0,12,0,0,0,3.42,3.33,4.98,4.99,26.07,26.89,24.21,25.17,24.02,991.19,0.80,9.14,3.44,4.70,68.86,-148.10
11,0,0,0,0,0,2020,8,2,0,0,13,0,0,0,3.42,3.32,4.98,4.98,26.99,27.41,24.18,25.18,24.05,991.32,0.84,9.22,3.82,4.82,66.98,-151.75
12,0,0,0,0,0,2020,8,2,0,0,14,0,0,0,3.43,3.33,4.98,4.96,25.96,27.79,24.17,25.22,24.02,991.36,0.92,9.22,3.37,5.34,69.27,-147.06
13,0,0,0,0,0,2020,8,2,0,0,15,0,0,0,3.42,3.31,4.98,4.98,26.75,26.95,24.16,25.25,23.98,991.29,0.84,9.18,3.37,4.92,69.30,-148.90
14,0,0,0,0,0,2020,8,2,0,0,16,0,0,0,3.42,3.33,4.98,4.95,27.02,27.11,24.12,25.29,24.02,991.60,0.92,9.18,3.37,5.36,69.19,-149.85
15,0,0,0,0,0,2020,8,2,0,0,17,0,0,0,3.42,3.32,4.98,4.98,26.93,27.42,24.13,25.27,24.00,991.31,0.88,9.22,3.33,5.13,69.52,-148.19
16,0,0,0,0,0,2020,8,2,0,0,18,0,0,0,3.43,3.33,4.98,4.98,26.62,27.05,24.15,25.36,23.94,991.21,0.80,9.14,3.82,4.63,66.85,-152.83
17,0,0,0,0,0,2020,8,2,0,0,19,0,0,0,3.42,3.32,4.98,4.98,26.91,27.21,24.13,25.34,23.98,991.24,0.92,9.22,3.40,5.34,69.07,-150.94
18,0,0,0,0,0,2020,8,2,0,0,20,0,0,0,3.42,3.32,4.98,4.98,25.48,27.97,24.14,25.35,23.94,991.08,0.88,9.26,3.52,5.08,68.60,-148.70
19,0,0,0,0,0,2020,8,2,0,0,21,0,0,0,3.35,3.32,4.98,4.98,27.49,26.86,24.13,25.41,23.93,991.26,0.92,9.18,3.44,5.35,68.79,-147.60
20,0,0,0,0,0,2020,8,2,0,0,22,0,0,0,3.42,3.33,4.98,4.99,26.68,28.02,24.09,25.41,23.91,991.15,0.84,9.14,3.40,4.93,69.01,-149.47
21,0,0,0,0,0,2020,8,2,0,0,23,0,0,0,3.39,3.32,4.98,4.98,26.67,27.64,24.07,25.41,23.89,991.46,0.92,9.22,3.37,5.34,69.27,-147.88
22,0,0,0,0,0,2020,8,2,0,0,24,0,0,0,3.42,3.32,4.98,4.99,27.23,27.21,24.06,25.47,23.91,991.14,0.88,9.18,3.37,5.14,69.24,-149.03
23,0,0,0,0,0,2020,8,2,0,0,25,0,0,0,3.37,3.31,4.98,4.99,26.91,27.43,24.08,25.52,23.94,991.44,0.92,9.18,3.37,5.36,69.19,-147.38
24,0,0,0,0,0,2020,8,2,0,0,26,0,0,0,3.43,3.33,4.98,4.99,27.65,27.32,24.08,25.53,23.95,991.39,0.92,9.14,3.60,5.34,67.91,-149.59
25,0,0,0,0,0,2020,8,2,0,0,27,0,0,0,3.38,3.31,4.98,4.98,27.63,27.50,24.10,25.56,23.94,991.36,0.84,9.18,3.37,4.92,69.30,-150.28
26,0,0,0,0,0,2020,8,2,0,0,28,0,0,0,3.43,3.33,4.98,4.99,27.27,26.91,24.09,25.61,23.89,991.31,0.80,9.18,3.44,4.68,68.94,-151.77
27,0,0,0,0,0,2020,8,2,0,0,29,0,0,0,3.42,3.32,4.98,4.98,27.15,26.32,24.05,25.59,23.83,991.46,0.92,9.14,3.37,5.38,69.11,-147.90
28,0,0,0,0,0,2020,8,2,0,0,30,0,0,0,3.43,3.33,4.98,4.99,27.31,27.71,24.07,25.60,23.85,991.06,0.92,9.18,3.33,5.37,69.39,-148.70
29,0,0,0,0,0,2020,8,4,22,34,40,0,0,0,3.42,3.30,4.98,4.98,27.65,27.89,24.06,25.68,23.88,991.17,0.92,9.18,3.44,5.35,68.79,-149.29
30,0,0,0,0,0,2020,8,4,22,34,41,0,0,0,3.42,3.33,4.98,4.98,28.21,27.25,24.05,25.66,23.83,991.32,0.92,9.18,3.02,5.43,71.02,-146.67
31,0,0,0,0,0,2020,8,4,22,34,42,0,0,0,3.42,3.32,4.98,4.98,27.09,26.85,24.05,25.66,23.79,991.15,0.76,9.26,3.48,4.42,68.94,-147.80
32,0,0,0,0,0,2020,8,4,22,34,43,0,0,0,3.42,3.33,4.98,4.98,27.58,27.61,24.02,25.72,23.79,991.27,0.88,9.14,3.40,5.15,68.96,-150.08
33,0,0,0,0,0,2023,9,26,22,34,44,0,0,0,3.42,3.32,4.98,4.98,28.42,27.56,24.03,25.75,23.84,991.14,0.96,9.14,3.37,5.61,69.05,-149.59
34,0,0,0,0,0,2023,9,26,22,34,45,0,0,0,3.42,3.33,4.98,4.98,27.62,26.91,24.01,25.80,23.80,991.48,0.88,9.14,3.44,5.15,68.76,-148.51
35,0,0,0,0,0,2023,9,26,22,34,46,0,0,0,3.33,3.32,4.98,4.98,28.14,28.24,24.03,25.76,23.84,991.21,0.92,9.18,3.44,5.35,68.79,-148.11
36,0,0,0,0,0,2023,9,26,22,34,47,0,0,0,3.42,3.33,4.98,4.99,28.00,27.00,24.03,25.83,23.79,991.22,0.84,9.22,3.40,4.89,69.17,-150.25
37,0,0,0,0,0,2023,9,26,22,34,48,0,0,0,3.31,3.32,4.98,4.99,28.50,27.61,24.03,25.84,23.82,991.07,0.92,9.26,3.17,5.36,70.35,-147.39
38,0,0,0,0,0,2023,9,26,22,34,49,0,0,0,3.42,3.33,4.98,4.99,28.69,27.05,24.06,25.87,23.83,991.09,0.92,9.22,3.40,5.34,69.07,-150.69
39,0,0,0,0,0,2023,9,26,22,34,50,0,0,0,3.37,3.31,4.98,4.98,28.16,27.01,24.04,25.96,23.82,991.21,0.88,9.14,3.37,5.16,69.16,-146.95
40,0,0,0,0,0,2023,9,26,22,34,51,0,0,0,3.42,3.33,4.98,4.98,28.95,27.30,24.04,25.90,23.80,991.28,0.96,9.22,2.98,5.64,71.23,-143.99
41,0,0,0,0,0,2023,9,26,22,34,52,0,0,0,3.39,3.31,4.98,4.98,28.02,27.17,24.04,25.98,23.80,991.35,0.88,9.14,3.40,5.15,68.96,-148.63
42,0,0,0,0,0,2023,9,26,22,34,53,0,0,0,3.42,3.33,4.98,4.99,28.62,27.56,24.04,25.99,23.80,991.20,0.88,9.18,3.14,5.18,70.46,-145.52
43,0,0,0,0,0,2023,9,26,22,34,54,0,0,0,3.42,3.32,4.99,4.98,28.42,27.50,24.02,25.98,23.79,991.53,0.92,9.22,3.48,5.32,68.67,-149.69
44,0,0,0,0,0,2023,9,26,22,34,55,0,0,0,3.41,3.33,4.98,4.99,29.20,27.66,24.01,26.01,23.83,991.16,0.92,9.18,3.37,5.36,69.19,-149.07
45,0,0,0,0,0,2023,9,26,22,34,56,0,0,0,3.41,3.32,4.98,4.98,29.43,28.06,24.00,26.05,23.80,991.11,0.88,9.26,3.48,5.08,68.80,-149.67
46,0,0,0,0,0,2023,9,26,22,34,57,0,0,0,3.41,3.32,4.98,4.99,29.31,27.50,24.01,26.08,23.80,991.03,0.88,9.22,3.44,5.11,68.92,-150.82
47,0,0,0,0,0,2023,9,26,22,34,58,0,0,0,3.41,3.31,4.98,4.95,29.22,27.08,24.01,26.12,23.77,991.36,0.92,9.26,3.40,5.32,69.15,-148.70
48,0,0,0,0,0,2023,9,26,22,34,59,0,0,0,3.42,3.32,4.98,4.98,28.14,28.07,23.98,26.13,23.77,991.42,0.92,9.18,3.48,5.34,68.59,-147.49
49,0,0,0,0,0,2023,9,26,22,35,0,0,0,0,3.41,3.32,4.98,4.98,29.05,27.90,24.01,26.13,23.77,991.42,0.92,9.14,3.40,5.38,68.91,-148.69
50,0,0,0,0,0,2023,9,26,22,35,1,0,0,0,3.42,3.33,4.98,4.99,29.03,27.70,23.98,26.20,23.77,991.37,0.80,9.18,3.37,4.70,69.35,-148.22
51,0,0,0,0,0,2023,9,26,22,35,2,0,0,0,3.42,3.32,4.98,4.94,28.97,27.59,23.99,26.16,23.75,991.37,0.92,9.22,3.48,5.32,68.67,-149.63
52,0,0,0,0,0,2023,9,26,22,35,3,0,0,0,3.42,3.33,4.98,4.98,29.25,26.90,23.97,26.23,23.73,991.30,0.96,9.14,3.37,5.61,69.05,-149.77
53,0,0,0,0,0,2023,9,26,22,35,4,0,0,0,3.42,3.32,4.98,4.96,29.43,26.79,23.97,26.23,23.79,991.14,0.88,9.22,3.33,5.13,69.52,-146.95
54,0,0,0,0,0,2023,9,26,22,35,5,0,0,0,3.42,3.33,4.98,4.99,29.20,27.12,23.95,26.30,23.74,991.33,0.88,9.26,3.25,5.12,70.01,-146.12
55,0,0,0,0,0,2023,9,26,22,35,6,0,0,0,3.41,3.32,4.98,4.98,29.40,27.10,23.95,26.33,23.73,991.16,0.99,9.22,3.44,5.77,68.76,-150.67
56,0,0,0,0,0,2023,9,26,22,35,7,0,0,0,3.41,3.33,4.98,4.99,29.63,27.53,23.94,26.30,23.64,991.14,0.92,9.22,3.21,5.37,70.07,-148.07
57,0,0,0,0,0,2023,9,26,22,35,8,0,0,0,3.41,3.31,4.98,4.98,28.73,27.27,23.98,26.35,23.70,991.40,0.92,9.18,3.10,5.41,70.61,-147.60
58,0,0,0,0,0,2023,9,26,22,35,9,0,0,0,3.42,3.32,4.98,4.99,29.96,27.12,23.95,26.34,23.70,991.33,0.96,9.22,3.29,5.58,69.61,-148.20
59,0,0,0,0,0,2023,9,26,22,35,10,0,0,0,3.41,3.31,4.98,4.99,29.68,27.59,23.89,26.41,23.70,991.38,0.92,9.14,3.40,5.38,68.91,-146.75
60,0,0,0,0,0,2023,9,26,22,35,11,0,0,0,3.37,3.33,4.98,4.99,29.47,27.18,23.90,26.45,23.65,991.07,0.92,9.14,3.40,5.38,68.91,-149.51
61,0,0,0,0,0,2023,9,26,22,35,12,0,0,0,3.41,3.32,4.98,4.98,29.51,27.13,23.92,26.43,23.65,991.39,0.92,9.22,3.40,5.34,69.07,-150.39
62,0,0,0,0,0,2023,9,26,22,35,13,0,0,0,3.42,3.31,4.98,4.98,29.19,27.31,23.88,26.47,23.66,991.04,0.96,9.22,3.44,5.55,68.81,-152.28
63,0,0,0,0,0,2023,9,26,22,35,14,0,0,0,3.42,3.32,4.98,4.98,29.63,27.24,23.89,26.50,23.64,991.17,0.99,9.22,3.33,5.79,69.36,-149.42
64,0,0,0,0,0,2023,9,26,22,35,15,0,0,0,3.42,3.32,4.98,4.99,30.45,27.07,23.88,26.52,23.63,991.35,0.88,9.22,3.56,5.09,68.32,-148.64
65,0,0,0,0,0,2023,9,26,22,35,16,0,0,0,3.41,3.32,4.98,4.98,29.83,27.46,23.87,26.59,23.65,991.53,0.96,9.14,3.29,5.62,69.46,-147.97
66,0,0,0,0,0,2023,9,26,22,35,17,0,0,0,3.42,3.32,4.98,4.99,30.11,27.30,23.89,26.55,23.64,991.06,0.96,9.22,3.48,5.54,68.62,-150.25
67,0,0,0,0,0,2023,9,26,22,35,18,0,0,0,3.41,3.32,4.98,4.98,29.89,27.48,23.92,26.57,23.62,991.42,0.88,9.22,3.37,5.12,69.32,-148.05
68,0,0,0,0,0,2023,9,26,22,35,19,0,0,0,3.42,3.33,4.98,4.98,30.55,27.61,23.90,26.64,23.61,991.12,0.96,9.22,3.44,5.55,68.81,-149.72
69,0,0,0,0,0,2023,9,26,22,35,20,0,0,0,3.42,3.31,4.98,4.98,29.55,27.62,23.90,26.64,23.63,991.78,0.88,9.22,3.40,5.12,69.12,-148.70
70,0,0,0,0,0,2023,9,26,22,35,21,0,0,0,3.42,3.32,4.98,4.95,30.09,27.89,23.90,26.66,23.62,991.47,0.88,9.26,3.33,5.11,69.60,-147.41
71,0,0,0,0,0,2023,9,26,22,35,22,0,0,0,3.41,3.32,4.98,4.98,30.28,27.86,23.90,26.65,23.63,991.28,0.88,9.10,3.40,5.17,68.88,-149.00
72,0,0,0,0,0,2023,9,26,22,35,23,0,0,0,3.42,3.33,4.98,4.97,30.17,27.03,23.88,26.69,23.59,991.49,0.96,9.22,3.29,5.58,69.61,-146.93
73,0,0,0,0,0,2023,9,26,22,35,24,0,0,0,3.41,3.31,4.98,4.98,29.93,27.02,23.88,26.72,23.59,991.15,0.96,9.14,3.40,5.60,68.85,-151.45
74,0,0,0,0,0,2023,9,26,22,35,25,0,0,0,3.42,3.33,4.98,4.98,28.68,27.04,23.88,26.71,23.61,991.23,1.03,9.14,3.29,6.07,69.34,-150.28
75,0,0,0,0,0,2023,9,26,22,35,26,0,0,0,3.42,3.31,4.98,4.98,30.54,27.47,23.88,26.75,23.63,991.29,0.99,9.22,3.40,5.78,68.96,-150.06
76,0,0,0,0,0,2023,9,26,22,35,27,0,0,0,3.42,3.33,4.98,4.98,29.75,26.51,23.89,26.77,23.54,991.33,0.96,9.22,3.37,5.57,69.21,-148.66
77,0,0,0,0,0,2023,9,26,22,35,28,0,0,0,3.41,3.32,4.98,4.98,30.17,27.23,23.88,26.82,23.54,991.49,0.92,9.22,3.40,5.34,69.07,-149.38
78,0,0,0,0,0,2023,9,26,22,35,29,0,0,0,3.42,3.32,4.98,4.98,30.34,27.08,23.87,26.84,23.55,991.08,0.96,9.26,3.44,5.53,68.89,-151.62
79,0,0,0,0,0,2023,9,26,22,35,30,0,0,0,3.36,3.32,4.98,4.98,30.78,27.09,23.86,26.85,23.56,991.45,0.99,9.26,3.40,5.76,69.04,-149.73
80,0,0,0,0,0,2023,9,26,22,35,31,0,0,0,3.42,3.33,4.98,4.98,30.73,26.84,23.86,26.85,23.59,991.47,0.92,9.18,3.40,5.36,68.99,-149.18
81,0,0,0,0,0,2023,9,26,22,35,32,0,0,0,3.36,3.31,4.98,4.99,30.59,27.86,23.85,26.90,23.56,991.39,0.96,9.18,3.44,5.57,68.73,-149.43
82,0,0,0,0,0,2023,9,26,22,35,33,0,0,0,3.42,3.33,4.98,4.98,31.18,27.06,23.86,26.91,23.52,991.10,0.92,9.29,3.37,5.31,69.43,-149.07
83,0,0,0,0,0,2023,9,26,22,35,34,0,0,0,3.38,3.31,4.98,4.98,30.43,27.30,23.87,26.91,23.51,991.37,0.92,9.22,3.40,5.34,69.07,-149.26
84,0,0,0,0,0,2023,9,26,22,35,35,0,0,0,3.42,3.33,4.98,4.98,30.74,27.27,23.85,26.91,23.55,991.62,0.96,9.18,3.63,5.53,67.74,-151.75
85,0,0,0,0,0,2023,9,26,22,35,36,0,0,0,3.41,3.31,4.98,4.98,31.26,26.71,23.87,26.93,23.57,991.40,0.88,9.18,3.56,5.11,68.24,-148.25
86,0,0,0,0,0,2023,9,26,22,35,37,0,0,0,3.41,3.33,4.98,4.99,31.13,26.45,23.84,26.98,23.55,991.46,0.92,9.26,3.40,5.32,69.15,-148.78
87,0,0,0,0,0,2023,9,26,22,35,38,0,0,0,3.42,3.31,4.98,4.98,31.40,26.38,23.84,27.00,23.55,990.99,0.96,9.22,3.40,5.56,69.01,-152.00
88,0,0,0,0,0,2023,9,26,22,35,39,0,0,0,3.41,3.33,4.98,4.99,30.88,27.51,23.86,27.04,23.51,991.23,0.92,9.14,3.44,5.37,68.71,-149.38
89,0,0,0,0,0,2023,9,26,22,35,40,0,0,0,3.42,3.32,4.98,4.95,30.73,27.22,23.84,27.01,23.50,991.47,0.96,9.26,3.44,5.53,68.89,-150.06
90,0,0,0,0,0,2023,9,26,22,35,41,0,0,0,3.42,3.33,4.98,4.98,30.82,26.47,23.79,27.05,23.47,991.27,0.99,9.18,3.37,5.81,69.08,-148.52
91,0,0,0,0,0,2023,9,26,22,35,42,0,0,0,3.41,3.32,4.98,4.96,30.80,27.09,23.77,27.05,23.53,991.25,0.99,9.14,3.48,5.81,68.40,-148.38
92,0,0,0,0,0,2023,9,26,22,35,43,0,0,0,3.42,3.33,4.98,4.99,30.76,26.96,23.74,27.08,23.47,991.48,0.99,9.22,3.10,5.84,70.56,-146.92
93,0,0,0,0,0,2023,9,26,22,35,44,0,0,0,3.41,3.32,4.98,4.94,30.28,27.28,23.74,27.09,23.51,991.36,0.99,9.26,3.25,5.79,69.83,-148.80
94,0,0,0,0,0,2023,9,26,22,35,45,0,0,0,3.41,3.33,4.98,4.98,31.14,27.18,23.78,27.13,23.48,991.14,0.96,9.26,3.40,5.54,69.09,-149.86
95,0,0,0,0,0,2023,9,26,22,35,46,0,0,0,3.41,3.32,4.98,4.95,30.28,27.42,23.77,27.13,23.51,991.24,0.96,9.22,3.37,5.57,69.21,-148.28
96,0,0,0,0,0,2023,9,26,22,35,47,0,0,0,3.41,3.33,4.98,4.98,31.33,26.71,23.78,27.13,23.49,991.19,0.92,9.18,3.44,5.35,68.79,-151.15
97,0,0,0,0,0,2023,9,26,22,35,48,0,0,0,3.41,3.32,4.98,4.98,30.94,25.65,23.78,27.19,23.49,991.78,0.92,9.14,3.52,5.35,68.31,-149.01
98,0,0,0,0,0,2023,9,26,22,35,49,0,0,0,3.41,3.33,4.98,4.99,31.55,26.88,23.81,27.19,23.45,991.24,0.96,9.29,3.33,5.53,69.57,-149.80
99,0,0,0,0,0,2023,9,26,22,35,50,0,0,0,3.42,3.32,4.98,4.99,30.97,26.76,23.80,27.19,23.41,991.30,0.96,9.18,3.44,5.57,68.73,-152.93
100,0,0,0,0,0,2023,9,26,22,35,51,0,0,0,3.39,3.32,4.98,4.99,30.98,26.72,23.78,27.23,23.46,991.20,0.92,9.22,3.37,5.34,69.27,-147.68
101,0,0,0,0,0,2023,9,26,22,35,52,0,0,0,3.41,3.32,4.98,4.98,31.57,27.46,23.78,27.23,23.48,991.25,0.99,9.22,3.40,5.78,68.96,-152.63
102,0,0,0,0,0,2023,9,26,22,35,53,0,0,0,3.37,3.33,4.98,4.99,31.32,27.35,23.77,27.23,23.49,990.94,0.96,9.18,3.40,5.58,68.93,-149.56
103,0,0,0,0,0,2023,9,26,22,35,54,0,0,0,3.40,3.31,4.98,4.98,31.79,27.20,23.77,27.26,23.48,991.18,0.96,9.18,3.79,5.50,66.95,-153.98
104,0,0,0,0,0,2023,9,26,22,35,55,0,0,0,3.42,3.32,4.98,4.98,31.42,26.29,23.74,27.26,23.46,991.11,0.96,9.03,3.48,5.64,68.20,-150.34
105,0,0,0,0,0,2023,9,26,22,35,56,0,0,0,3.41,3.31,4.98,4.98,31.06,27.43,23.74,27.27,23.46,991.69,0.99,9.18,3.40,5.80,68.88,-150.76
106,0,0,0,0,0,2023,9,26,22,35,57,0,0,0,3.42,3.31,4.98,4.99,31.21,26.96,23.72,27.31,23.44,991.44,0.92,9.22,3.40,5.34,69.07,-149.23
107,0,0,0,0,0,2023,9,26,22,35,58,0,0,0,3.41,3.32,4.98,4.98,31.43,26.96,23.73,27.30,23.44,991.50,0.96,9.18,3.40,5.58,68.93,-150.08
108,0,0,0,0,0,2023,9,26,22,35,59,0,0,0,3.42,3.33,4.98,4.98,31.01,26.34,23.72,27.33,23.43,991.36,0.96,9.26,3.29,5.56,69.69,-148.84
109,0,0,0,0,0,2023,9,26,22,36,0,0,0,0,3.41,3.32,4.98,4.98,31.72,27.44,23.71,27.33,23.44,991.27,0.96,9.22,3.40,5.56,69.01,-149.77
110,0,0,0,0,0,2023,9,26,22,36,1,0,0,0,3.41,3.32,4.98,4.99,31.30,26.98,23.72,27.38,23.41,991.10,1.03,9.22,3.40,6.00,68.90,-148.91
111,0,0,0,0,0,2023,9,26,22,36,2,0,0,0,3.41,3.32,4.98,4.98,31.68,27.13,23.73,27.41,23.37,991.35,0.96,9.22,3.63,5.51,67.82,-152.82
112,0,0,0,0,0,2023,9,26,22,36,3,0,0,0,3.41,3.33,4.98,4.96,31.30,27.44,23.70,27.40,23.40,991.39,0.96,9.18,3.37,5.59,69.13,-150.60
113,0,0,0,0,0,2023,9,26,22,36,4,0,0,0,3.42,3.31,4.99,4.98,31.46,27.33,23.69,27.45,23.38,991.35,0.96,9.22,3.29,5.58,69.61,-147.78
114,0,0,0,0,0,2023,9,26,22,36,5,0,0,0,3.42,3.33,4.98,4.97,31.72,27.33,23.67,27.41,23.38,991.25,0.92,9.22,3.40,5.34,69.07,-150.31
115,0,0,0,0,0,2023,9,26,22,36,6,0,0,0,3.42,3.32,4.98,4.98,31.66,27.49,23.73,27.48,23.38,991.46,0.96,9.14,3.37,5.61,69.05,-149.57
116,0,0,0,0,0,2023,9,26,22,36,7,0,0,0,3.41,3.33,4.98,4.99,30.87,27.15,23.68,27.48,23.41,991.51,0.99,9.18,3.37,5.81,69.08,-148.15
117,0,0,0,0,0,2023,9,26,22,36,8,0,0,0,3.42,3.32,4.98,4.98,31.10,26.78,23.69,27.48,23.42,991.35,1.11,9.18,3.44,6.45,68.50,-150.31
118,0,0,0,0,0,2023,9,26,22,36,9,0,0,0,3.42,3.33,4.98,4.99,31.24,26.55,23.69,27.52,23.38,991.50,0.99,9.14,3.21,5.86,69.80,-149.67
119,0,0,0,0,0,2023,9,26,22,36,10,0,0,0,3.40,3.31,4.98,4.98,31.95,26.93,23.72,27.51,23.38,991.40,0.99,9.18,3.44,5.79,68.68,-150.95
120,0,0,0,0,0,2023,9,26,22,36,11,0,0,0,3.42,3.33,4.98,4.99,32.01,26.68,23.73,27.52,23.37,991.43,0.92,9.18,3.37,5.36,69.19,-147.72
121,0,0,0,0,0,2023,9,26,22,36,12,0,0,0,3.34,3.32,4.98,4.98,31.80,27.23,23.72,27.58,23.35,991.39,0.96,9.22,3.37,5.57,69.21,-151.67
122,0,0,0,0,0,2023,9,26,22,36,13,0,0,0,3.41,3.32,4.98,4.98,32.01,26.74,23.69,27.54,23.37,991.27,0.88,9.22,3.44,5.11,68.92,-149.92
123,0,0,0,0,0,2023,9,26,22,36,14,0,0,0,3.35,3.32,4.98,4.98,31.94,27.25,23.73,27.55,23.40,991.44,0.99,9.22,3.40,5.78,68.96,-150.03
124,0,0,0,0,0,2023,9,26,22,36,15,0,0,0,3.42,3.32,4.98,4.99,31.68,26.97,23.72,27.61,23.37,991.37,0.96,9.18,3.29,5.60,69.54,-149.64
125,0,0,0,0,0,2023,9,26,22,36,16,0,0,0,3.38,3.31,4.98,4.98,32.06,27.30,23.70,27.58,23.39,991.14,0.96,9.29,3.40,5.52,69.17,-151.92
126,0,0,0,0,0,2023,9,26,22,36,17,0,0,0,3.42,3.33,4.98,4.98,31.79,27.14,23.70,27.52,23.31,991.26,0.99,9.18,3.52,5.78,68.28,-151.95
127,0,0,0,0,0,2023,9,26,22,36,18,0,0,0,3.42,3.31,4.98,4.98,32.34,27.49,23.71,27.59,23.34,991.42,0.99,9.18,3.56,5.77,68.08,-151.91
128,0,0,0,0,0,2023,9,26,22,36,19,0,0,0,3.41,3.33,4.98,4.99,32.21,26.81,23.68,27.58,23.30,991.04,0.92,9.22,3.37,5.34,69.27,-147.23
129,0,0,0,0,0,2023,9,26,22,36,20,0,0,0,3.35,3.32,4.98,4.98,31.70,27.23,23.70,27.66,23.29,991.37,0.96,9.22,3.40,5.56,69.01,-149.90
130,0,0,0,0,0,2023,9,26,22,36,21,0,0,0,3.41,3.33,4.98,4.98,31.89,26.88,23.68,27.62,23.29,991.39,0.92,9.18,3.44,5.35,68.79,-148.48
131,0,0,0,0,0,2023,9,26,22,36,22,0,0,0,3.42,3.32,4.98,4.95,32.60,26.89,23.70,27.67,23.36,991.27,0.99,9.22,3.37,5.79,69.16,-150.88
132,0,0,0,0,0,2023,9,26,22,36,23,0,0,0,3.41,3.33,4.98,4.98,31.99,27.69,23.67,27.63,23.26,991.39,1.03,9.18,3.29,6.05,69.41,-151.49
133,0,0,0,0,0,2023,9,26,22,36,24,0,0,0,3.40,3.32,4.98,4.96,32.41,26.84,23.65,27.68,23.23,991.26,0.88,9.29,3.33,5.09,69.68,-148.07
134,0,0,0,0,0,2023,9,26,22,36,25,0,0,0,3.42,3.33,4.98,4.99,32.28,26.71,23.65,27.69,23.24,991.25,0.88,9.14,3.37,5.16,69.16,-148.54
135,0,0,0,0,0,2023,9,26,22,36,26,0,0,0,3.40,3.32,4.98,4.94,32.76,26.70,23.65,27.68,23.28,991.33,0.99,9.14,3.33,5.84,69.20,-148.78
136,0,0,0,0,0,2023,9,26,22,36,27,0,0,0,3.41,3.33,4.98,4.99,31.89,26.76,23.61,27.67,23.27,991.36,0.99,9.22,3.63,5.73,67.77,-151.48
137,0,0,0,0,0,2023,9,26,22,36,28,0,0,0,3.42,3.33,4.98,4.94,32.46,26.67,23.59,27.73,23.24,991.21,0.99,9.26,3.48,5.74,68.64,-150.22
138,0,0,0,0,0,2023,9,26,22,36,29,0,0,0,3.42,3.33,4.98,4.98,32.26,26.27,23.60,27.70,23.23,991.53,0.99,9.22,3.44,5.77,68.76,-150.08
139,0,0,47603289,-624509068,146053,2023,9,26,22,36,30,0,0,0,3.40,3.32,4.98,4.99,32.18,27.05,23.61,27.80,23.20,991.35,0.88,9.26,3.29,5.12,69.80,-148.54
140,0,0,47599252,-624499814,146029,2023,9,26,22,36,31,0,0,0,3.41,3.33,4.98,4.99,32.34,27.05,23.59,27.75,23.18,991.53,0.96,9.18,3.37,5.59,69.13,-151.31
141,0,0,47266608,-629542782,143999,2023,9,26,22,36,32,0,0,0,3.40,3.32,4.98,4.96,32.24,27.09,23.59,27.82,23.21,991.43,0.96,9.22,3.44,5.55,68.81,-150.29
142,0,0,47264069,-629533523,143984,2023,9,26,22,36,33,0,0,0,3.36,3.33,4.98,4.98,31.65,26.47,23.61,27.78,23.21,991.30,0.92,9.29,3.25,5.33,70.03,-149.19
143,0,0,47233606,-629954866,143799,2023,9,26,22,36,34,0,0,0,3.41,3.32,4.98,4.98,32.56,27.32,23.59,27.80,23.18,991.16,0.96,9.18,3.37,5.59,69.13,-148.80
144,0,0,47231194,-629945607,143784,2023,9,26,22,36,35,0,0,0,3.38,3.33,4.98,4.99,32.16,27.18,23.59,27.77,23.20,991.35,0.88,9.18,3.40,5.13,69.04,-151.95
145,0,0,47228781,-629936348,143769,2023,9,26,22,36,36,0,0,0,3.41,3.32,4.98,4.99,32.99,26.81,23.60,27.83,23.16,991.18,0.99,9.22,3.44,5.77,68.76,-151.39
146,0,0,46900605,-634989345,141783,2023,9,26,22,36,37,0,0,0,3.42,3.31,4.98,4.98,32.21,26.79,23.60,27.84,23.19,991.53,0.88,9.22,3.37,5.12,69.32,-148.55
147,0,0,46557989,-640253629,139723,2023,9,26,22,36,38,0,0,0,3.42,3.32,4.98,4.98,32.30,27.29,23.58,27.82,23.16,991.32,0.99,9.18,3.37,5.81,69.08,-150.02
148,0,0,46898782,-634970822,141772,2023,9,26,22,36,39,0,0,0,3.42,3.31,4.98,4.99,32.69,26.81,23.60,27.84,23.20,991.29,0.96,9.18,3.33,5.59,69.34,-148.15
149,0,0,47219128,-629899314,143711,2023,9,26,22,36,40,0,0,0,3.41,3.31,4.98,4.98,32.96,26.63,23.60,27.88,23.13,991.33,1.19,9.22,3.25,6.92,69.42,-151.09
150,0,0,46896958,-634952299,141761,2023,9,26,22,36,41,0,0,0,3.42,3.31,4.98,4.99,32.33,26.94,23.58,27.82,23.16,991.29,0.96,9.26,3.21,5.57,70.09,-148.10
151,0,0,46882966,-635149842,141676,2023,9,26,22,36,42,0,0,0,3.43,3.32,4.98,4.98,33.53,26.94,23.58,27.88,23.17,991.49,0.92,9.22,3.44,5.33,68.87,-147.12
152,0,0,47211884,-629871540,143667,2023,9,26,22,36,43,0,0,0,3.41,3.33,4.98,4.99,32.59,26.54,23.59,27.84,23.16,991.25,0.96,9.22,3.44,5.55,68.81,-149.75
153,0,0,47209469,-629862282,143652,2023,9,26,22,36,44,0,0,0,3.42,3.32,4.98,4.98,33.28,26.80,23.60,27.89,23.13,991.49,0.99,9.26,3.33,5.77,69.43,-149.94
154,0,0,46880411,-635122058,141661,2023,9,26,22,36,45,0,0,0,3.42,3.33,4.98,4.97,32.46,27.02,23.58,27.88,23.10,991.37,0.99,9.18,3.29,5.82,69.48,-151.99
155,0,0,46879558,-635112798,141656,2023,9,26,22,36,46,0,0,0,3.42,3.31,4.98,4.98,32.89,26.96,23.59,27.91,23.18,991.46,0.96,9.18,3.17,5.62,70.14,-148.29
156,0,0,46878705,-635103537,141650,2023,9,26,22,36,47,0,0,0,3.41,3.32,4.98,4.99,32.55,26.82,23.56,27.89,23.15,991.60,1.03,9.14,3.52,6.02,68.14,-152.08
157,0,0,46877852,-635094277,141645,2023,9,26,22,36,48,0,0,0,3.41,3.31,4.98,4.98,32.96,26.85,23.58,27.94,23.13,991.46,0.92,9.22,3.37,5.34,69.27,-151.33
158,0,0,47197388,-629815997,143579,2023,9,26,22,36,49,0,0,0,3.42,3.33,4.98,4.98,32.27,26.18,23.58,27.89,23.11,991.62,0.96,9.14,3.40,5.60,68.85,-148.62
159,0,0,47194971,-629806740,143564,2023,9,26,22,36,50,0,0,0,3.41,3.31,4.98,4.98,32.97,26.45,23.56,27.90,23.13,991.37,0.96,9.14,3.37,5.61,69.05,-149.17
160,0,0,47192553,-629797484,143549,2023,9,26,22,36,51,0,0,0,3.41,3.33,4.98,4.99,32.67,26.93,23.56,27.94,23.04,991.35,0.96,9.14,3.25,5.63,69.66,-148.25
161,0,0,47190135,-629788228,143535,2023,9,26,22,36,52,0,0,0,3.38,3.31,4.98,4.98,33.11,26.80,23.55,27.91,23.06,991.01,0.99,9.18,3.02,5.88,70.89,-144.92
162,0,0,47187717,-629778972,143520,2023,9,26,22,36,53,0,0,0,3.42,3.33,4.98,4.99,32.43,26.67,23.55,27.96,23.05,991.38,0.99,9.14,3.33,5.84,69.20,-150.11
163,0,0,47185299,-629769716,143505,2023,9,26,22,36,54,0,0,0,3.34,3.31,4.98,4.98,32.94,27.18,23.56,27.95,23.07,991.60,0.92,9.26,3.44,5.31,68.95,-149.81
164,0,0,47182880,-629760460,143491,2023,9,26,22,36,55,0,0,0,3.41,3.33,4.98,4.99,32.74,27.27,23.53,27.93,23.11,991.50,0.96,9.22,3.44,5.55,68.81,-150.95
165,0,0,47180461,-629751204,143476,2023,9,26,22,36,56,0,0,0,3.40,3.31,4.98,4.98,33.40,27.16,23.55,27.94,23.08,991.24,0.92,9.18,3.29,5.38,69.59,-150.07
166,0,0,47494164,-624259275,145386,2023,9,26,22,36,57,0,0,0,3.41,3.33,4.98,4.99,32.82,26.53,23.56,27.95,23.05,991.44,0.96,9.18,3.37,5.59,69.13,-150.96
167,0,0,47175622,-629732693,143447,2023,9,26,22,36,58,0,0,0,3.35,3.31,4.98,4.98,33.68,27.37,23.53,27.96,23.09,991.35,0.96,9.14,3.33,5.61,69.26,-150.82
168,0,0,47173201,-629723438,143432,2023,9,26,22,36,59,0,0,0,3.41,3.33,4.98,4.99,32.76,26.81,23.53,27.97,23.07,991.18,0.92,9.18,3.40,5.36,68.99,-149.90
169,0,0,46879564,-634776360,141656,2023,9,26,22,37,0,0,0,0,3.41,3.31,4.98,4.98,33.23,26.70,23.53,27.99,23.07,991.45,1.03,9.14,3.40,6.04,68.74,-150.73
170,0,0,47168360,-629704928,143402,2023,9,26,22,37,1,0,0,0,3.42,3.33,4.98,4.99,32.89,26.53,23.52,28.02,23.06,991.69,0.96,9.22,3.40,5.56,69.01,-151.32
171,0,0,47165939,-629695674,143388,2023,9,26,22,37,2,0,0,0,3.40,3.31,4.98,4.98,33.59,26.64,23.53,28.02,23.04,991.41,1.03,9.18,3.52,6.00,68.22,-151.85
172,0,0,46876807,-634748584,141639,2023,9,26,22,37,3,0,0,0,3.41,3.33,4.98,4.99,32.28,26.09,23.52,28.00,23.00,991.52,0.99,9.22,3.40,5.78,68.96,-149.55
173,0,0,46875888,-634739326,141633,2023,9,26,22,37,4,0,0,0,3.43,3.31,4.98,4.97,33.79,26.85,23.52,28.07,23.00,991.35,0.96,9.18,3.33,5.59,69.34,-152.99
174,0,0,47158674,-629667910,143344,2023,9,26,22,37,5,0,0,0,3.41,3.33,4.98,4.99,32.57,26.70,23.52,28.05,22.99,991.28,1.03,9.14,3.37,6.05,68.94,-148.11
175,0,0,47156252,-629658656,143329,2023,9,26,22,37,6,0,0,0,3.42,3.32,4.98,4.94,34.05,26.95,23.49,28.02,23.01,991.55,0.96,9.18,3.29,5.60,69.54,-149.87
176,0,0,47153829,-629649402,143314,2023,9,26,22,37,7,0,0,0,3.41,3.33,4.98,4.99,32.61,25.94,23.51,28.03,22.99,991.30,0.96,9.26,3.14,5.59,70.49,-143.35
177,0,0,46872205,-634702294,141611,2023,9,26,22,37,8,0,0,0,3.40,3.31,4.98,4.94,33.01,26.81,23.52,28.02,23.00,991.63,0.96,9.22,3.37,5.57,69.21,-150.29
178,0,0,46871284,-634693037,141606,2023,9,26,22,37,9,0,0,0,3.41,3.33,4.98,4.98,32.99,26.66,23.51,28.06,22.98,991.35,0.99,9.14,3.44,5.81,68.60,-149.30
179,0,0,46870362,-634683779,141600,2023,9,26,22,37,10,0,0,0,3.42,3.31,4.98,4.94,33.79,26.74,23.48,28.07,22.98,991.54,0.96,9.22,3.33,5.57,69.41,-148.94
180,0,0,46869440,-634674522,141595,2023,9,26,22,37,11,0,0,0,3.41,3.33,4.98,4.99,33.12,26.64,23.49,28.06,22.94,991.49,1.03,9.18,3.44,6.01,68.62,-151.11
181,0,0,47141710,-629603134,143241,2023,9,26,22,37,12,0,0,0,3.40,3.32,4.98,4.98,33.16,26.76,23.49,28.09,22.97,991.26,0.99,9.22,3.44,5.77,68.76,-149.85
182,0,0,47139286,-629593881,143226,2023,9,26,22,37,13,0,0,0,3.42,3.33,4.98,4.98,33.66,26.63,23.47,28.05,23.04,991.57,0.96,9.18,3.37,5.59,69.13,-149.40
183,0,0,46866672,-634646750,141578,2023,9,26,22,37,14,0,0,0,3.40,3.32,4.98,4.96,33.29,26.96,23.46,28.13,22.99,991.27,0.99,9.18,3.37,5.81,69.08,-147.99
184,0,0,47134435,-629575375,143197,2023,9,26,22,37,15,0,0,0,3.35,3.33,4.98,4.99,33.21,26.57,23.44,28.03,23.00,991.19,0.99,9.18,3.33,5.82,69.28,-146.99
185,0,0,46864825,-634628237,141567,2023,9,26,22,37,16,0,0,0,3.42,3.31,4.98,4.98,33.74,26.21,23.43,28.05,22.99,991.78,0.99,9.18,3.21,5.84,69.88,-149.36
186,0,0,46863901,-634618980,141561,2023,9,26,22,37,17,0,0,0,3.33,3.33,4.98,4.99,33.33,26.56,23.43,28.07,22.93,991.31,0.92,9.22,3.40,5.34,69.07,-152.02
187,0,0,47149459,-629117032,143288,2023,9,26,22,37,18,0,0,0,3.41,3.32,4.98,4.99,33.86,26.15,23.42,28.16,22.96,991.48,0.96,9.14,3.33,5.61,69.26,-147.92
188,0,0,47146904,-629107781,143272,2023,9,26,22,37,19,0,0,0,3.41,3.32,4.98,4.98,33.05,26.18,23.41,28.14,22.95,991.78,0.96,9.03,3.40,5.66,68.61,-149.80
189,0,0,46861127,-634591210,141544,2023,9,26,22,37,20,0,0,0,3.40,3.32,4.98,4.99,33.54,26.92,23.37,28.16,22.88,991.09,0.99,9.22,3.44,5.77,68.76,-152.31
190,0,0,47141795,-629089277,143241,2023,9,26,22,37,21,0,0,0,3.42,3.31,4.98,4.98,32.83,26.54,23.38,28.18,22.95,991.70,0.96,9.22,3.44,5.55,68.81,-150.82
191,0,0,47117449,-629510608,143094,2023,9,26,22,37,22,0,0,0,3.41,3.32,4.98,4.98,34.07,27.22,23.36,28.13,22.93,991.30,0.99,9.10,3.44,5.83,68.51,-153.04
192,0,0,47388857,-624018856,144743,2023,9,26,22,37,23,0,0,0,3.41,3.30,4.98,4.98,32.95,26.02,23.38,28.16,22.93,991.34,0.99,9.18,3.40,5.80,68.88,-149.24
193,0,0,121398108,-670881409,938184,2023,9,26,22,37,24,0,0,0,3.38,3.30,4.98,4.98,33.29,27.26,23.38,28.18,22.92,991.46,0.96,9.26,3.40,5.54,69.09,-151.34
194,0,0,121416344,-670866500,938462,2023,9,26,22,37,25,0,0,0,3.41,3.32,4.98,4.99,32.57,26.70,23.40,28.20,22.97,991.49,0.99,9.26,3.40,5.76,69.04,-148.53
195,0,0,121434578,-670851589,938739,2023,9,26,22,37,26,0,0,0,3.42,3.32,4.98,4.98,33.81,26.73,23.38,28.20,22.92,991.33,0.99,9.29,3.37,5.74,69.31,-148.30
196,0,0,121452812,-670836677,939017,2023,9,26,22,37,27,0,0,0,3.42,3.33,4.98,4.97,33.04,26.75,23.39,28.20,22.88,991.26,0.99,9.18,3.60,5.76,67.88,-151.76
197,0,0,121471045,-670821763,939295,2023,9,26,22,37,28,0,0,0,3.40,3.32,4.98,4.98,33.58,27.33,23.40,28.19,22.97,991.42,1.03,9.26,3.37,5.99,69.17,-150.90
198,0,0,121489277,-670806847,939573,2023,9,26,22,37,29,0,0,0,3.41,3.33,4.98,4.98,32.97,26.75,23.41,28.16,22.93,991.42,0.99,9.18,3.40,5.80,68.88,-148.47
199,0,0,121507508,-670791929,939851,2023,9,26,22,37,30,0,0,0,3.41,3.32,4.98,4.98,33.47,27.07,23.40,28.19,22.91,991.18,0.96,9.22,3.44,5.55,68.81,-149.95
200,0,0,121525738,-670777010,940129,2023,9,26,22,37,31,0,0,0,3.41,3.33,4.98,4.98,32.82,26.55,23.38,28.24,22.86,991.31,0.92,9.14,3.37,5.38,69.11,-150.90
201,0,0,121543967,-670762090,940407,2023,9,26,22,37,32,0,0,0,3.41,3.32,4.98,4.98,34.79,26.84,23.38,28.25,22.93,991.62,0.99,9.22,3.40,5.78,68.96,-149.92
202,0,0,121562195,-670747167,940684,2023,9,26,22,37,33,0,0,0,3.41,3.33,4.98,4.99,32.81,25.74,23.39,28.22,22.91,991.34,0.96,9.18,3.40,5.58,68.93,-150.32
203,0,0,121580423,-670732243,940962,2023,9,26,22,37,34,0,0,0,3.37,3.31,4.98,4.98,34.10,26.62,23.35,28.24,22.90,991.48,0.88,9.18,3.21,5.17,70.06,-149.53
204,0,0,121598649,-670717317,941240,2023,9,26,22,37,35,0,0,0,3.42,3.33,4.98,4.99,32.99,26.77,23.40,28.29,22.85,991.42,0.99,9.14,3.37,5.83,69.00,-148.70
205,0,0,122928278,-667317395,961626,2023,9,26,22,37,36,0,0,0,3.34,3.31,4.98,4.98,35.02,26.53,23.38,28.30,22.93,991.60,0.92,9.18,3.40,5.36,68.99,-149.96
206,0,0,122945657,-667302320,961894,2023,9,26,22,37,37,0,0,0,3.41,3.33,4.98,4.98,33.08,24.78,23.39,28.24,22.84,991.35,0.99,9.18,3.40,5.80,68.88,-150.17
207,0,0,122963035,-667287244,962162,2023,9,26,22,37,38,0,0,0,3.42,3.32,4.98,4.98,33.64,27.05,23.35,28.28,22.91,991.48,0.96,9.26,3.37,5.55,69.29,-149.53
208,0,0,122980412,-667272166,962430,2023,9,26,22,37,39,0,0,0,3.42,3.32,4.98,4.98,33.78,26.15,23.35,28.27,22.90,991.48,0.92,9.18,3.37,5.36,69.19,-147.92
209,0,0,122997788,-667257086,962698,2023,9,26,22,37,40,0,0,0,3.35,3.31,4.98,4.98,34.31,26.87,23.36,28.27,22.88,991.44,0.99,9.18,3.37,5.81,69.08,-148.73
210,0,0,115517667,-656013662,850672,2023,9,26,22,37,41,0,0,0,3.41,3.33,4.98,4.98,33.19,26.73,23.36,28.25,22.80,991.54,0.92,9.18,3.40,5.36,68.99,-147.21
211,0,0,114944552,-653183451,842362,2023,9,26,22,37,42,0,0,0,3.39,3.31,4.98,4.98,34.61,26.80,23.36,28.28,22.84,991.37,0.96,9.18,3.40,5.58,68.93,-149.90
212,0,0,115492617,-655994208,850308,2023,9,26,22,37,43,0,0,0,3.41,3.33,4.98,4.99,33.55,26.55,23.34,28.30,22.84,991.54,1.03,9.18,3.33,6.04,69.22,-149.49
213,0,0,115480090,-655984481,850126,2023,9,26,22,37,44,0,0,0,3.42,3.32,4.98,4.94,34.27,26.69,23.36,28.30,22.90,991.47,0.92,9.18,3.40,5.36,68.99,-149.07
214,0,0,121479786,-670054981,939428,2023,9,26,22,37,45,0,0,0,3.41,3.33,4.98,4.98,33.22,26.61,23.34,28.27,22.85,991.52,0.88,9.18,3.40,5.13,69.04,-151.46
215,0,0,120601939,-665676383,926096,2023,9,26,22,37,46,0,0,0,3.42,3.31,4.98,4.98,34.29,26.61,23.31,28.30,22.80,991.60,0.99,9.22,3.40,5.78,68.96,-149.86
216,0,0,120618571,-665661465,926347,2023,9,26,22,37,47,0,0,0,3.41,3.33,4.98,4.99,33.41,26.47,23.31,28.30,22.81,991.45,0.88,9.33,3.17,5.10,70.56,-146.76
217,0,0,119352815,-669104479,907281,2023,9,26,22,37,48,0,0,0,3.38,3.31,4.98,4.97,34.29,27.37,23.31,28.33,22.78,991.51,0.96,9.14,3.40,5.60,68.85,-150.91
218,0,0,123154134,-667121293,965110,2023,9,26,22,37,49,0,0,0,3.41,3.33,4.98,4.99,33.53,26.76,23.33,28.33,22.78,991.22,1.03,9.22,3.40,6.00,68.90,-150.98
219,0,0,122755879,-674798424,958971,2023,9,26,22,37,50,0,0,0,3.41,3.31,4.98,4.94,34.31,27.03,23.32,28.38,22.80,991.15,0.99,9.18,3.40,5.80,68.88,-149.26
220,0,0,121890152,-670478274,945692,2023,9,26,22,37,51,0,0,0,3.41,3.33,4.98,4.99,33.33,26.02,23.29,28.32,22.80,991.53,1.03,9.29,3.44,5.95,68.86,-151.30
221,0,0,123206232,-667075997,965914,2023,9,26,22,37,52,0,0,0,3.43,3.31,4.98,4.94,34.85,26.69,23.31,28.35,22.82,991.39,1.07,9.22,3.40,6.22,68.84,-153.14
222,0,0,123223596,-667060895,966182,2023,9,26,22,37,53,0,0,0,3.41,3.33,4.98,4.99,33.28,26.38,23.28,28.40,22.77,991.37,0.96,9.22,3.40,5.56,69.01,-150.57
223,0,0,123240960,-667045792,966451,2023,9,26,22,37,54,0,0,0,3.40,3.32,4.98,4.98,34.00,26.50,23.29,28.38,22.81,991.25,0.99,9.26,3.40,5.76,69.04,-150.82
224,0,0,123258322,-667030686,966719,2023,9,26,22,37,55,0,0,0,3.41,3.33,4.98,4.98,33.42,26.21,23.29,28.44,22.74,991.01,1.03,9.18,3.40,6.02,68.82,-147.93
225,0,0,123275684,-667015579,966987,2023,9,26,22,37,56,0,0,0,3.42,3.32,4.98,4.95,33.78,26.69,23.31,28.41,22.80,991.49,0.92,9.22,3.40,5.34,69.07,-150.86
226,0,0,123293045,-667000470,967255,2023,9,26,22,37,57,0,0,0,3.35,3.34,4.98,4.99,33.17,26.27,23.30,28.45,22.80,991.62,0.92,9.18,3.44,5.35,68.79,-149.82
227,0,0,123310405,-666985360,967524,2023,9,26,22,37,58,0,0,0,3.42,3.31,4.98,4.99,33.89,26.74,23.29,28.43,22.79,991.26,0.99,9.22,3.48,5.76,68.56,-150.43
228,0,0,125761215,-668416167,1005755,2023,9,26,22,37,59,0,0,0,3.38,3.32,4.98,4.98,33.69,26.83,23.30,28.43,22.79,991.29,0.99,9.22,3.40,5.78,68.96,-148.81
229,0,0,125779290,-668400885,1006039,2023,9,26,22,38,0,0,0,0,3.42,3.31,4.98,4.98,34.82,26.74,23.31,28.42,22.78,991.57,0.92,9.22,3.06,5.40,70.89,-147.74
230,0,0,126751714,-672666650,1021406,2023,9,26,22,38,1,0,0,0,3.41,3.32,4.98,4.98,33.43,26.51,23.25,28.44,22.71,991.32,0.96,9.22,3.29,5.58,69.61,-147.26
231,0,0,125815435,-668370316,1006609,2023,9,26,22,38,2,0,0,0,3.40,3.31,4.98,4.98,34.22,26.65,23.28,28.49,22.77,991.19,1.03,9.18,3.29,6.05,69.41,-149.24
232,0,0,125833507,-668355029,1006893,2023,9,26,22,38,3,0,0,0,3.41,3.32,4.98,4.98,33.69,26.28,23.28,28.43,22.71,991.36,0.96,9.18,3.37,5.59,69.13,-149.38
233,0,0,126810052,-672620755,1022331,2023,9,26,22,38,4,0,0,0,3.41,3.32,4.98,4.98,33.82,27.08,23.27,28.43,22.76,991.67,0.92,9.29,3.21,5.33,70.23,-145.70
234,0,0,123049607,-674573831,963497,2023,9,26,22,38,5,0,0,0,3.41,3.32,4.98,4.99,33.38,26.60,23.26,28.43,22.71,991.27,0.96,9.22,3.40,5.56,69.01,-149.54
235,0,0,123449250,-666864413,969671,2023,9,26,22,38,6,0,0,0,3.41,3.31,4.98,4.98,34.16,27.06,23.26,28.45,22.67,991.33,1.03,9.22,3.33,6.02,69.29,-151.64
236,0,0,123466601,-666849287,969939,2023,9,26,22,38,7,0,0,0,3.41,3.33,4.98,4.99,33.84,26.74,23.26,28.45,22.72,991.48,0.99,9.03,3.60,5.84,67.55,-151.69
237,0,0,124430116,-671156081,984903,2023,9,26,22,38,8,0,0,0,3.42,3.31,4.98,4.98,34.94,26.99,23.27,28.47,22.75,991.49,1.03,9.18,3.52,6.00,68.22,-152.93
238,0,0,123127901,-674513872,964705,2023,9,26,22,38,9,0,0,0,3.41,3.33,4.98,4.95,33.73,26.88,23.26,28.46,22.63,991.39,0.92,9.22,3.44,5.33,68.87,-145.02
239,0,0,122236016,-670193840,950987,2023,9,26,22,38,10,0,0,0,3.40,3.32,4.98,4.98,34.49,26.15,23.24,28.52,22.63,991.41,0.99,9.22,3.71,5.72,67.38,-151.59
240,0,0,123167042,-674483882,965309,2023,9,26,22,38,11,0,0,0,3.41,3.33,4.98,4.98,33.88,26.26,23.22,28.48,22.68,991.25,0.99,9.14,3.79,5.74,66.82,-152.36
241,0,0,119772599,-668749338,913583,2023,9,26,22,38,12,0,0,0,3.39,3.31,4.98,4.98,35.03,27.05,23.23,28.45,22.72,991.66,0.99,9.22,3.37,5.79,69.16,-149.27
242,0,0,119790079,-668734519,913846,2023,9,26,22,38,13,0,0,0,3.41,3.33,4.98,4.98,33.15,26.72,23.24,28.48,22.69,991.35,0.99,9.18,3.44,5.79,68.68,-149.89
243,0,0,119807558,-668719699,914109,2023,9,26,22,38,14,0,0,0,3.41,3.32,4.98,4.98,35.23,26.55,23.24,28.51,22.70,991.42,0.96,9.26,3.60,5.50,68.10,-150.48
244,0,0,121083903,-665243084,933404,2023,9,26,22,38,15,0,0,0,3.41,3.33,4.98,4.97,33.94,25.95,23.23,28.47,22.72,991.55,1.03,9.14,3.40,6.04,68.74,-152.62
245,0,0,122345169,-670103888,952660,2023,9,26,22,38,16,0,0,0,3.38,3.31,4.98,4.98,34.95,26.59,23.22,28.49,22.69,991.20,0.92,9.18,3.48,5.34,68.59,-147.88
246,0,0,119859990,-668675229,914898,2023,9,26,22,38,17,0,0,0,3.42,3.33,4.98,4.99,33.54,25.82,23.21,28.49,22.66,991.52,0.92,9.29,3.29,5.32,69.83,-146.04
247,0,0,119877466,-668660403,915161,2023,9,26,22,38,18,0,0,0,3.43,3.31,4.98,4.98,35.80,26.68,23.20,28.49,22.64,991.52,0.96,9.18,3.40,5.58,68.93,-150.29
248,0,0,119894940,-668645574,915424,2023,9,26,22,38,19,0,0,0,3.41,3.33,4.98,4.98,33.51,25.69,23.19,28.51,22.63,991.31,0.99,9.18,3.37,5.81,69.08,-151.27
249,0,0,122417920,-670043886,953777,2023,9,26,22,38,20,0,0,0,3.35,3.31,4.98,4.98,34.99,26.44,23.20,28.51,22.67,991.30,0.96,9.18,3.40,5.58,68.93,-149.17
250,0,0,122436105,-670028881,954056,2023,9,26,22,38,21,0,0,0,3.41,3.33,4.98,4.99,33.93,25.70,23.19,28.53,22.63,991.30,0.99,9.18,3.29,5.82,69.48,-148.36
251,0,0,121545439,-665830357,940429,2023,9,26,22,38,22,0,0,0,3.37,3.31,4.98,4.98,34.19,27.01,23.19,28.50,22.63,991.54,0.96,9.14,3.29,5.62,69.46,-150.26
252,0,0,121562284,-665815361,940686,2023,9,26,22,38,23,0,0,0,3.41,3.33,4.98,4.98,34.12,26.59,23.20,28.53,22.71,991.56,0.99,9.18,3.40,5.80,68.88,-147.92
253,0,0,122490656,-669983855,954894,2023,9,26,22,38,24,0,0,0,3.41,3.32,4.98,4.98,34.45,27.29,23.18,28.48,22.64,991.47,1.03,9.14,3.44,6.04,68.54,-149.01
254,0,0,121595970,-665785364,941200,2023,9,26,22,38,25,0,0,0,3.41,3.33,4.98,4.99,33.89,26.46,23.19,28.52,22.66,991.21,0.99,9.29,3.25,5.77,69.91,-148.50
255,0,0,122527020,-669953830,955452,2023,9,26,22,38,26,0,0,0,3.33,3.32,4.98,4.99,35.15,26.04,23.19,28.52,22.59,991.40,0.92,9.18,3.37,5.36,69.19,-150.65
256,0,0,122545200,-669938814,955732,2023,9,26,22,38,27,0,0,0,3.41,3.33,4.98,4.99,33.62,26.53,23.16,28.52,22.64,991.15,0.92,9.22,3.37,5.34,69.27,-147.24
257,0,0,122563379,-669923797,956011,2023,9,26,22,38,28,0,0,0,3.40,3.32,4.98,4.97,35.20,26.39,23.18,28.53,22.65,991.41,1.03,9.26,3.21,6.02,69.97,-148.05
258,0,0,121663332,-665725351,942227,2023,9,26,22,38,29,0,0,0,3.41,3.33,4.98,4.99,33.77,25.38,23.15,28.55,22.60,991.41,0.96,9.26,3.37,5.55,69.29,-149.22
259,0,0,121680170,-665710343,942484,2023,9,26,22,38,30,0,0,0,3.40,3.31,4.98,4.95,35.53,27.05,23.18,28.58,22.62,991.33,0.96,9.22,3.37,5.57,69.21,-150.58
260,0,0,122617912,-669878734,956849,2023,9,26,22,38,31,0,0,0,3.41,3.33,4.98,4.98,33.98,25.98,23.17,28.56,22.61,991.38,1.07,9.14,3.48,6.25,68.28,-151.19
261,0,0,122941556,-662273081,961831,2023,9,26,22,38,32,0,0,0,3.41,3.32,4.98,4.95,35.22,26.31,23.16,28.53,22.57,991.22,0.96,9.22,3.37,5.57,69.21,-147.81
262,0,0,122654262,-669848684,957408,2023,9,26,22,38,33,0,0,0,3.40,3.33,4.98,4.99,34.02,26.88,23.15,28.53,22.63,991.48,0.99,9.18,3.40,5.80,68.88,-148.88
263,0,0,122672436,-669833656,957688,2023,9,26,22,38,34,0,0,0,3.42,3.31,4.98,4.92,35.27,26.52,23.15,28.55,22.59,991.42,1.03,9.14,3.33,6.06,69.14,-151.69
264,0,0,121764347,-665635278,943770,2023,9,26,22,38,35,0,0,0,3.41,3.33,4.98,4.99,34.21,26.69,23.13,28.55,22.62,991.43,0.96,9.14,3.40,5.60,68.85,-150.04
265,0,0,121781180,-665620260,944027,2023,9,26,22,38,36,0,0,0,3.43,3.32,4.99,4.99,34.47,26.21,23.17,28.55,22.65,991.15,1.03,9.18,3.56,5.99,68.03,-153.47
266,0,0,123986724,-666394688,978003,2023,9,26,22,38,37,0,0,0,3.40,3.33,4.98,4.99,34.07,26.25,23.16,28.56,22.57,991.78,0.92,9.18,3.40,5.36,68.99,-150.22
267,0,0,124004047,-666379507,978272,2023,9,26,22,38,38,0,0,0,3.41,3.31,4.99,4.95,35.00,26.49,23.15,28.57,22.66,991.56,0.96,9.22,3.37,5.57,69.21,-150.14
268,0,0,123053395,-662166961,963555,2023,9,26,22,38,39,0,0,0,3.35,3.33,4.98,4.98,34.15,26.06,23.13,28.56,22.58,991.38,0.96,9.26,3.33,5.55,69.49,-149.68
269,0,0,121848502,-665560171,945055,2023,9,26,22,38,40,0,0,0,3.38,3.30,4.98,4.98,35.23,26.97,23.11,28.52,22.67,991.40,0.96,9.26,3.33,5.55,69.49,-149.83
270,0,0,121865331,-665545144,945312,2023,9,26,22,38,41,0,0,0,3.39,3.33,4.98,4.99,34.28,26.29,23.14,28.60,22.60,991.49,0.99,9.26,3.40,5.76,69.04,-149.31
271,0,0,122817796,-669713369,959925,2023,9,26,22,38,42,0,0,0,3.41,3.32,4.98,4.98,35.85,26.25,23.12,28.58,22.59,991.54,0.99,9.22,3.37,5.79,69.16,-148.88
272,0,0,120314073,-668289185,921743,2023,9,26,22,38,43,0,0,0,3.41,3.31,4.98,4.99,34.22,26.32,23.13,28.59,22.58,991.31,0.99,9.22,3.40,5.78,68.96,-150.80
273,0,0,122854128,-669683279,960484,2023,9,26,22,38,44,0,0,0,3.42,3.32,4.98,4.98,35.69,26.60,23.12,28.61,22.60,991.63,0.96,9.26,3.40,5.54,69.09,-148.90
274,0,0,122872292,-669668232,960764,2023,9,26,22,38,45,0,0,0,3.39,3.32,4.98,4.99,33.65,26.74,23.14,28.62,22.60,991.33,1.07,9.29,3.37,6.18,69.19,-149.78
275,0,0,122890455,-669653182,961044,2023,9,26,22,38,46,0,0,0,3.42,3.31,4.98,4.99,35.32,26.73,23.10,28.63,22.58,991.46,1.07,9.26,3.37,6.21,69.11,-148.21
276,0,0,122908618,-669638131,961323,2023,9,26,22,38,47,0,0,0,3.41,3.31,4.98,4.99,34.15,26.40,23.11,28.63,22.59,991.26,0.99,9.22,3.33,5.79,69.36,-149.38
277,0,0,122926779,-669623078,961603,2023,9,26,22,38,48,0,0,0,3.41,3.31,4.98,4.98,35.31,26.84,23.10,28.66,22.58,991.33,0.99,9.26,3.44,5.75,68.84,-151.01
278,0,0,122944940,-669608024,961883,2023,9,26,22,38,49,0,0,0,3.41,3.33,4.98,4.99,34.21,25.86,23.09,28.65,22.50,991.14,1.03,9.22,3.33,6.02,69.29,-148.29
279,0,0,122963100,-669592967,962163,2023,9,26,22,38,50,0,0,0,3.43,3.31,4.98,4.99,35.74,26.88,23.12,28.63,22.53,991.53,0.99,9.14,3.37,5.83,69.00,-149.79
280,0,0,119524990,-663948374,909864,2023,9,26,22,38,51,0,0,0,3.41,3.33,4.98,4.97,34.22,25.86,23.09,28.66,22.58,991.08,1.03,9.18,3.21,6.06,69.81,-149.07
281,0,0,123260977,-661969656,966760,2023,9,26,22,38,52,0,0,0,3.43,3.31,4.98,4.98,35.22,27.08,23.08,28.62,22.55,991.47,1.15,9.26,3.37,6.65,68.98,-151.96
282,0,0,122067201,-665364688,948401,2023,9,26,22,38,53,0,0,0,3.41,3.32,4.98,4.99,34.13,25.60,23.09,28.66,22.57,991.42,0.99,9.22,3.44,5.77,68.76,-150.64
283,0,0,123035730,-669532723,963283,2023,9,26,22,38,54,0,0,0,3.42,3.32,4.98,4.98,35.42,26.34,23.10,28.68,22.55,991.47,0.92,9.22,3.29,5.36,69.67,-148.16
284,0,0,119589369,-663888886,910830,2023,9,26,22,38,55,0,0,0,3.41,3.33,4.98,4.95,34.54,25.86,23.09,28.65,22.51,991.51,0.96,9.14,3.40,5.60,68.85,-149.55
285,0,0,122117648,-665319535,949173,2023,9,26,22,38,56,0,0,0,3.42,3.31,4.98,4.98,35.42,26.82,23.08,28.69,22.60,991.60,0.99,9.22,3.48,5.76,68.56,-149.05
286,0,0,122134462,-665304481,949430,2023,9,26,22,38,57,0,0,0,3.41,3.33,4.98,4.98,34.32,25.75,23.06,28.63,22.56,991.43,0.99,9.18,3.37,5.81,69.08,-148.09
287,0,0,124085863,-673777022,979544,2023,9,26,22,38,58,0,0,0,3.39,3.31,4.98,4.99,35.35,26.66,23.08,28.64,22.59,991.69,1.03,9.18,3.40,6.02,68.82,-149.99
288,0,0,126580244,-675088055,1018688,2023,9,26,22,38,59,0,0,0,3.41,3.33,4.98,4.99,33.75,26.21,23.08,28.70,22.55,991.45,0.99,9.22,3.33,5.79,69.36,-150.92
289,0,0,126600452,-675072801,1019008,2023,9,26,22,39,0,0,0,0,3.39,3.32,4.98,4.98,35.04,26.35,23.07,28.74,22.49,991.52,0.96,9.14,3.33,5.61,69.26,-147.21
290,0,0,126620659,-675057545,1019329,2023,9,26,22,39,1,0,0,0,3.41,3.33,4.98,4.99,34.47,26.03,23.04,28.68,22.55,991.26,0.99,9.18,3.37,5.81,69.08,-148.08
291,0,0,125378827,-678255828,999743,2023,9,26,22,39,2,0,0,0,3.37,3.32,4.98,4.99,35.22,26.75,23.05,28.63,22.49,991.44,0.92,9.18,3.44,5.35,68.79,-151.26
292,0,0,125399823,-678240715,1000073,2023,9,26,22,39,3,0,0,0,3.41,3.33,4.98,4.98,33.92,26.15,23.06,28.70,22.54,991.42,1.03,9.14,3.37,6.05,68.94,-147.83
293,0,0,125420818,-678225600,1000403,2023,9,26,22,39,4,0,0,0,3.34,3.31,4.98,4.98,34.85,26.78,23.05,28.73,22.51,991.31,0.99,9.18,3.37,5.81,69.08,-150.74
294,0,0,125441813,-678210484,1000732,2023,9,26,22,39,5,0,0,0,3.41,3.33,4.98,4.99,34.03,25.99,23.06,28.70,22.56,991.35,0.99,9.14,3.40,5.82,68.80,-148.75
295,0,0,126721681,-674981235,1020930,2023,9,26,22,39,6,0,0,0,3.41,3.31,4.98,4.98,35.33,26.81,23.07,28.70,22.55,991.39,0.99,9.26,3.44,5.75,68.84,-148.15
296,0,0,125483799,-678180245,1001392,2023,9,26,22,39,7,0,0,0,3.41,3.34,4.98,4.99,34.66,25.91,23.05,28.70,22.48,991.42,0.96,9.22,3.40,5.56,69.01,-150.36
297,0,0,125753602,-670687385,1005635,2023,9,26,22,39,8,0,0,0,3.34,3.32,4.98,4.98,35.92,26.40,23.08,28.78,22.58,991.59,0.96,9.22,3.40,5.56,69.01,-149.13
298,0,0,126782284,-674935426,1021891,2023,9,26,22,39,9,0,0,0,3.41,3.33,4.98,4.98,33.84,25.59,23.07,28.72,22.52,991.65,1.03,9.22,3.44,5.99,68.70,-148.81
299,0,0,126372574,-682589245,1015401,2023,9,26,22,39,10,0,0,0,3.41,3.32,4.98,4.98,36.17,27.10,23.07,28.75,22.56,991.59,0.99,9.18,3.37,5.81,69.08,-148.65
300,0,0,126394961,-682574128,1015756,2023,9,26,22,39,11,0,0,0,3.41,3.33,4.98,4.99,34.10,26.51,23.06,28.73,22.54,991.56,0.96,9.22,3.17,5.60,70.22,-148.56
301,0,0,124861308,-686041702,991635,2023,9,26,22,39,12,0,0,0,3.42,3.32,4.98,4.96,34.90,26.58,23.02,28.67,22.47,991.30,0.96,9.18,3.37,5.59,69.13,-148.78
302,0,0,128503242,-692653444,1049363,2023,9,26,22,39,13,0,0,0,3.41,3.33,4.98,4.99,33.98,26.45,23.01,28.76,22.48,991.83,1.03,9.14,3.48,6.03,68.34,-149.46
303,0,0,131248601,-694485058,1093904,2023,9,26,22,39,14,0,0,0,3.40,3.32,4.98,4.96,35.43,26.59,23.02,28.72,22.45,991.62,0.96,9.18,3.44,5.57,68.73,-148.55
304,0,0,127414427,-687538594,1031942,2023,9,26,22,39,15,0,0,0,3.41,3.33,4.98,4.98,34.58,26.25,23.02,28.69,22.45,991.50,1.03,9.22,3.44,5.99,68.70,-149.05
305,0,0,124371238,-694796234,983985,2023,9,26,22,39,16,0,0,0,3.41,3.32,4.98,4.93,34.81,26.57,23.01,28.71,22.47,991.61,0.99,9.18,3.40,5.80,68.88,-150.00
306,0,0,127147717,-695915773,1027695,2023,9,26,22,39,17,0,0,0,3.41,3.33,4.98,4.98,33.98,25.96,23.01,28.75,22.49,991.17,1.07,9.10,3.29,6.31,69.19,-150.14
307,0,0,126075733,-690850082,1010712,2023,9,26,22,39,18,0,0,0,3.43,3.31,4.98,4.98,35.34,24.85,23.01,28.73,22.48,991.46,0.99,9.18,3.48,5.78,68.48,-151.31
308,0,0,126100501,-690835128,1011103,2023,9,26,22,39,19,0,0,0,3.41,3.33,4.98,4.99,34.47,25.86,23.04,28.70,22.54,991.39,0.96,9.22,3.37,5.57,69.21,-151.20
309,0,0,125814507,-699083134,1006594,2023,9,26,22,39,20,0,0,0,3.39,3.32,4.98,4.95,35.61,26.30,23.02,28.78,22.47,991.44,0.92,9.22,3.29,5.36,69.67,-148.19
310,0,0,129530988,-706441599,1065935,2023,9,26,22,39,21,0,0,0,3.34,3.33,4.98,4.99,34.17,26.48,23.05,28.77,22.48,991.75,0.99,9.14,3.37,5.83,69.00,-149.56
311,0,0,132000527,-719725689,1106256,2023,9,26,22,39,22,0,0,0,3.41,3.31,4.98,4.98,35.57,25.95,23.01,28.74,22.43,991.48,-0.50,8.07,8.76,-2.39,42.61,4.94
312,0,0,142191745,-740263429,1280106,2023,9,26,22,39,23,0,0,0,3.38,3.33,4.98,4.98,34.24,25.23,22.92,28.64,22.48,990.85,-0.61,-0.50,11.78,-2.97,-2.41,-68.49
313,0,0,134892435,-735560933,1154373,2023,9,26,22,39,24,0,0,0,3.42,3.31,4.98,4.98,36.20,26.40,22.93,28.65,22.30,990.97,-1.99,-4.82,7.53,-12.54,-31.73,-63.14
314,0,0,131743849,-738448295,1102032,2023,9,26,22,39,25,0,0,0,3.41,3.31,4.98,4.99,34.23,25.57,22.93,28.68,22.38,991.14,-5.35,0.80,6.54,-39.10,5.43,-35.12
315,0,0,126491583,-733548207,1017284,2023,9,26,22,39,26,0,0,0,3.42,3.31,4.98,4.98,35.04,26.29,22.95,28.65,22.41,991.41,-4.97,-0.73,7.15,-34.67,-4.77,-27.99
316,0,0,133403708,-724706192,1129482,2023,9,26,22,39,27,0,0,0,3.40,3.30,4.98,4.99,34.16,26.25,22.95,28.69,22.40,991.15,-7.23,4.36,11.01,-31.39,18.31,-20.98
317,0,0,128802292,-727458594,1054172,2023,9,26,22,39,28,0,0,0,3.41,3.32,4.98,4.98,34.57,26.63,22.97,28.66,22.44,991.35,-4.28,6.20,1.38,-34.02,54.01,1.80
318,0,0,118602878,-736162959,896074,2023,9,26,22,39,29,0,0,0,3.40,3.31,4.98,4.99,33.87,25.92,22.96,28.71,22.44,991.77,0.69,8.64,4.59,4.02,61.77,-53.99
319,0,0,107531377,-765827557,738421,2023,9,26,22,39,30,0,0,0,3.39,3.32,4.98,4.98,35.89,26.90,22.95,28.68,22.48,991.52,0.99,8.68,4.67,5.76,61.21,-55.63
320,0,0,108241601,-756194868,748093,2023,9,26,22,39,31,0,0,0,3.41,3.31,4.98,4.99,34.13,25.49,22.97,28.69,22.42,991.40,1.34,9.37,5.89,6.90,57.19,-61.49
321,0,0,104819956,-762756320,702053,2023,9,26,22,39,32,0,0,0,3.39,3.31,4.98,4.98,35.34,26.22,22.99,28.74,22.48,991.47,-3.82,0.15,6.23,-31.52,1.20,-19.28
322,0,0,138075399,-710495377,1208449,2023,9,26,22,39,33,0,0,0,3.41,3.33,4.98,4.97,33.58,25.93,22.92,28.72,22.41,990.53,1.03,-7.61,5.81,6.15,-52.20,-157.45
323,0,0,123044431,-751440287,963417,2023,9,26,22,39,34,0,0,0,3.39,3.31,4.98,4.98,35.46,25.93,22.91,28.75,22.42,991.15,1.03,-7.69,5.28,6.32,-55.02,-159.15
324,0,0,119045736,-783020032,902684,2023,9,26,22,39,35,0,0,0,3.40,3.33,4.98,4.98,34.35,25.62,22.88,28.70,22.46,991.02,0.84,-7.69,5.43,5.11,-54.44,-155.52
325,0,0,114175502,-783468170,831274,2023,9,26,22,39,36,0,0,0,3.41,3.31,4.98,4.98,35.98,25.85,22.91,28.77,22.45,990.88,0.88,-7.73,5.39,5.33,-54.73,-156.87
326,0,0,104237241,-742603767,694353,2023,9,26,22,39,37,0,0,0,3.41,3.33,4.98,4.98,33.83,25.81,22.89,28.79,22.48,991.01,0.84,-7.65,5.51,5.10,-53.93,-155.24
327,0,0,114262340,-719647203,832522,2023,9,26,22,39,38,0,0,0,3.42,3.31,4.98,4.98,35.22,25.99,22.87,28.74,22.45,990.92,0.84,-7.53,5.24,5.24,-54.84,-158.33
328,0,0,119652494,-728337005,911778,2023,9,26,22,39,39,0,0,0,3.41,3.33,4.98,4.97,33.69,25.83,22.88,28.77,22.44,990.83,0.84,-7.76,5.39,5.09,-54.89,-156.72
329,0,0,124513489,-741104841,986203,2023,9,26,22,39,40,0,0,0,3.38,3.32,4.98,4.98,34.56,27.13,22.87,28.78,22.41,990.92,0.80,-7.69,5.39,4.89,-54.65,-153.45
330,0,0,113903997,-743686218,827376,2023,9,26,22,39,41,0,0,0,3.40,3.33,4.98,4.98,34.14,25.62,22.86,28.80,22.45,990.63,0.84,-7.65,5.47,5.11,-54.12,-153.68
331,0,0,112651723,-734923821,809511,2023,9,26,22,39,42,0,0,0,3.40,3.32,4.98,4.98,35.28,26.92,22.82,28.84,22.46,990.53,0.88,-7.65,5.39,5.37,-54.46,-155.33
332,0,0,120526586,-725239547,924955,2023,9,26,22,39,43,0,0,0,3.41,3.33,4.98,4.98,33.93,25.41,22.84,28.84,22.45,990.56,0.80,-7.69,5.39,4.89,-54.65,-156.03
333,0,0,125359849,-711429302,999445,2023,9,26,22,39,44,0,0,0,3.36,3.31,4.98,4.98,35.03,26.04,22.86,28.84,22.45,991.01,0.76,-7.69,5.43,4.65,-54.49,-155.43
334,0,0,126007875,-700672925,1009642,2023,9,26,22,39,45,0,0,0,3.41,3.33,4.98,4.98,33.97,26.11,22.82,28.87,22.41,990.54,0.80,-7.73,5.58,4.82,-53.86,-154.58
335,0,0,126035504,-700658157,1010077,2023,9,26,22,39,46,0,0,0,3.33,3.31,4.98,4.98,34.92,26.42,22.81,28.85,22.44,990.75,0.84,-7.65,5.47,5.11,-54.12,-156.14
336,0,0,127776425,-696251633,1037719,2023,9,26,22,39,47,0,0,0,3.41,3.33,4.98,4.98,34.26,25.27,22.78,28.89,22.30,990.64,0.84,-7.69,5.43,5.11,-54.44,-154.27
337,0,0,126603243,-690921147,1019053,2023,9,26,22,39,48,0,0,0,3.42,3.32,4.98,4.98,35.80,26.25,22.78,28.88,22.23,990.69,0.80,-7.65,5.43,4.89,-54.33,-155.40
338,0,0,129423292,-692108509,1064192,2023,9,26,22,39,49,0,0,0,3.41,3.33,4.98,4.99,34.61,25.81,22.75,28.94,22.27,990.71,0.84,-7.73,5.43,5.09,-54.57,-157.16
339,0,0,129448834,-692093333,1064605,2023,9,26,22,39,50,0,0,0,3.33,3.32,4.98,4.99,35.47,26.46,22.75,28.86,22.27,990.44,0.84,-7.73,5.43,5.09,-54.57,-155.65
340,0,0,129474375,-692078154,1065019,2023,9,26,22,39,51,0,0,0,3.40,3.33,4.98,4.98,34.38,25.37,22.78,28.90,22.20,990.91,0.80,-7.65,5.47,4.88,-54.15,-155.45
341,0,0,422913269,-837100247,472861,2023,9,26,22,39,52,0,0,0,3.42,3.31,4.98,4.98,36.13,25.97,22.75,28.89,22.18,990.77,0.80,-7.65,5.47,4.88,-54.15,-154.97
342,0,0,422913439,-837100263,472573,2023,9,26,22,39,53,0,0,0,3.41,3.33,4.98,4.98,34.83,25.40,22.73,28.91,22.21,990.92,0.84,-7.69,5.32,5.14,-55.00,-155.76
343,0,0,422913430,-837100583,467402,2023,9,26,22,39,54,0,0,0,3.40,3.32,4.98,4.98,35.22,26.29,22.76,28.91,22.20,990.98,0.92,-7.69,5.39,5.58,-54.57,-155.23
344,0,0,422913424,-837100631,474410,2023,9,26,22,39,55,0,0,0,3.41,3.33,4.98,4.98,33.88,25.71,22.76,28.91,22.21,990.53,1.03,-7.69,5.35,6.29,-54.65,-153.58
345,0,0,422913473,-837100744,477668,2023,9,26,22,39,56,0,0,0,3.42,3.31,4.98,4.98,35.64,25.84,22.77,28.95,22.18,990.80,0.88,-7.65,5.28,5.41,-55.03,-156.97
346,0,0,422913305,-837101105,484856,2023,9,26,22,39,57,0,0,0,3.41,3.33,4.98,4.98,34.33,26.14,22.76,28.91,22.17,990.66,0.84,-7.69,5.47,5.10,-54.25,-155.21
347,0,0,422913449,-837101032,493927,2023,9,26,22,39,58,0,0,0,3.41,3.31,4.98,4.92,35.02,26.09,22.78,28.91,22.25,990.73,0.80,-7.69,5.16,4.96,-55.80,-157.18
348,0,0,422913480,-837101042,498132,2023,9,26,22,39,59,0,0,0,3.41,3.33,4.98,4.98,34.92,26.03,22.77,28.88,22.23,990.69,0.80,-7.80,5.51,4.81,-54.50,-156.48
349,0,0,422913488,-837100996,500139,2023,9,26,22,40,0,0,0,0,3.41,3.31,4.98,4.98,35.43,25.99,22.79,28.91,22.19,990.70,0.80,-7.69,5.35,4.90,-54.84,-152.69
350,0,0,422913271,-837101313,494853,2023,9,26,22,40,1,0,0,0,3.40,3.33,4.98,4.99,34.04,25.82,22.80,28.91,22.23,990.76,0.80,-7.69,5.32,4.91,-55.03,-155.12
351,0,0,422913321,-837101250,498674,2023,9,26,22,40,2,0,0,0,3.38,3.32,4.98,4.94,35.22,25.96,22.81,28.94,22.25,990.85,0.84,-7.69,5.47,5.10,-54.25,-156.81
352,0,0,422913237,-837101348,500788,2023,9,26,22,40,3,0,0,0,3.36,3.34,4.98,4.99,34.47,25.85,22.82,28.96,22.23,990.81,0.84,-7.73,5.43,5.09,-54.57,-155.08
353,0,0,422912480,-837102038,501464,2023,9,26,22,40,4,0,0,0,3.41,3.32,4.98,4.98,35.71,22.03,22.80,28.91,22.22,990.67,0.80,-7.69,5.51,4.85,-54.10,-152.74
354,0,0,422912209,-837102084,497198,2023,9,26,22,40,5,0,0,0,3.37,3.33,4.98,4.99,33.52,25.47,22.80,28.91,22.18,990.61,0.84,-7.65,5.43,5.13,-54.30,-154.59
355,0,0,422912705,-837101884,498029,2023,9,26,22,40,6,0,0,0,3.41,3.32,4.98,4.98,35.35,25.39,22.79,28.90,22.13,990.88,0.76,-7.65,5.43,4.66,-54.36,-155.55
356,0,0,422912352,-837102307,494022,2023,9,26,22,40,7,0,0,0,3.40,3.31,4.98,4.99,34.44,26.52,22.78,28.82,22.16,990.68,0.80,-7.65,5.47,4.88,-54.15,-155.08
357,0,0,422911726,-837102881,485721,2023,9,26,22,40,8,0,0,0,3.42,3.31,4.98,4.99,36.61,26.73,22.80,28.90,22.18,990.89,0.80,-7.65,5.47,4.88,-54.15,-156.62
358,0,0,422911532,-837103148,485244,2023,9,26,22,40,9,0,0,0,3.36,3.30,4.98,4.98,34.78,25.77,22.84,28.85,22.18,990.95,0.76,-7.69,5.47,4.64,-54.31,-154.71
359,0,0,422911518,-837102948,488345,2023,9,26,22,40,10,0,0,0,3.41,3.31,4.98,4.98,35.99,26.42,22.77,28.88,22.16,990.69,0.76,-7.73,5.47,4.62,-54.44,-151.11
360,0,0,422911827,-837102684,495306,2023,9,26,22,40,11,0,0,0,3.40,3.32,4.98,4.98,34.90,25.75,22.76,28.87,22.15,990.89,0.84,-7.76,5.47,5.06,-54.52,-156.10
361,0,0,422912048,-837102404,497696,2023,9,26,22,40,12,0,0,0,3.41,3.32,4.98,4.98,36.23,26.17,22.75,28.89,22.14,990.66,0.88,-7.73,5.39,5.33,-54.73,-156.22
362,0,0,422912072,-837102413,496845,2023,9,26,22,40,13,0,0,0,3.41,3.31,4.98,4.99,34.42,25.63,22.78,28.95,22.13,990.80,0.84,-7.65,5.39,5.14,-54.49,-154.76
363,0,0,422912063,-837102426,495851,2023,9,26,22,40,14,0,0,0,3.39,3.31,4.98,4.98,35.46,26.55,22.75,28.91,22.09,990.91,0.80,-7.69,5.43,4.88,-54.47,-157.20
364,0,0,422912123,-837102326,497601,2023,9,26,22,40,15,0,0,0,3.41,3.33,4.98,4.99,34.57,24.83,22.73,28.91,22.09,990.64,0.80,-7.73,5.43,4.86,-54.60,-153.25
365,0,0,422912206,-837102290,499740,2023,9,26,22,40,16,0,0,0,3.42,3.32,4.98,4.98,36.09,26.16,22.70,28.92,22.11,990.64,0.76,-7.69,5.43,4.65,-54.49,-156.98
366,0,0,422912233,-837102223,502755,2023,9,26,22,40,17,0,0,0,3.41,3.33,4.98,4.97,34.79,25.47,22.72,28.91,22.08,990.84,0.73,-7.69,5.43,4.41,-54.52,-157.13
367,5,3,422931721,-837118462,275451,2023,9,26,22,40,18,-121,-15,195,3.41,3.32,4.98,4.97,35.20,26.20,22.69,28.98,22.08,990.66,0.80,-7.61,5.43,4.91,-54.20,-157.41
368,5,3,422931742,-837118422,276091,2023,9,26,22,40,19,-75,-119,86,3.41,3.34,4.98,4.99,35.46,25.49,22.72,28.95,22.09,990.72,0.80,-7.73,5.39,4.87,-54.79,-153.64
369,5,3,422931736,-837118423,275939,2023,9,26,22,40,20,-124,84,-151,3.38,3.32,4.98,4.98,34.65,26.77,22.77,28.98,22.16,990.75,0.80,-7.65,5.43,4.89,-54.33,-155.50
370,5,3,422931698,-837118466,275082,2023,9,26,22,40,21,108,16,-151,3.41,3.34,4.98,4.99,34.57,25.65,22.83,28.99,22.14,990.91,0.80,-7.73,5.39,4.87,-54.79,-155.49
371,5,3,422931685,-837118550,273194,2023,9,26,22,40,22,71,57,-21,3.35,3.32,4.98,4.99,35.64,25.86,22.82,28.95,22.18,990.90,0.80,-7.73,5.47,4.85,-54.42,-156.03
372,5,3,422931647,-837118600,271775,2023,9,26,22,40,23,-44,67,-83,3.41,3.34,4.98,4.99,34.65,25.57,22.84,28.98,22.23,990.89,0.76,-7.65,5.43,4.66,-54.36,-155.13
373,5,3,422931611,-837118654,270482,2023,9,26,22,40,24,130,120,-190,3.41,3.32,4.98,4.99,34.82,26.05,22.85,28.96,22.23,991.12,0.80,-7.80,5.39,4.84,-55.05,-156.34
374,5,3,422931585,-837118690,269551,2023,9,26,22,40,25,-31,-23,150,3.40,3.34,4.98,4.99,34.06,25.27,22.82,29.04,22.26,990.50,0.84,-7.61,5.51,5.12,-53.80,-154.61
375,5,3,422931568,-837118708,269160,2023,9,26,22,40,26,-99,-129,100,3.42,3.30,4.98,4.99,33.50,26.43,22.82,28.98,22.30,990.74,0.84,-7.73,5.35,5.12,-54.95,-156.26
376,5,3,422931559,-837118709,269056,2023,9,26,22,40,27,-11,53,39,3.40,3.34,4.98,4.99,33.99,25.83,22.81,28.96,22.23,990.29,0.84,-7.65,5.32,5.16,-54.87,-156.11
377,5,3,422931562,-837118699,268911,2023,9,26,22,40,28,167,149,7,3.40,3.32,4.98,4.95,34.69,26.99,22.83,28.98,22.24,990.75,0.80,-7.73,5.43,4.86,-54.60,-157.69
378,5,3,422931562,-837118697,268850,2023,9,26,22,40,29,67,12,4,3.41,3.34,4.98,4.99,33.98,25.75,22.85,29.05,22.30,990.68,0.80,-7.61,5.47,4.90,-54.01,-158.04
379,5,3,422931570,-837118688,269103,2023,9,26,22,40,30,48,-8,190,3.40,3.32,4.98,4.99,35.41,26.81,22.89,28.95,22.32,991.15,0.76,-7.69,5.74,4.56,-53.02,-152.20
380,5,3,422931579,-837118675,269350,2023,9,26,22,40,31,-43,-51,381,3.41,3.34,4.98,4.99,34.58,25.93,22.91,28.95,22.27,990.71,0.84,-7.65,5.39,5.14,-54.49,-154.30
381,5,3,422931579,-837118670,269609,2023,9,26,22,40,32,-165,-146,481,3.41,3.33,4.98,4.97,34.08,26.74,22.88,28.92,22.36,990.61,0.76,-7.69,5.43,4.65,-54.49,-155.87
382,6,3,422931584,-837118655,269944,2023,9,26,22,40,33,-97,-87,449,3.40,3.34,4.98,4.99,34.17,25.73,22.91,28.95,22.30,990.76,0.80,-7.69,5.35,4.90,-54.84,-156.66
383,6,3,422931584,-837118646,270119,2023,9,26,22,40,34,-247,-177,426,3.41,3.32,4.98,4.94,33.52,28.84,22.91,28.90,22.28,990.91,0.80,-7.73,5.35,4.88,-54.98,-152.27
384,6,3,422931589,-837118638,270231,2023,9,26,22,40,35,48,-21,279,3.40,3.33,4.98,4.99,34.01,25.91,22.89,28.92,22.30,990.64,0.76,-7.69,5.39,4.66,-54.68,-156.95
385,6,3,422931600,-837118620,270598,2023,9,26,22,40,36,-47,-29,259,3.40,3.32,4.98,4.98,33.77,26.65,22.91,28.86,22.34,990.78,0.76,-7.73,5.43,4.63,-54.63,-156.13
386,6,3,422931618,-837118587,271043,2023,9,26,22,40,37,38,106,196,3.41,3.34,4.98,4.99,34.61,25.90,22.90,28.79,22.32,990.67,0.76,-7.61,5.47,4.67,-54.04,-155.37
387,6,3,422931636,-837118552,271491,2023,9,26,22,40,38,66,111,257,3.40,3.33,4.98,4.99,34.32,25.81,22.88,28.80,22.34,990.57,0.96,-7.73,5.70,5.69,-53.21,-154.06
388,5,3,422931640,-837118540,271779,2023,9,26,22,40,39,-115,-115,341,3.36,3.32,4.98,4.99,34.10,25.83,22.85,28.78,22.32,990.61,0.73,-7.69,5.43,4.41,-54.52,-155.47
389,5,3,422931655,-837118524,271949,2023,9,26,22,40,40,183,63,278,3.41,3.32,4.98,4.99,34.86,26.26,22.82,28.84,22.33,990.75,0.80,-7.69,5.43,4.88,-54.47,-156.13
390,5,3,422931666,-837118510,272404,2023,9,26,22,40,41,-102,-102,252,3.34,3.34,4.98,4.99,34.47,25.64,22.76,28.77,22.32,990.81,0.76,-7.69,5.12,4.73,-56.02,-156.68
391,5,3,422931682,-837118484,273016,2023,9,26,22,40,42,45,14,123,3.41,3.32,4.98,4.99,33.95,26.25,22.73,28.80,22.29,990.68,0.80,-7.69,5.55,4.84,-53.91,-154.79
392,5,3,422931696,-837118465,273428,2023,9,26,22,40,43,27,-50,63,3.41,3.31,4.98,4.99,33.80,25.27,22.70,28.80,22.27,990.68,0.80,-7.65,5.35,4.92,-54.71,-155.81
393,5,3,422931708,-837118448,273827,2023,9,26,22,40,44,12,-8,82,3.41,3.32,4.98,4.98,34.94,26.78,22.69,28.84,22.34,990.81,0.76,-7.73,5.47,4.62,-54.44,-153.88
394,5,3,422931709,-837118438,273996,2023,9,26,22,40,45,-74,-52,-99,3.41,3.31,4.98,4.99,33.98,25.63,22.70,28.85,22.34,990.75,0.69,-7.69,5.35,4.20,-54.92,-154.52
395,5,3,422931699,-837118441,273782,2023,9,26,22,40,46,-25,14,-78,3.41,3.33,4.98,4.99,32.74,25.97,22.71,28.87,22.30,990.77,0.80,-7.73,5.55,4.83,-54.05,-153.38
396,5,3,422931709,-837118421,273947,2023,9,26,22,40,47,120,73,-46,3.41,3.34,4.98,4.99,33.99,25.75,22.71,28.83,22.29,991.03,0.80,-7.73,5.43,4.86,-54.60,-156.25
397,5,3,422931725,-837118394,274316,2023,9,26,22,40,48,20,20,11,3.41,3.32,4.98,4.98,33.04,26.46,22.70,28.83,22.23,990.55,0.84,-7.69,5.51,5.08,-54.07,-155.13
398,5,3,422931737,-837118371,274471,2023,9,26,22,40,49,85,93,-159,3.40,3.33,4.98,4.99,34.22,25.57,22.67,28.83,22.29,991.01,0.80,-7.73,5.39,4.87,-54.79,-154.28
399,5,3,422931747,-837118354,274407,2023,9,26,22,40,50,154,138,-192,3.41,3.32,4.98,4.98,33.11,26.34,22.66,28.84,22.26,990.65,0.84,-7.65,5.43,5.13,-54.30,-156.77
400,5,3,422931763,-837118326,274631,2023,9,26,22,40,51,122,157,-120,3.40,3.34,4.98,4.96,33.75,25.77,22.71,28.90,22.30,990.86,0.73,-7.69,5.39,4.43,-54.71,-154.00
401,5,3,422931768,-837118312,274739,2023,9,26,22,40,52,-38,-20,-34,3.42,3.32,4.98,4.98,34.10,26.11,22.75,28.87,22.30,990.82,0.76,-7.73,5.51,4.61,-54.26,-153.44
402,5,3,422931766,-837118310,274391,2023,9,26,22,40,53,51,59,-16,3.41,3.34,4.98,4.97,33.92,25.59,22.77,28.85,22.27,990.97,0.73,-7.65,5.39,4.44,-54.57,-156.74
403,5,3,422931768,-837118306,274155,2023,9,26,22,40,54,0,-68,-47,3.40,3.32,4.98,4.98,34.37,26.75,22.81,28.83,22.34,990.79,0.76,-7.69,5.81,4.54,-52.67,-153.57
404,5,3,422931771,-837118305,273903,2023,9,26,22,40,55,81,35,5,3.41,3.34,4.98,4.99,34.34,25.29,22.83,28.83,22.37,990.62,0.80,-7.65,5.47,4.88,-54.15,-155.95
405,5,3,422931771,-837118300,273390,2023,9,26,22,40,56,29,124,105,3.40,3.32,4.98,4.99,33.38,26.55,22.82,28.84,22.38,990.70,0.80,-7.69,5.51,4.85,-54.10,-155.02
406,5,3,422931771,-837118303,272894,2023,9,26,22,40,57,69,0,-62,3.40,3.34,4.98,4.99,31.64,25.63,22.83,28.82,22.28,990.95,0.76,-7.76,5.51,4.59,-54.39,-156.09
407,5,3,422931765,-837118315,272651,2023,9,26,22,40,58,-82,-84,47,3.32,3.32,4.98,4.99,34.14,27.35,22.81,28.88,22.28,990.73,0.84,-7.61,5.43,5.14,-54.17,-153.57
408,5,3,422931740,-837118340,272102,2023,9,26,22,40,59,-236,-145,266,3.41,3.34,4.98,4.99,34.18,25.25,22.86,28.90,22.25,990.85,0.73,-7.73,5.20,4.46,-55.79,-155.78
409,5,3,422931724,-837118357,271217,2023,9,26,22,41,0,48,64,-12,3.39,3.32,4.98,4.98,34.51,27.17,22.85,28.79,22.30,990.73,0.80,-7.65,5.39,4.90,-54.52,-156.50
410,5,3,422931696,-837118389,270191,2023,9,26,22,41,1,-148,-144,208,3.40,3.34,4.98,4.99,34.33,25.44,22.85,28.78,22.33,990.64,0.80,-7.69,5.47,4.87,-54.28,-156.41
411,5,3,422931673,-837118417,269285,2023,9,26,22,41,2,-26,-43,72,3.38,3.31,4.98,4.99,33.92,27.04,22.88,28.81,22.25,990.64,0.76,-7.69,5.20,4.71,-55.63,-157.62
