Packet Number,SIV,FixType,Latitude,Longitude,Altitude,Year,Month,Day,Hour,Min,Sec,NNV,NEV,NDV,Battery,3v3 Supply,5v Supply,Radio Supply,Analog Internal,Analog External,AltimeterTemp,Digital Internal,Digital External,Pressure,Accel A,Accel Y,Accel Z,Pitch,Roll,Yaw
0,0,0,0,0,0,2020,8,2,0,0,2,0,0,0,4.14,3.33,4.99,5.00,16.97,17.75,14.60,14.55,14.46,948.71,-0.57,0.08,9.52,-3.45,0.46,19.43
1,0,0,0,0,0,2020,8,2,0,0,3,0,0,0,4.11,3.32,4.98,4.99,17.87,18.50,14.60,14.55,14.47,948.78,-0.88,0.00,9.52,-5.28,0.00,17.80
2,0,0,0,0,0,2020,8,2,0,0,4,0,0,0,4.08,3.32,4.98,4.99,16.92,17.54,14.60,14.56,14.47,948.78,-0.54,0.11,9.10,-3.37,0.72,19.12
3,0,0,0,0,0,2020,8,2,0,0,5,0,0,0,4.13,3.31,4.98,4.99,16.68,17.41,14.61,14.55,14.46,948.74,-0.34,0.11,9.60,-2.05,0.68,20.63
0,0,0,0,0,0,2020,8,2,0,0,2,0,0,0,3.63,3.32,4.99,4.99,17.74,17.35,14.65,14.88,14.51,948.75,-1.95,0.27,9.37,-11.75,1.60,24.08
1,0,0,0,0,0,2020,8,2,0,0,3,0,0,0,3.63,3.31,4.98,4.98,18.52,18.68,14.65,14.88,14.51,948.65,-1.95,0.31,9.45,-11.66,1.82,23.08
2,0,0,0,0,0,2020,8,2,0,0,4,0,0,0,3.55,3.32,4.98,4.99,17.84,18.35,14.65,14.88,14.51,948.58,-1.99,0.34,9.18,-12.22,2.10,23.22
3,0,0,0,0,0,2020,8,2,0,0,5,0,0,0,3.64,3.31,4.99,4.99,17.95,17.96,14.65,14.89,14.51,948.63,-1.91,0.31,9.29,-11.62,1.85,23.66
4,0,0,0,0,0,2020,8,2,0,0,6,0,0,0,3.63,3.32,4.98,4.99,17.23,18.24,14.66,14.88,14.52,948.34,-1.91,0.19,9.03,-11.96,1.19,23.95
5,0,0,0,0,0,2020,8,2,0,0,7,0,0,0,3.61,3.32,4.98,4.99,18.51,17.92,14.65,14.92,14.50,948.26,-1.91,0.34,9.33,-11.57,2.07,23.99
6,0,0,0,0,0,2020,8,2,0,0,8,0,0,0,3.64,3.32,4.98,4.99,17.99,18.09,14.66,14.95,14.51,948.44,-1.95,0.27,9.33,-11.80,1.61,22.98
7,0,0,0,0,0,2020,8,2,0,0,9,0,0,0,3.63,3.31,4.99,4.99,18.07,17.87,14.67,15.04,14.52,948.30,-1.99,0.27,9.33,-12.03,1.61,20.89
8,0,0,0,0,0,2020,8,2,0,0,10,0,0,0,3.63,3.32,4.98,4.99,18.26,18.25,14.67,15.05,14.52,948.31,-1.99,0.31,9.33,-12.02,1.84,23.49
9,0,0,0,0,0,2020,8,2,0,0,11,0,0,0,3.61,3.31,4.99,4.99,18.35,18.31,14.68,15.11,14.55,948.27,-1.99,0.31,9.29,-12.07,1.84,23.52
10,0,0,0,0,0,2020,8,2,0,0,12,0,0,0,3.63,3.32,4.98,4.95,17.99,18.02,14.67,15.13,14.55,948.36,-1.87,0.27,9.45,-11.22,1.59,24.35
11,0,0,0,0,0,2020,8,2,0,0,13,0,0,0,3.62,3.31,4.99,4.99,18.30,18.13,14.67,15.18,14.55,948.39,-1.99,0.38,9.26,-12.12,2.31,23.12
12,0,0,0,0,0,2020,8,2,0,0,14,0,0,0,3.63,3.32,4.98,4.99,18.57,17.94,14.68,15.20,14.54,948.21,-1.91,0.31,9.33,-11.57,1.84,23.85
13,0,0,0,0,0,2020,8,2,0,0,15,0,0,0,3.63,3.31,4.98,4.98,18.23,18.10,14.68,15.27,14.58,948.49,-1.99,0.34,9.41,-11.93,2.05,24.70
14,0,0,0,0,0,2020,8,2,0,0,16,0,0,0,3.63,3.32,4.98,4.99,18.11,17.34,14.70,15.32,14.55,948.26,-1.91,0.34,9.26,-11.67,2.09,22.48
15,0,0,0,0,0,2020,8,2,0,0,17,0,0,0,3.62,3.31,4.98,4.98,18.74,18.15,14.71,15.35,14.56,948.25,-1.99,0.31,9.45,-11.88,1.82,23.12
16,0,0,0,0,0,2020,8,2,0,0,18,0,0,0,3.63,3.32,4.98,4.99,18.13,17.92,14.71,15.43,14.52,948.21,-1.91,0.31,9.33,-11.57,1.84,23.93
17,0,0,0,0,0,2020,8,2,0,0,19,0,0,0,3.63,3.31,4.98,4.98,19.23,18.26,14.71,15.45,14.54,948.44,-1.95,0.27,9.37,-11.75,1.60,23.67
18,0,0,0,0,0,2020,8,2,0,0,20,0,0,0,3.63,3.32,4.98,4.99,18.83,17.29,14.71,15.50,14.55,948.39,-1.95,0.31,9.41,-11.71,1.82,22.09
19,0,0,0,0,0,2020,8,2,0,0,21,0,0,0,3.59,3.32,4.98,4.98,19.20,17.89,14.71,15.52,14.58,948.40,-1.91,0.27,9.37,-11.53,1.60,23.36
20,0,0,0,0,0,2020,8,2,0,0,22,0,0,0,3.63,3.32,4.98,4.99,19.03,17.62,14.70,15.58,14.56,948.19,-1.91,0.23,9.52,-11.35,1.35,23.59
21,0,0,0,0,0,2020,8,2,0,0,23,0,0,0,3.63,3.31,4.98,4.98,19.04,18.05,14.72,15.59,14.55,948.47,-1.99,0.38,9.37,-11.97,2.29,22.31
22,0,0,0,0,0,2020,8,2,0,0,24,0,0,0,3.63,3.32,4.98,4.99,18.99,17.87,14.72,15.69,14.55,948.41,-1.91,0.42,9.45,-11.43,2.50,23.46
23,0,0,0,0,0,2020,8,2,0,0,25,0,0,0,3.63,3.31,4.98,4.98,19.52,18.06,14.74,15.67,14.61,948.29,-1.91,0.42,9.52,-11.34,2.48,23.60
24,0,0,0,0,0,2020,8,2,0,0,26,0,0,0,3.63,3.32,4.98,4.99,19.38,18.07,14.72,15.73,14.57,948.37,-1.95,0.38,9.45,-11.66,2.27,23.23
25,0,0,0,0,0,2020,8,2,0,0,27,0,0,0,3.63,3.31,4.99,4.99,19.54,17.85,14.73,15.81,14.55,948.36,-1.95,0.31,9.68,-11.39,1.78,23.40
26,0,0,0,0,0,2020,8,2,0,0,28,0,0,0,3.63,3.32,4.98,4.99,19.07,17.98,14.73,15.83,14.56,948.23,-1.87,0.27,9.41,-11.26,1.60,24.34
27,0,0,0,0,0,2020,8,2,0,0,29,0,0,0,3.62,3.31,4.99,4.96,19.36,18.27,14.73,15.92,14.58,948.18,-1.91,0.31,9.33,-11.57,1.84,23.64
28,0,0,0,0,0,2020,8,2,0,0,30,0,0,0,3.63,3.32,4.98,4.99,19.60,18.04,14.74,15.89,14.54,948.23,-1.95,0.27,9.52,-11.57,1.58,21.41
29,0,0,0,0,0,2020,8,2,0,0,31,0,0,0,3.62,3.31,4.99,4.94,20.23,17.46,14.75,15.95,14.53,948.27,-1.95,0.27,9.37,-11.75,1.60,23.37
30,0,0,0,0,0,2020,8,2,0,0,32,0,0,0,3.63,3.32,4.98,4.99,19.25,17.55,14.74,16.05,14.57,948.19,-1.87,0.34,9.10,-11.63,2.12,22.55
31,0,0,0,0,0,2020,8,2,0,0,33,0,0,0,3.63,3.31,4.99,4.99,19.95,17.96,14.77,16.06,14.58,948.20,-1.95,0.34,9.37,-11.75,2.06,22.46
32,0,0,0,0,0,2020,8,2,0,0,34,0,0,0,3.62,3.32,4.98,4.99,19.77,17.88,14.77,16.11,14.60,948.42,-1.91,0.34,9.37,-11.53,2.06,23.25
33,0,0,0,0,0,2020,8,2,0,0,35,0,0,0,3.63,3.31,4.99,4.99,19.51,18.20,14.78,16.16,14.63,948.36,-1.87,0.34,9.37,-11.30,2.06,23.01
34,0,0,0,0,0,2020,8,2,0,0,36,0,0,0,3.63,3.32,4.98,4.99,19.37,18.04,14.80,16.16,14.59,948.27,-1.99,0.31,9.37,-11.98,1.83,22.90
35,0,0,0,0,0,2020,8,2,0,0,37,0,0,0,3.62,3.31,4.98,4.98,20.59,18.36,14.79,16.26,14.59,948.25,-1.91,0.34,9.33,-11.57,2.07,22.99
36,0,0,0,0,0,2020,8,2,0,0,38,0,0,0,3.59,3.32,4.98,4.99,19.65,18.08,14.79,16.24,14.60,948.11,-1.95,0.38,8.99,-12.23,2.38,22.24
37,0,0,0,0,0,2020,8,2,0,0,39,0,0,0,3.63,3.31,4.98,4.98,21.18,18.21,14.81,16.28,14.63,948.22,-1.91,0.31,9.37,-11.53,1.83,22.60
38,0,0,0,0,0,2020,8,2,0,0,40,0,0,0,3.62,3.32,4.98,4.99,19.83,17.88,14.80,16.34,14.63,948.30,-1.99,0.31,9.37,-11.98,1.83,23.35
39,0,0,0,0,0,2020,8,2,0,0,41,0,0,0,3.64,3.31,4.98,4.98,20.72,18.80,14.82,16.42,14.59,948.20,-1.95,0.27,9.37,-11.75,1.60,24.70
40,0,0,0,0,0,2020,8,2,0,0,42,0,0,0,3.62,3.32,4.98,4.99,20.10,18.13,14.80,16.41,14.62,948.26,-1.99,0.31,9.29,-12.07,1.84,23.95
41,0,0,0,0,0,2020,8,2,0,0,43,0,0,0,3.63,3.31,4.98,4.98,20.87,17.80,14.83,16.49,14.60,948.24,-1.91,0.31,9.41,-11.48,1.83,24.68
42,0,0,0,0,0,2020,8,2,0,0,44,0,0,0,3.62,3.32,4.98,4.99,20.24,17.96,14.83,16.46,14.63,948.29,-1.99,0.31,9.33,-12.02,1.84,23.98
43,0,0,0,0,0,2020,8,2,0,0,45,0,0,0,3.63,3.31,4.98,4.98,21.54,18.30,14.83,16.53,14.61,948.30,-1.87,0.31,9.33,-11.35,1.84,23.40
44,0,0,0,0,0,2020,8,2,0,0,46,0,0,0,3.62,3.32,4.98,4.99,20.42,18.01,14.82,16.56,14.60,948.13,-1.95,0.31,9.41,-11.71,1.82,22.93
45,0,0,0,0,0,2020,8,2,0,0,47,0,0,0,3.63,3.31,4.98,4.98,21.21,17.69,14.84,16.60,14.60,948.46,-1.99,0.34,9.37,-11.98,2.06,23.16
46,0,0,0,0,0,2020,8,2,0,0,48,0,0,0,3.63,3.32,4.98,4.94,20.26,17.79,14.87,16.64,14.64,948.32,-1.91,0.27,9.48,-11.39,1.58,23.44
47,0,0,0,0,0,2020,8,2,0,0,49,0,0,0,3.62,3.31,4.99,4.99,21.70,18.32,14.87,16.68,14.65,948.35,-1.95,0.27,9.29,-11.85,1.61,24.33
48,0,0,0,0,0,2020,8,2,0,0,50,0,0,0,3.63,3.32,4.98,4.99,20.47,18.14,14.86,16.75,14.63,948.18,-1.99,0.31,9.33,-12.02,1.84,22.90
49,0,0,0,0,0,2020,8,2,0,0,51,0,0,0,3.63,3.31,4.99,4.99,21.91,18.11,14.88,16.82,14.66,948.37,-1.95,0.34,9.41,-11.70,2.05,23.58
50,0,0,0,0,0,2020,8,2,0,0,52,0,0,0,3.63,3.32,4.98,4.99,20.66,18.37,14.89,16.80,14.65,948.42,-1.87,0.27,9.33,-11.35,1.61,24.06
51,0,0,0,0,0,2020,8,2,0,0,53,0,0,0,3.62,3.31,4.99,4.99,21.97,18.17,14.90,16.85,14.65,948.34,-1.99,0.23,9.33,-12.03,1.38,23.51
52,0,0,0,0,0,2020,8,2,0,0,54,0,0,0,3.62,3.32,4.98,4.99,21.24,18.33,14.92,16.91,14.66,948.37,-1.99,0.31,9.10,-12.32,1.88,23.37
53,0,0,0,0,0,2020,8,2,0,0,55,0,0,0,3.55,3.31,4.99,4.99,22.12,18.55,14.91,16.95,14.67,948.33,-1.95,0.31,9.29,-11.85,1.85,24.01
54,0,0,0,0,0,2020,8,2,0,0,56,0,0,0,3.62,3.32,4.98,4.99,21.46,17.96,14.93,16.96,14.67,948.18,-1.95,0.23,9.33,-11.80,1.38,23.62
55,0,0,0,0,0,2020,8,2,0,0,57,0,0,0,3.65,3.31,4.99,4.99,22.22,18.68,14.91,16.99,14.68,948.37,-1.95,0.34,9.33,-11.80,2.07,23.63
56,0,0,0,0,0,2020,8,2,0,0,58,0,0,0,3.62,3.32,4.98,4.99,21.38,17.99,14.93,17.02,14.68,948.11,-1.91,0.31,9.68,-11.17,1.78,22.86
57,0,0,0,0,0,2020,8,2,0,0,59,0,0,0,3.63,3.31,4.98,4.98,22.05,18.52,14.94,17.09,14.70,948.31,-1.95,0.27,9.33,-11.80,1.61,24.01
58,0,0,0,0,0,2020,8,2,0,1,0,0,0,0,3.63,3.32,4.98,4.99,21.21,17.84,14.95,17.15,14.69,948.26,-1.99,0.27,9.37,-11.98,1.60,24.23
59,0,0,0,0,0,2020,8,2,0,1,1,0,0,0,3.62,3.31,4.98,4.98,22.49,18.81,14.96,17.17,14.73,948.28,-1.91,0.31,9.48,-11.39,1.81,23.71
60,0,0,0,0,0,2020,8,2,0,1,2,0,0,0,3.63,3.32,4.98,4.99,22.09,18.21,14.97,17.20,14.68,948.21,-1.99,0.42,9.26,-12.11,2.54,22.67
61,0,0,0,0,0,2020,8,2,0,1,3,0,0,0,3.61,3.31,4.99,4.98,22.51,18.70,14.98,17.26,14.69,948.19,-1.99,0.34,9.68,-11.61,2.00,23.30
62,0,0,0,0,0,2020,8,2,0,1,4,0,0,0,3.62,3.32,4.98,4.99,21.87,18.14,14.99,17.30,14.69,948.35,-1.99,0.34,9.22,-12.17,2.09,22.86
63,0,0,0,0,0,2020,8,2,0,1,5,0,0,0,3.63,3.31,4.98,4.93,22.38,18.46,14.99,17.31,14.71,948.32,-1.99,0.31,9.41,-11.93,1.82,23.77
64,0,0,0,0,0,2020,8,2,0,1,6,0,0,0,3.63,3.32,4.98,4.99,21.18,18.19,15.01,17.37,14.70,948.45,-1.91,0.31,9.33,-11.57,1.84,22.87
65,0,0,0,0,0,2020,8,2,0,1,7,0,0,0,3.63,3.31,4.98,4.98,22.65,18.08,15.01,17.40,14.70,948.37,-1.99,0.27,9.37,-11.98,1.60,23.66
66,0,0,0,0,0,2020,8,2,0,1,8,0,0,0,3.62,3.32,4.98,4.99,21.58,18.34,15.01,17.44,14.73,948.26,-1.95,0.34,9.29,-11.85,2.08,22.22
67,0,0,0,0,0,2020,8,2,0,1,9,0,0,0,3.65,3.31,4.99,4.99,22.89,18.52,15.02,17.48,14.77,948.25,-1.99,0.23,9.41,-11.93,1.37,24.49
68,0,0,0,0,0,2020,8,2,0,1,10,0,0,0,3.62,3.32,4.98,4.99,21.54,18.12,15.03,17.48,14.75,948.13,-1.87,0.38,9.37,-11.30,2.29,23.91
69,0,0,0,0,0,2020,8,2,0,1,11,0,0,0,3.63,3.31,4.98,4.99,23.25,18.43,15.04,17.52,14.74,948.32,-1.95,0.34,9.29,-11.85,2.08,23.61
70,0,0,0,0,0,2020,8,2,0,1,12,0,0,0,3.57,3.32,4.98,4.99,21.89,17.99,15.05,17.54,14.76,948.28,-1.99,0.27,9.33,-12.03,1.61,23.86
71,0,0,0,0,0,2020,8,2,0,1,13,0,0,0,3.63,3.31,4.99,4.99,23.08,18.57,15.07,17.66,14.73,948.19,-1.99,0.34,9.41,-11.93,2.05,23.52
72,0,0,0,0,0,2020,8,2,0,1,14,0,0,0,3.59,3.32,4.98,4.99,22.19,18.00,15.08,17.66,14.77,948.21,-1.95,0.31,9.29,-11.85,1.85,23.58
73,0,0,0,0,0,2020,8,2,0,1,15,0,0,0,3.62,3.31,4.98,4.99,23.17,18.34,15.07,17.68,14.77,948.15,-1.99,0.19,9.45,-11.89,1.13,23.59
74,0,0,0,0,0,2020,8,2,0,1,16,0,0,0,3.63,3.32,4.98,4.99,21.77,18.18,15.10,17.71,14.79,948.23,-1.91,0.31,9.37,-11.53,1.83,22.72
75,0,0,0,0,0,2020,8,2,0,1,17,0,0,0,3.62,3.31,4.98,4.99,23.24,18.48,15.09,17.80,14.77,948.33,-1.91,0.31,9.45,-11.44,1.82,23.41
76,0,0,0,0,0,2020,8,2,0,1,18,0,0,0,3.62,3.31,4.98,4.99,22.95,18.04,15.10,17.81,14.75,948.23,-1.99,0.34,9.10,-12.32,2.12,23.52
77,0,0,0,0,0,2020,8,2,0,1,19,0,0,0,3.63,3.31,4.98,4.99,23.15,18.99,15.12,17.80,14.77,948.08,-1.95,0.34,9.33,-11.80,2.07,23.82
78,0,0,0,0,0,2020,8,2,0,1,20,0,0,0,3.63,3.32,4.98,4.99,23.09,18.32,15.13,17.87,14.78,948.09,-1.95,0.27,9.48,-11.62,1.58,22.94
79,0,0,0,0,0,2020,8,2,0,1,21,0,0,0,3.62,3.31,4.98,4.98,23.38,18.64,15.12,17.92,14.80,948.21,-1.95,0.31,9.37,-11.75,1.83,24.24
80,0,0,0,0,0,2020,8,2,0,1,22,0,0,0,3.63,3.32,4.98,4.96,22.61,18.47,15.15,17.95,14.78,948.33,-1.95,0.31,9.37,-11.75,1.83,22.22
81,0,0,0,0,0,2020,8,2,0,1,23,0,0,0,3.63,3.31,4.98,4.98,23.98,18.34,15.15,17.94,14.82,948.39,-2.10,0.31,9.18,-12.90,1.86,23.63
82,0,0,0,0,0,2020,8,2,0,1,24,0,0,0,3.62,3.32,4.98,4.99,22.76,18.17,15.15,17.98,14.83,948.28,-1.91,0.27,9.26,-11.67,1.62,23.30
83,0,0,0,0,0,2020,8,2,0,1,25,0,0,0,3.63,3.31,4.98,4.98,23.50,18.63,15.17,18.06,14.88,948.27,-1.99,0.23,9.37,-11.98,1.37,24.21
84,0,0,0,0,0,2020,8,2,0,1,26,0,0,0,3.62,3.32,4.98,4.99,22.89,18.28,15.20,18.09,14.85,948.26,-1.99,0.23,9.33,-12.03,1.38,23.21
85,0,0,0,0,0,2020,8,2,0,1,27,0,0,0,3.63,3.31,4.98,4.98,23.92,18.22,15.18,18.10,14.80,948.21,-1.99,0.27,9.22,-12.17,1.63,24.89
86,0,0,0,0,0,2020,8,2,0,1,28,0,0,0,3.62,3.32,4.98,4.99,23.10,18.48,15.21,18.12,14.86,948.15,-1.99,0.34,9.29,-12.07,2.07,24.18
87,0,0,0,0,0,2020,8,2,0,1,29,0,0,0,3.63,3.31,4.99,4.98,23.96,18.42,15.21,18.19,14.87,948.40,-1.95,0.34,9.33,-11.80,2.07,23.64
88,0,0,0,0,0,2020,8,2,0,1,30,0,0,0,3.62,3.32,4.98,4.99,23.37,18.54,15.21,18.18,14.87,948.17,-1.99,0.27,9.29,-12.07,1.61,23.75
89,0,0,0,0,0,2020,8,2,0,1,31,0,0,0,3.62,3.31,4.98,4.99,23.93,18.10,15.22,18.21,14.88,948.27,-1.99,0.34,9.37,-11.98,2.06,22.61
90,0,0,0,0,0,2020,8,2,0,1,32,0,0,0,3.62,3.32,4.98,4.99,22.59,18.33,15.24,18.20,14.84,948.17,-1.95,0.34,9.33,-11.80,2.07,23.33
91,0,0,0,0,0,2020,8,2,0,1,33,0,0,0,3.62,3.31,4.98,4.99,24.12,18.72,15.22,18.26,14.88,948.23,-1.99,0.27,9.26,-12.12,1.62,22.52
92,0,0,0,0,0,2020,8,2,0,1,34,0,0,0,3.63,3.32,4.98,4.99,23.87,18.61,15.25,18.34,14.86,948.24,-1.95,0.27,9.33,-11.80,1.61,23.99
93,0,0,0,0,0,2020,8,2,0,1,35,0,0,0,3.55,3.31,4.98,4.99,24.78,18.73,15.27,18.32,14.92,948.14,-1.99,0.23,9.41,-11.93,1.37,23.32
94,0,0,0,0,0,2020,8,8,13,42,32,0,0,0,3.62,3.31,4.98,4.99,23.53,18.26,15.28,18.34,14.92,948.37,-1.99,0.27,9.45,-11.88,1.59,24.07
95,0,0,0,0,0,2020,8,8,13,42,33,0,0,0,3.63,3.31,4.98,4.98,24.63,18.44,15.28,18.34,14.92,948.36,-1.99,0.19,9.22,-12.17,1.16,23.66
96,0,0,0,0,0,2020,8,8,13,42,34,0,0,0,3.62,3.32,4.98,4.99,23.52,18.59,15.28,18.38,14.90,948.12,-1.91,0.34,9.06,-11.90,2.13,23.37
97,0,0,0,0,0,2020,8,8,13,42,35,0,0,0,3.62,3.30,4.99,4.98,24.29,19.19,15.27,18.40,14.91,948.37,-1.95,0.38,9.41,-11.70,2.28,23.52
98,0,0,0,0,0,2020,8,8,13,42,36,0,0,0,3.62,3.32,4.98,4.99,24.01,18.48,15.28,18.47,14.86,948.23,-1.95,0.34,9.37,-11.75,2.06,24.31
99,0,0,0,0,0,2020,8,8,13,42,37,0,0,0,3.63,3.31,4.98,4.96,24.30,18.49,15.31,18.46,14.93,948.09,-1.99,0.31,9.37,-11.98,1.83,21.15
100,0,0,0,0,0,2020,8,8,13,42,38,0,0,0,3.62,3.32,4.98,4.99,23.94,18.32,15.31,18.46,14.88,948.13,-1.91,0.31,9.37,-11.53,1.83,24.01
101,0,0,0,0,0,2020,8,8,13,42,39,0,0,0,3.62,3.31,4.98,4.98,24.97,19.05,15.31,18.52,14.90,948.34,-1.87,0.34,9.37,-11.30,2.06,23.34
102,0,0,0,0,0,2020,8,8,13,42,40,0,0,0,3.62,3.31,4.98,4.99,24.01,18.23,15.33,18.56,14.88,948.38,-2.03,0.23,9.37,-12.20,1.37,24.04
103,0,0,0,0,0,2020,8,8,13,42,41,0,0,0,3.62,3.31,4.98,4.99,24.44,18.67,15.33,18.55,14.94,948.05,-1.99,0.34,9.29,-12.07,2.07,23.11
104,0,0,0,0,0,2020,8,8,13,42,42,0,0,0,3.62,3.32,4.98,4.99,24.67,19.04,15.34,18.59,14.93,948.28,-2.03,0.27,9.37,-12.20,1.60,24.66
105,0,0,0,0,0,2020,8,8,13,42,43,0,0,0,3.62,3.31,4.98,4.99,24.91,18.54,15.36,18.59,14.94,948.29,-2.03,0.34,9.33,-12.25,2.06,23.29
106,0,0,0,0,0,2023,10,14,13,42,44,0,0,0,3.62,3.32,4.98,4.99,24.36,18.76,15.35,18.67,14.95,948.24,-1.95,0.31,9.33,-11.80,1.84,24.19
107,0,0,0,0,0,2023,10,14,13,42,45,0,0,0,3.62,3.31,4.98,4.99,24.60,18.56,15.36,18.69,14.95,948.12,-1.99,0.38,9.45,-11.88,2.27,24.22
108,0,0,0,0,0,2023,10,14,13,42,46,0,0,0,3.55,3.32,4.98,4.99,24.12,18.34,15.39,18.68,14.95,948.15,-1.99,0.27,9.33,-12.03,1.61,22.59
109,0,0,0,0,0,2023,10,14,13,42,47,0,0,0,3.62,3.31,4.98,4.99,24.75,18.23,15.39,18.75,14.98,948.31,-1.95,0.34,9.33,-11.80,2.07,23.79
110,0,0,0,0,0,2023,10,14,13,42,48,0,0,0,3.62,3.32,4.98,4.99,24.15,18.65,15.40,18.77,14.98,948.46,-1.95,0.19,9.45,-11.66,1.14,23.72
111,0,0,0,0,0,2023,10,14,13,42,49,0,0,0,3.62,3.31,4.98,4.99,24.58,18.55,15.41,18.81,14.98,948.44,-1.99,0.23,9.37,-11.98,1.37,23.36
112,0,0,0,0,0,2023,10,14,13,42,50,0,0,0,3.62,3.32,4.98,4.99,25.06,18.69,15.44,18.83,15.01,948.21,-1.95,0.23,9.29,-11.85,1.38,23.31
113,0,0,0,0,0,2023,10,14,13,42,51,0,0,0,3.62,3.31,4.98,4.98,25.39,18.62,15.44,18.84,15.02,948.27,-1.95,0.31,9.37,-11.75,1.83,23.45
114,0,0,0,0,0,2023,10,14,13,42,52,0,0,0,3.62,3.31,4.98,4.99,24.90,18.77,15.45,18.88,14.98,948.35,-1.99,0.27,9.37,-11.98,1.60,23.42
115,0,0,0,0,0,2023,10,14,13,42,53,0,0,0,3.61,3.31,4.98,4.98,25.60,18.33,15.47,18.91,15.00,948.29,-1.95,0.23,9.33,-11.80,1.38,23.84
116,0,0,0,0,0,2023,10,14,13,42,54,0,0,0,3.62,3.32,4.98,4.99,24.86,18.61,15.48,18.93,15.02,948.23,-1.95,0.31,9.37,-11.75,1.83,23.01
117,0,0,0,0,0,2023,10,14,13,42,55,0,0,0,3.61,3.31,4.98,4.98,24.92,18.42,15.49,18.97,15.02,948.79,-2.14,0.38,9.56,-12.62,2.24,22.85
118,0,0,0,0,0,2023,10,14,13,42,56,0,0,0,3.62,3.32,4.98,4.99,25.23,18.78,15.50,18.97,15.05,948.16,-2.03,0.23,9.29,-12.30,1.38,24.57
119,0,0,0,0,0,2023,10,14,13,42,57,0,0,0,3.62,3.31,4.98,4.98,25.40,18.71,15.50,19.03,15.03,948.29,-2.03,0.15,8.95,-12.76,0.96,24.36
120,0,0,0,0,0,2023,10,14,13,42,58,0,0,0,3.62,3.32,4.98,4.99,24.85,18.54,15.51,19.08,15.02,948.30,-1.91,0.31,9.33,-11.57,1.84,24.37
121,0,0,0,0,0,2023,10,14,13,42,59,0,0,0,3.61,3.31,4.98,4.98,26.05,19.26,15.53,19.05,15.09,948.20,-1.99,0.23,9.45,-11.89,1.36,24.73
122,0,0,0,0,0,2023,10,14,13,43,0,0,0,0,3.63,3.32,4.98,4.99,24.98,18.57,15.52,19.12,15.05,948.20,-1.99,0.31,9.33,-12.02,1.84,23.57
123,0,0,0,0,0,2023,10,14,13,43,1,0,0,0,3.63,3.31,4.98,4.99,24.92,18.69,15.54,19.16,15.06,948.19,-1.99,0.31,9.29,-12.07,1.84,24.05
124,0,0,0,0,0,2023,10,14,13,43,2,0,0,0,3.62,3.32,4.98,4.99,25.10,18.73,15.54,19.15,15.09,948.26,-1.99,0.27,9.37,-11.98,1.60,24.52
125,0,0,0,0,0,2023,10,14,13,43,3,0,0,0,3.62,3.31,4.98,4.99,24.92,19.19,15.57,19.20,15.10,948.17,-1.91,0.31,9.37,-11.53,1.83,23.23
126,0,0,0,0,0,2023,10,14,13,43,4,0,0,0,3.62,3.31,4.98,4.99,25.41,18.57,15.57,19.22,15.10,948.29,-1.95,0.31,9.33,-11.80,1.84,23.34
127,0,0,0,0,0,2023,10,14,13,43,5,0,0,0,3.62,3.31,4.98,4.99,25.13,18.81,15.59,19.23,15.10,948.19,-1.99,0.27,9.37,-11.98,1.60,24.47
128,0,0,0,0,0,2023,10,14,13,43,6,0,0,0,3.62,3.32,4.98,4.99,25.64,18.76,15.58,19.29,15.09,948.19,-1.95,0.27,9.41,-11.71,1.60,23.28
129,0,0,0,0,0,2023,10,14,13,43,7,0,0,0,3.55,3.31,4.98,4.99,25.46,19.21,15.61,19.29,15.11,948.24,-2.03,0.23,9.33,-12.25,1.38,23.98
130,0,0,0,0,0,2023,10,14,13,43,8,0,0,0,3.62,3.32,4.98,4.99,25.72,18.60,15.61,19.32,15.10,948.26,-1.99,0.27,9.10,-12.32,1.65,21.06
131,0,0,0,0,0,2023,10,14,13,43,9,0,0,0,3.62,3.31,4.98,4.99,25.86,18.93,15.64,19.33,15.10,948.36,-1.95,0.23,9.37,-11.76,1.37,23.80
132,0,0,0,0,0,2023,10,14,13,43,10,0,0,0,3.62,3.31,4.98,4.99,25.55,18.59,15.64,19.38,15.13,948.26,-1.95,0.31,9.29,-11.85,1.85,24.04
133,0,0,0,0,0,2023,10,14,13,43,11,0,0,0,3.63,3.31,4.98,4.99,25.82,18.16,15.65,19.44,15.13,948.21,-1.95,0.34,9.41,-11.70,2.05,24.76
134,0,0,0,0,0,2023,10,14,13,43,12,0,0,0,3.62,3.32,4.98,4.99,25.63,18.64,15.65,19.43,15.15,948.18,-1.95,0.23,8.99,-12.24,1.43,24.53
135,0,0,0,0,0,2023,10,14,13,43,13,0,0,0,3.62,3.31,4.98,4.98,26.31,18.46,15.65,19.45,15.19,948.36,-1.91,0.31,9.37,-11.53,1.83,24.25
136,0,0,0,0,0,2023,10,14,13,43,14,0,0,0,3.62,3.32,4.98,4.99,26.03,18.58,15.67,19.47,15.19,948.11,-1.99,0.34,9.37,-11.98,2.06,23.55
137,0,0,0,0,0,2023,10,14,13,43,15,0,0,0,3.63,3.31,4.98,4.98,26.81,18.85,15.68,19.54,15.16,948.22,-1.95,0.27,9.37,-11.75,1.60,23.59
138,0,0,0,0,0,2023,10,14,13,43,16,0,0,0,3.62,3.32,4.98,4.99,26.07,18.78,15.68,19.49,15.16,948.28,-1.91,0.34,9.33,-11.57,2.07,23.55
139,0,0,0,0,0,2023,10,14,13,43,17,0,0,0,3.63,3.31,4.98,4.94,26.24,19.07,15.70,19.61,15.16,948.35,-1.95,0.31,9.37,-11.75,1.83,24.10
140,0,0,0,0,0,2023,10,14,13,43,18,0,0,0,3.62,3.32,4.98,4.99,26.28,18.81,15.72,19.58,15.21,948.26,-1.95,0.23,9.18,-11.99,1.40,24.52
141,0,0,0,0,0,2023,10,14,13,43,19,0,0,0,3.62,3.31,4.98,4.98,26.35,18.75,15.71,19.64,15.20,948.21,-1.99,0.23,9.56,-11.75,1.35,24.23
142,0,0,0,0,0,2023,10,14,13,43,20,0,0,0,3.61,3.31,4.98,4.99,26.31,18.98,15.73,19.61,15.19,948.32,-1.95,0.34,9.29,-11.85,2.08,23.76
143,0,0,0,0,0,2023,10,14,13,43,21,0,0,0,3.63,3.31,4.98,4.95,26.93,18.88,15.73,19.64,15.23,948.48,-1.99,0.31,9.26,-12.12,1.85,25.12
144,0,0,0,0,0,2023,10,14,13,43,22,0,0,0,3.62,3.32,4.98,4.99,26.54,18.97,15.75,19.66,15.24,948.20,-1.95,0.31,9.26,-11.89,1.85,22.02
145,0,0,0,0,0,2023,10,14,13,43,23,0,0,0,3.62,3.31,4.98,4.99,25.77,19.00,15.76,19.70,15.27,948.13,-2.03,0.34,9.41,-12.15,2.05,24.16
146,0,0,0,0,0,2023,10,14,13,43,24,0,0,0,3.62,3.32,4.98,4.99,26.56,18.75,15.76,19.71,15.22,948.05,-1.91,0.31,9.29,-11.62,1.85,23.44
147,0,0,0,0,0,2023,10,14,13,43,25,0,0,0,3.63,3.31,4.98,4.99,25.55,19.06,15.77,19.78,15.22,948.15,-1.95,0.31,9.48,-11.61,1.81,25.08
148,0,0,0,0,0,2023,10,14,13,43,26,0,0,0,3.57,3.32,4.98,4.99,26.32,18.85,15.79,19.80,15.25,948.08,-1.99,0.27,9.29,-12.07,1.61,23.93
149,0,0,0,0,0,2023,10,14,13,43,27,0,0,0,3.63,3.31,4.98,4.99,26.43,19.41,15.81,19.82,15.26,948.34,-1.99,0.42,9.45,-11.88,2.50,23.25
150,0,0,0,0,0,2023,10,14,13,43,28,0,0,0,3.62,3.32,4.98,4.99,26.18,19.03,15.83,19.80,15.27,948.19,-1.99,0.27,9.26,-12.12,1.62,24.75
151,0,0,0,0,0,2023,10,14,13,43,29,0,0,0,3.62,3.31,4.98,4.99,25.83,19.02,15.82,19.82,15.29,948.13,-1.95,0.31,9.37,-11.75,1.83,24.47
152,0,0,423532551,-631429613,9661462,2023,10,14,13,43,30,0,0,0,3.62,3.32,4.98,4.99,26.90,19.02,15.83,19.84,15.28,948.18,-1.99,0.31,9.37,-11.98,1.83,25.16
153,0,0,423588456,-631384968,9663538,2023,10,14,13,43,31,0,0,0,3.62,3.31,4.98,4.99,26.36,19.16,15.84,19.88,15.27,948.06,-2.03,0.23,9.33,-12.25,1.38,24.74
154,0,0,423644354,-631340308,9665614,2023,10,14,13,43,32,0,0,0,3.62,3.32,4.98,4.99,26.41,18.74,15.85,19.86,15.28,948.03,-1.99,0.27,9.33,-12.03,1.61,24.41
155,0,0,423700246,-631295633,9667689,2023,10,14,13,43,33,0,0,0,3.62,3.31,4.98,4.98,26.30,19.45,15.86,19.91,15.29,948.00,-1.95,0.27,9.10,-12.09,1.65,25.15
156,0,0,423756130,-631250943,9669765,2023,10,14,13,43,34,0,0,0,3.62,3.31,4.98,4.96,26.84,18.66,15.88,19.93,15.34,948.24,-1.95,0.31,9.45,-11.66,1.82,24.73
157,0,0,422146763,-635091574,9610013,2023,10,14,13,43,35,0,0,0,3.62,3.31,4.98,4.98,27.50,18.85,15.90,19.98,15.37,948.05,-1.99,0.27,9.64,-11.65,1.56,24.22
158,0,0,422202787,-635047234,9612093,2023,10,14,13,43,36,0,0,0,3.62,3.32,4.98,4.99,26.46,18.82,15.91,19.98,15.33,948.07,-1.95,0.31,9.41,-11.71,1.82,24.20
159,0,0,422258804,-635002879,9614172,2023,10,14,13,43,37,0,0,0,3.63,3.31,4.98,4.98,27.34,18.59,15.91,20.01,15.38,948.29,-1.95,0.34,9.37,-11.75,2.06,23.96
160,0,0,422314815,-634958509,9616251,2023,10,14,13,43,38,0,0,0,3.62,3.32,4.98,4.99,26.36,18.94,15.91,20.02,15.35,948.14,-2.07,0.27,9.33,-12.47,1.60,24.28
161,0,0,422370820,-634914124,9618330,2023,10,14,13,43,39,0,0,0,3.60,3.31,4.98,4.98,27.15,19.41,15.92,20.09,15.37,948.05,-1.91,0.31,9.37,-11.53,1.83,25.11
162,0,0,424091300,-630982480,9682213,2023,10,14,13,43,40,0,0,0,3.62,3.31,4.98,4.99,25.68,19.05,15.95,20.09,15.40,948.17,-1.95,0.27,9.33,-11.80,1.61,24.11
163,0,0,424147139,-630937682,9684287,2023,10,14,13,43,41,0,0,0,3.62,3.31,4.98,4.98,27.86,18.76,15.96,20.14,15.38,948.11,-1.99,0.38,9.41,-11.93,2.28,23.22
164,0,0,434155586,-606490723,10056596,2023,10,14,13,43,42,0,0,0,3.62,3.31,4.98,4.99,26.90,18.86,15.97,20.13,15.40,948.71,-1.95,0.27,8.99,-12.24,1.67,22.71
165,0,0,422776801,-634313565,9633401,2023,10,14,13,43,43,0,0,0,3.58,3.31,4.98,4.98,27.86,19.19,15.96,20.15,15.39,948.23,-1.95,0.23,9.33,-11.80,1.38,24.99
166,0,0,424314614,-630803199,9690508,2023,10,14,13,43,44,0,0,0,3.62,3.31,4.98,4.99,26.64,18.38,16.00,20.20,15.42,948.23,-1.99,0.31,9.33,-12.02,1.84,22.06
167,0,0,424370426,-630758341,9692581,2023,10,14,13,43,45,0,0,0,3.62,3.31,4.98,4.99,26.57,19.09,15.98,20.23,15.44,948.12,-1.99,0.38,9.29,-12.07,2.30,23.45
168,0,0,422944646,-634180012,9639632,2023,10,14,13,43,46,0,0,0,3.62,3.32,4.98,4.99,27.07,18.76,16.00,20.26,15.40,948.44,-1.99,0.27,9.33,-12.03,1.61,24.14
169,0,0,422818618,-634558498,9634953,2023,10,14,13,43,47,0,0,0,3.62,3.31,4.98,4.99,26.86,19.09,16.00,20.30,15.43,948.27,-2.07,0.31,9.48,-12.28,1.81,23.87
170,0,0,423056510,-634090902,9643785,2023,10,14,13,43,48,0,0,0,3.62,3.31,4.98,4.99,27.14,18.68,16.01,20.28,15.45,948.15,-1.95,0.27,9.33,-11.80,1.61,23.90
171,0,0,423112432,-634046323,9645862,2023,10,14,13,43,49,0,0,0,3.63,3.31,4.98,4.99,26.79,19.06,16.02,20.28,15.41,948.17,-1.95,0.31,9.29,-11.85,1.85,24.52
172,0,0,422986433,-634424888,9641184,2023,10,14,13,43,50,0,0,0,3.61,3.32,4.98,4.99,27.26,19.04,16.03,20.39,15.46,948.18,-1.91,0.27,9.26,-11.67,1.62,25.29
173,0,0,423042359,-634380321,9643260,2023,10,14,13,43,51,0,0,0,3.62,3.31,4.98,4.99,27.14,19.51,16.04,20.39,15.44,948.14,-1.99,0.31,9.26,-12.12,1.85,23.73
174,0,0,423098277,-634335739,9645336,2023,10,14,13,43,52,0,0,0,3.62,3.32,4.98,4.99,27.32,19.20,16.06,20.41,15.48,948.09,-2.03,0.31,9.26,-12.35,1.85,23.63
175,0,0,424816680,-630398925,9709158,2023,10,14,13,43,53,0,0,0,3.62,3.31,4.98,4.99,26.78,19.24,16.06,20.42,15.48,947.96,-1.95,0.31,9.06,-12.14,1.89,23.25
176,0,0,325019877,-762950195,6137460,2023,10,14,13,43,54,0,0,0,3.62,3.32,4.98,4.99,27.51,19.04,16.09,20.42,15.51,948.13,-1.95,0.31,9.37,-11.75,1.83,23.61
177,0,0,321474433,-766795919,6018306,2023,10,14,13,43,55,0,0,0,3.63,3.31,4.98,4.98,27.55,19.01,16.09,20.43,15.48,948.25,-1.99,0.31,9.33,-12.02,1.84,24.24
178,0,0,321496545,-766774036,6019046,2023,10,14,13,43,56,0,0,0,3.62,3.32,4.98,4.99,27.49,19.13,16.10,20.46,15.47,948.18,-1.91,0.34,9.29,-11.62,2.08,23.20
179,0,0,318753502,-770924830,5927348,2023,10,14,13,43,57,0,0,0,3.63,3.31,4.98,4.96,28.24,18.96,16.09,20.49,15.55,948.12,-2.03,0.31,9.29,-12.30,1.84,21.90
180,0,0,325295523,-763250001,6146753,2023,10,14,13,43,58,0,0,0,3.62,3.32,4.98,4.99,27.49,19.04,16.11,20.49,15.51,948.21,-1.91,0.31,9.33,-11.57,1.84,24.36
181,0,0,322113400,-766764097,6039727,2023,10,14,13,43,59,0,0,0,3.62,3.31,4.99,4.98,27.57,18.82,16.13,20.55,15.55,948.27,-2.03,0.27,9.26,-12.35,1.62,24.10
182,0,0,322136244,-766741975,6040494,2023,10,14,13,44,0,0,0,0,3.62,3.32,4.98,4.99,27.41,19.02,16.14,20.53,15.53,948.19,-2.03,0.31,9.29,-12.30,1.84,23.28
183,0,0,325183610,-762793072,6142980,2023,10,14,13,44,1,0,0,0,3.62,3.31,4.99,4.98,27.68,19.04,16.15,20.53,15.53,948.23,-2.03,0.31,9.48,-12.06,1.81,23.94
184,0,0,325206995,-762770593,6143768,2023,10,14,13,44,2,0,0,0,3.62,3.32,4.98,4.99,27.35,19.18,16.15,20.55,15.54,948.22,-1.95,0.23,9.29,-11.85,1.38,24.84
185,0,0,325230377,-762748107,6144557,2023,10,14,13,44,3,0,0,0,3.61,3.31,4.98,4.98,28.20,19.83,16.16,20.62,15.56,948.12,-1.99,0.27,9.33,-12.03,1.61,25.56
186,0,0,325253759,-762725612,6145345,2023,10,14,13,44,4,0,0,0,3.59,3.32,4.98,4.99,27.61,19.16,16.19,20.61,15.58,948.17,-1.95,0.42,9.64,-11.43,2.45,23.76
187,0,0,325277138,-762703109,6146133,2023,10,14,13,44,5,0,0,0,3.62,3.31,4.98,4.99,28.63,19.33,16.20,20.62,15.60,948.22,-1.99,0.34,9.37,-11.98,2.06,24.23
188,0,0,321717578,-766554776,6026454,2023,10,14,13,44,6,0,0,0,3.62,3.32,4.98,4.99,27.17,19.01,16.22,20.66,15.55,948.10,-1.99,0.27,9.26,-12.12,1.62,23.70
189,0,0,318691386,-770434434,5925276,2023,10,14,13,44,7,0,0,0,3.62,3.31,4.98,4.99,27.68,19.68,16.22,20.68,15.62,948.16,-1.91,0.34,9.37,-11.53,2.06,25.05
190,0,0,325347268,-762635553,6148499,2023,10,14,13,44,8,0,0,0,3.62,3.32,4.98,4.99,28.11,18.99,16.21,20.67,15.63,947.93,-1.99,0.27,9.37,-11.98,1.60,24.02
191,0,0,325370641,-762613018,6149287,2023,10,14,13,44,9,0,0,0,3.62,3.31,4.98,4.99,27.37,19.57,16.26,20.77,15.59,948.28,-2.03,0.34,9.37,-12.20,2.06,23.54
192,0,0,325394013,-762590475,6150075,2023,10,14,13,44,10,0,0,0,3.62,3.32,4.98,4.99,27.81,19.29,16.25,20.77,15.62,948.24,-2.07,0.23,9.52,-12.23,1.35,24.14
193,0,0,325417384,-762567924,6150863,2023,10,14,13,44,11,0,0,0,3.62,3.31,4.98,4.99,27.58,19.38,16.25,20.76,15.61,948.17,-1.99,0.27,9.37,-11.98,1.60,25.11
194,0,0,325440752,-762545364,6151652,2023,10,14,13,44,12,0,0,0,3.62,3.31,4.98,4.99,27.75,19.29,16.27,20.78,15.63,948.30,-1.99,0.27,9.33,-12.03,1.61,23.74
195,0,0,325464120,-762522797,6152440,2023,10,14,13,44,13,0,0,0,3.62,3.31,4.98,4.99,27.37,20.05,16.27,20.78,15.63,948.36,-1.95,0.34,9.33,-11.80,2.07,24.19
196,0,0,325487485,-762500222,6153228,2023,10,14,13,44,14,0,0,0,3.61,3.31,4.98,4.98,27.70,19.30,16.28,20.82,15.68,948.05,-2.07,0.27,9.45,-12.33,1.59,23.26
197,0,0,325510850,-762477638,6154016,2023,10,14,13,44,15,0,0,0,3.61,3.30,4.98,4.99,28.00,19.72,16.29,20.85,15.67,948.19,-2.03,0.23,9.33,-12.25,1.38,23.84
198,0,0,325534212,-762455047,6154804,2023,10,14,13,44,16,0,0,0,3.62,3.32,4.98,4.99,28.36,18.98,16.30,20.85,15.66,948.00,-2.03,0.31,9.33,-12.25,1.84,23.43
199,0,0,325557573,-762432447,6155592,2023,10,14,13,44,17,0,0,0,3.56,3.31,4.98,4.98,28.59,19.77,16.32,20.91,15.68,948.11,-1.99,0.27,9.41,-11.93,1.59,23.48
200,0,0,325580933,-762409839,6156381,2023,10,14,13,44,18,0,0,0,3.62,3.32,4.98,4.99,27.17,19.77,16.33,20.93,15.65,948.26,-1.91,0.27,9.33,-11.58,1.61,24.08
201,0,0,325604291,-762387223,6157169,2023,10,14,13,44,19,0,0,0,3.62,3.30,4.98,4.98,28.28,19.54,16.35,20.93,15.70,948.13,-2.03,0.31,9.37,-12.20,1.83,23.24
202,0,0,325627647,-762364599,6157957,2023,10,14,13,44,20,0,0,0,3.61,3.31,4.98,4.99,28.22,19.25,16.33,20.92,15.71,948.17,-1.99,0.31,9.26,-12.12,1.85,24.82
203,0,0,325651002,-762341967,6158745,2023,10,14,13,44,21,0,0,0,3.54,3.31,4.98,4.98,28.36,19.27,16.33,20.95,15.68,948.24,-1.84,0.27,9.41,-11.04,1.60,24.35
204,0,0,325674355,-762319327,6159533,2023,10,14,13,44,22,0,0,0,3.61,3.32,4.98,4.99,28.31,19.06,16.35,20.98,15.71,948.34,-2.03,0.34,9.10,-12.55,2.11,23.65
205,0,0,322092983,-766180224,6039042,2023,10,14,13,44,23,0,0,0,3.57,3.30,4.98,4.98,28.28,19.90,16.37,20.98,15.73,948.23,-1.95,0.27,9.29,-11.85,1.61,23.93
206,0,0,322115052,-766158120,6039783,2023,10,14,13,44,24,0,0,0,3.62,3.31,4.98,4.99,27.20,19.13,16.37,21.00,15.71,948.14,-1.99,0.31,9.33,-12.02,1.84,24.28
207,0,0,328692539,-758391142,6261629,2023,10,14,13,44,25,0,0,0,3.62,3.31,4.98,4.98,28.01,19.52,16.38,21.02,15.71,948.30,-2.03,0.38,8.99,-12.70,2.38,23.70
208,0,0,325767753,-762228685,6162685,2023,10,14,13,44,26,0,0,0,3.62,3.31,4.98,4.99,28.15,19.11,16.38,21.08,15.72,948.05,-1.99,0.31,9.37,-11.98,1.83,25.01
209,0,0,325791098,-762206004,6163472,2023,10,14,13,44,27,0,0,0,3.57,3.31,4.98,4.99,27.97,19.52,16.39,21.09,15.73,948.09,-1.99,0.27,9.26,-12.12,1.62,24.51
210,0,0,325814442,-762183315,6164260,2023,10,14,13,44,28,0,0,0,3.61,3.32,4.98,4.99,28.42,19.21,16.41,21.12,15.72,948.05,-1.99,0.31,9.37,-11.98,1.83,23.03
211,0,0,326036908,-762545822,6171770,2023,10,14,13,44,29,0,0,0,3.62,3.31,4.98,4.99,28.34,19.81,16.42,21.16,15.77,948.20,-1.99,0.27,9.37,-11.98,1.60,24.94
212,0,0,328811888,-758275976,6265676,2023,10,14,13,44,30,0,0,0,3.62,3.32,4.98,4.99,28.31,19.18,16.44,21.14,15.79,948.23,-1.95,0.42,9.10,-12.08,2.59,24.10
213,0,0,328835753,-758252918,6266486,2023,10,14,13,44,31,0,0,0,3.61,3.31,4.98,4.95,27.86,19.57,16.45,21.16,15.78,948.10,-1.95,0.31,9.22,-11.94,1.86,24.78
214,0,0,328859616,-758229851,6267295,2023,10,14,13,44,32,0,0,0,3.62,3.32,4.98,4.99,27.93,19.06,16.45,21.18,15.78,948.23,-1.95,0.27,9.33,-11.80,1.61,24.29
215,0,0,329040302,-758643662,6273425,2023,10,14,13,44,33,0,0,0,3.62,3.31,4.98,4.99,28.26,19.22,16.47,21.19,15.80,948.15,-1.99,0.31,9.37,-11.98,1.83,24.53
216,0,0,325954473,-762047010,6168987,2023,10,14,13,44,34,0,0,0,3.61,3.31,4.98,4.99,28.61,18.78,16.46,21.23,15.78,948.13,-1.99,0.34,9.37,-11.98,2.06,23.47
217,0,0,322609642,-766236813,6056380,2023,10,14,13,44,35,0,0,0,3.62,3.31,4.98,4.99,27.74,19.66,16.46,21.23,15.82,948.19,-1.95,0.19,9.22,-11.95,1.16,26.07
218,0,0,326001137,-762001510,6170563,2023,10,14,13,44,36,0,0,0,3.62,3.31,4.98,4.99,27.96,19.19,16.48,21.23,15.79,948.28,-2.10,0.38,9.29,-12.74,2.30,24.42
219,0,0,322401805,-765870050,6049404,2023,10,14,13,44,37,0,0,0,3.62,3.30,4.98,4.99,28.08,20.05,16.46,21.29,15.81,948.27,-1.95,0.23,9.26,-11.90,1.39,24.44
220,0,0,322423852,-765847835,6050144,2023,10,14,13,44,38,0,0,0,3.61,3.32,4.98,4.99,28.71,19.25,16.45,21.25,15.78,948.10,-1.95,0.34,9.33,-11.80,2.07,24.85
221,0,0,322445897,-765825613,6050884,2023,10,14,13,44,39,0,0,0,3.61,3.31,4.98,4.98,28.74,19.47,16.47,21.30,15.81,948.17,-1.95,0.34,9.75,-11.30,1.98,24.62
222,0,0,326094447,-761910412,6173713,2023,10,14,13,44,40,0,0,0,3.61,3.31,4.98,4.99,28.09,19.16,16.47,21.28,15.81,947.98,-1.99,0.34,9.33,-12.02,2.07,24.12
223,0,0,326117771,-761887617,6174501,2023,10,14,13,44,41,0,0,0,3.61,3.31,4.98,4.98,29.26,19.59,16.49,21.34,15.81,948.09,-1.99,0.27,9.14,-12.27,1.64,22.29
224,0,0,326141093,-761864814,6175288,2023,10,14,13,44,42,0,0,0,3.61,3.32,4.98,4.99,28.24,19.19,16.49,21.37,15.83,948.11,-1.95,0.27,9.45,-11.66,1.59,23.27
225,0,0,325513755,-761895609,6154114,2023,10,14,13,44,43,0,0,0,3.62,3.31,4.98,4.98,28.79,19.69,16.51,21.36,15.85,948.04,-2.03,0.23,9.33,-12.25,1.38,23.34
226,0,0,325536334,-761873006,6154876,2023,10,14,13,44,44,0,0,0,3.55,3.32,4.98,4.99,28.63,19.26,16.52,21.37,15.84,948.00,-1.95,0.31,9.37,-11.75,1.83,24.28
227,0,0,322578138,-765692108,6055322,2023,10,14,13,44,45,0,0,0,3.62,3.31,4.98,4.98,28.42,19.65,16.54,21.40,15.86,948.10,-2.03,0.27,9.29,-12.30,1.61,23.93
228,0,0,322600172,-765669830,6056062,2023,10,14,13,44,46,0,0,0,3.62,3.31,4.98,4.99,28.27,19.03,16.55,21.45,15.89,948.12,-1.99,0.31,9.41,-11.93,1.82,24.67
229,0,0,322622205,-765647543,6056802,2023,10,14,13,44,47,0,0,0,3.63,3.31,4.98,4.98,28.69,19.76,16.58,21.43,15.92,948.01,-1.91,0.31,9.29,-11.62,1.85,23.82
230,0,0,325626634,-761782516,6157923,2023,10,14,13,44,48,0,0,0,3.62,3.32,4.98,4.99,28.39,19.29,16.57,21.45,15.91,948.31,-1.95,0.27,9.33,-11.80,1.61,23.57
231,0,0,325649205,-761759873,6158684,2023,10,14,13,44,49,0,0,0,3.61,3.31,4.98,4.99,28.06,19.78,16.56,21.52,15.92,947.92,-2.03,0.31,9.26,-12.35,1.85,24.44
232,0,0,325671775,-761737222,6159446,2023,10,14,13,44,50,0,0,0,3.62,3.31,4.98,4.99,28.49,19.19,16.59,21.47,15.93,948.07,-1.99,0.31,9.29,-12.07,1.84,23.99
233,0,0,322710322,-765558317,6059760,2023,10,14,13,44,51,0,0,0,3.61,3.31,4.98,4.99,28.22,20.03,16.60,21.56,15.91,948.04,-1.99,0.27,9.33,-12.03,1.61,24.41
234,0,0,326374227,-761636333,6183163,2023,10,14,13,44,52,0,0,0,3.63,3.32,4.98,4.99,28.78,19.43,16.61,21.58,15.95,948.23,-2.07,0.38,9.29,-12.52,2.30,23.19
235,0,0,326397532,-761613440,6183950,2023,10,14,13,44,53,0,0,0,3.62,3.31,4.98,4.99,28.56,20.01,16.64,21.52,15.92,949.22,-1.99,0.38,9.03,-12.42,2.37,23.58
236,0,0,322776393,-765491313,6061979,2023,10,14,13,44,54,0,0,0,3.62,3.32,4.98,4.99,28.38,19.31,16.64,21.61,15.92,949.22,-2.03,0.27,9.41,-12.15,1.59,23.74
237,0,0,323061641,-765788386,6071560,2023,10,14,13,44,55,0,0,0,3.62,3.31,4.98,4.99,27.99,19.44,16.66,21.62,15.99,949.21,-1.95,0.27,9.22,-11.94,1.63,25.85
238,0,0,326467436,-761544711,6186312,2023,10,14,13,44,56,0,0,0,3.62,3.31,4.98,4.99,28.50,19.36,16.68,21.59,15.98,948.92,-2.03,0.54,8.95,-12.74,3.34,21.04
239,0,0,333911201,-752786528,6439320,2023,10,14,13,44,57,0,0,0,3.62,3.30,4.98,4.99,28.19,19.53,16.65,21.66,15.98,948.32,-1.99,0.80,9.37,-11.94,4.79,20.47
240,0,0,341902062,-745192995,6714132,2023,10,14,13,44,58,0,0,0,3.62,3.31,4.98,4.99,28.11,19.40,16.66,21.68,16.01,948.25,-1.91,0.84,9.14,-11.77,5.15,19.86
241,0,0,341931179,-745167420,6715139,2023,10,14,13,44,59,0,0,0,3.63,3.31,4.98,4.99,28.59,19.91,16.68,21.70,16.03,948.20,-2.07,0.80,9.29,-12.48,4.82,21.02
242,0,0,337992066,-748933970,6579262,2023,10,14,13,45,0,0,0,0,3.61,3.32,4.98,4.99,28.73,19.32,16.70,21.71,16.03,948.16,-1.99,0.80,9.29,-12.04,4.83,19.74
243,0,0,330480138,-757841835,6322332,2023,10,14,13,45,1,0,0,0,3.57,3.31,4.99,4.98,28.70,19.46,16.72,21.76,16.00,948.21,-1.99,0.80,9.33,-11.99,4.81,21.76
244,0,0,330340075,-757371493,6317569,2023,10,14,13,45,2,0,0,0,3.61,3.32,4.98,4.99,28.78,20.09,16.71,21.75,16.05,948.22,-2.03,0.76,9.41,-12.12,4.54,21.77
245,0,0,330364666,-757347931,6318405,2023,10,14,13,45,3,0,0,0,3.62,3.30,4.98,4.98,28.86,19.74,16.74,21.77,16.09,948.32,-1.91,0.84,9.48,-11.36,4.97,20.00
246,0,0,330389256,-757324360,6319241,2023,10,14,13,45,4,0,0,0,3.62,3.31,4.98,4.99,28.78,19.52,16.76,21.76,16.06,948.19,-1.99,0.80,9.33,-11.99,4.81,21.47
247,0,0,326677066,-761338081,6193396,2023,10,14,13,45,5,0,0,0,3.62,3.31,4.98,4.98,29.44,19.68,16.76,21.80,16.07,948.31,-1.95,0.76,9.14,-12.00,4.68,22.76
248,0,0,326700350,-761315081,6194183,2023,10,14,13,45,6,0,0,0,3.62,3.31,4.98,4.99,28.63,19.30,16.77,21.81,16.05,948.25,-1.95,0.88,9.37,-11.71,5.25,21.26
249,0,0,329693834,-757417285,6295609,2023,10,14,13,45,7,0,0,0,3.62,3.31,4.98,4.98,28.84,20.24,16.78,21.84,16.09,948.28,-1.95,0.80,9.29,-11.81,4.83,20.68
250,0,0,329717641,-757393919,6296418,2023,10,14,13,45,8,0,0,0,3.61,3.32,4.98,4.99,28.66,19.32,16.77,21.84,16.02,948.18,-1.99,0.88,9.37,-11.93,5.25,20.60
251,0,0,326770193,-761246032,6196544,2023,10,14,13,45,9,0,0,0,3.62,3.30,4.98,4.98,29.38,20.27,16.76,21.84,16.07,948.18,-1.99,0.84,9.14,-12.22,5.14,21.14
252,0,0,326793471,-761222999,6197331,2023,10,14,13,45,10,0,0,0,3.62,3.32,4.98,4.99,28.50,19.50,16.79,21.86,16.08,948.26,-2.10,0.80,9.45,-12.51,4.74,20.57
253,0,0,327522837,-761137065,6222002,2023,10,14,13,45,11,0,0,0,3.61,3.30,4.98,4.96,28.72,20.09,16.80,21.90,16.09,948.20,-1.99,0.80,9.29,-12.04,4.83,20.70
254,0,0,330585916,-757135488,6325929,2023,10,14,13,45,12,0,0,0,3.62,3.32,4.98,4.99,28.42,19.22,16.80,21.91,16.10,948.21,-1.99,0.84,9.37,-11.94,5.02,20.97
255,0,0,327789197,-761480396,6231019,2023,10,14,13,45,13,0,0,0,3.62,3.31,4.98,4.99,28.77,19.67,16.79,21.93,16.08,948.21,-1.99,0.84,9.33,-11.98,5.04,20.89
256,0,0,326886567,-761130785,6200478,2023,10,14,13,45,14,0,0,0,3.61,3.31,4.98,4.99,28.95,19.35,16.80,21.93,16.09,948.14,-2.03,0.84,9.26,-12.30,5.07,20.76
257,0,0,326909837,-761107711,6201265,2023,10,14,13,45,15,0,0,0,3.62,3.31,4.98,4.99,28.81,20.23,16.81,21.91,16.11,948.24,-1.95,0.76,9.26,-11.86,4.62,21.36
258,0,0,323867878,-765037392,6098666,2023,10,14,13,45,16,0,0,0,3.62,3.32,4.98,4.99,28.67,19.39,16.81,21.95,16.08,948.27,-1.95,0.80,9.33,-11.76,4.82,20.41
259,0,0,323890602,-765014653,6099431,2023,10,14,13,45,17,0,0,0,3.63,3.31,4.98,4.99,28.92,20.01,16.81,21.96,16.13,948.07,-1.95,0.88,9.41,-11.66,5.23,20.12
260,0,0,323913325,-764991906,6100195,2023,10,14,13,45,18,0,0,0,3.62,3.32,4.98,4.99,28.78,19.20,16.83,22.00,16.14,948.11,-1.99,0.84,9.29,-12.03,5.06,19.52
261,0,0,323936047,-764969151,6100960,2023,10,14,13,45,19,0,0,0,3.62,3.31,4.98,4.99,29.38,19.90,16.85,21.98,16.12,948.08,-1.91,0.84,9.29,-11.58,5.07,20.20
262,0,0,323958767,-764946388,6101724,2023,10,14,13,45,20,0,0,0,3.61,3.31,4.98,4.99,28.70,19.26,16.86,22.05,16.11,948.18,-1.99,0.76,9.33,-11.99,4.58,20.82
263,0,0,327049424,-760969092,6205985,2023,10,14,13,45,21,0,0,0,3.61,3.31,4.98,4.98,29.54,19.60,16.87,22.05,16.13,948.06,-1.99,0.76,9.26,-12.09,4.62,21.09
264,0,0,327072683,-760945960,6206772,2023,10,14,13,45,22,0,0,0,3.61,3.31,4.98,4.99,28.92,19.35,16.90,22.08,16.16,948.20,-1.95,0.76,9.33,-11.77,4.59,21.26
265,0,0,327095940,-760922819,6207558,2023,10,14,13,45,23,0,0,0,3.61,3.31,4.98,4.98,29.37,19.77,16.90,22.12,16.16,948.06,-1.99,0.84,9.22,-12.13,5.10,20.93
266,0,0,324049632,-764855254,6104782,2023,10,14,13,45,24,0,0,0,3.58,3.31,4.98,4.99,28.98,19.42,16.89,22.07,16.20,948.16,-1.99,0.84,9.37,-11.94,5.02,20.27
267,0,0,324072344,-764832451,6105546,2023,10,14,13,45,25,0,0,0,3.62,3.31,4.98,4.98,29.40,20.02,16.89,22.11,16.19,948.01,-1.91,0.76,9.37,-11.50,4.57,21.68
268,0,0,324095055,-764809639,6106311,2023,10,14,13,45,26,0,0,0,3.61,3.31,4.98,4.99,28.89,19.56,16.92,22.11,16.19,948.11,-1.99,0.84,9.37,-11.94,5.02,20.51
269,0,0,327188953,-760830175,6210705,2023,10,14,13,45,27,0,0,0,3.62,3.31,4.98,4.98,28.99,20.32,16.93,22.16,16.22,948.26,-2.03,0.84,9.29,-12.26,5.05,21.66
270,0,0,330978928,-756756118,6339300,2023,10,14,13,45,28,0,0,0,3.61,3.31,4.98,4.99,29.69,19.58,16.95,22.14,16.23,948.08,-2.03,0.84,9.33,-12.21,5.04,20.40
271,0,0,331003477,-756732336,6340135,2023,10,14,13,45,29,0,0,0,3.62,3.31,4.98,4.98,29.46,20.79,16.98,22.21,16.25,948.06,-2.07,0.73,9.29,-12.49,4.36,21.58
272,0,0,327979551,-760693322,6237466,2023,10,14,13,45,30,0,0,0,3.62,3.31,4.98,4.99,28.95,19.29,16.99,22.25,16.25,948.22,-1.99,0.88,9.18,-12.17,5.35,20.93
273,0,0,331052572,-756684744,6341806,2023,10,14,13,45,31,0,0,0,3.62,3.30,4.98,4.99,28.99,20.23,16.97,22.23,16.26,948.12,-2.03,0.88,9.29,-12.25,5.28,20.69
274,0,0,327305184,-760714183,6214637,2023,10,14,13,45,32,0,0,0,3.62,3.31,4.98,4.95,29.19,19.59,17.00,22.23,16.26,948.05,-1.99,0.84,9.41,-11.89,5.00,20.53
275,0,0,327328426,-760690959,6215423,2023,10,14,13,45,33,0,0,0,3.61,3.30,4.98,4.99,29.70,20.30,16.99,22.26,16.25,948.20,-2.03,0.84,9.33,-12.21,5.04,20.80
276,0,0,327351665,-760667728,6216209,2023,10,14,13,45,34,0,0,0,3.63,3.32,4.98,4.99,29.05,19.89,17.03,22.27,16.27,948.17,-1.91,0.80,9.33,-11.54,4.82,21.20
277,0,0,303738864,-790035553,5433402,2023,10,14,13,45,35,0,0,0,3.59,3.31,4.98,4.99,28.91,20.74,17.03,22.29,16.30,948.09,-2.03,0.88,9.29,-12.25,5.28,21.13
278,0,0,314514629,-776927704,5786509,2023,10,14,13,45,36,0,0,0,3.62,3.31,4.98,4.99,29.40,19.53,17.02,22.34,16.30,948.16,-1.99,0.88,9.37,-11.93,5.25,20.30
279,0,0,333305931,-752900359,6418637,2023,10,14,13,45,37,0,0,0,3.61,3.30,4.98,4.99,28.85,19.99,17.03,22.32,16.34,948.07,-1.95,0.76,9.29,-11.81,4.61,20.67
280,0,0,333330196,-752876386,6419466,2023,10,14,13,45,38,0,0,0,3.61,3.31,4.98,4.99,27.79,18.94,17.06,22.27,16.33,948.32,-1.99,0.76,9.06,-12.33,4.71,21.35
281,0,0,336169921,-749110794,6516671,2023,10,14,13,45,39,0,0,0,3.62,3.31,4.98,4.99,29.17,20.10,17.05,22.33,16.36,948.09,-2.10,0.80,9.14,-12.91,4.89,21.61
282,0,0,336194675,-749086452,6517520,2023,10,14,13,45,40,0,0,0,3.62,3.31,4.98,4.99,29.69,19.69,17.07,22.38,16.34,948.23,-2.03,0.80,9.37,-12.16,4.79,21.02
283,0,0,336219427,-749062101,6518369,2023,10,14,13,45,41,0,0,0,3.55,3.30,4.98,4.99,29.78,20.79,17.07,22.39,16.38,948.06,-2.07,0.80,9.33,-12.43,4.80,22.18
284,0,0,339950121,-744909531,6646707,2023,10,14,13,45,42,0,0,0,3.61,3.32,4.98,4.99,29.89,20.26,17.08,22.40,16.41,948.15,-1.99,0.84,9.64,-11.62,4.89,20.66
285,0,0,339976120,-744884546,6647604,2023,10,14,13,45,43,0,0,0,3.62,3.31,4.98,4.98,29.32,20.08,17.10,22.39,16.38,948.07,-1.99,0.88,9.37,-11.93,5.25,21.08
286,0,0,340002117,-744859553,6648501,2023,10,14,13,45,44,0,0,0,3.62,3.32,4.98,4.99,29.23,19.67,17.09,22.41,16.39,948.08,-1.99,0.84,9.41,-11.89,5.00,21.56
287,0,0,340028113,-744834550,6649398,2023,10,14,13,45,45,0,0,0,3.63,3.31,4.98,4.98,29.55,20.57,17.10,22.43,16.38,948.05,-1.99,0.76,9.75,-11.49,4.39,21.94
288,0,0,340054107,-744809539,6650295,2023,10,14,13,45,46,0,0,0,3.61,3.32,4.98,4.99,29.04,19.46,17.11,22.45,16.40,948.06,-2.03,0.76,9.26,-12.31,4.62,18.14
289,0,0,337287909,-748550012,6555054,2023,10,14,13,45,47,0,0,0,3.62,3.31,4.98,4.99,29.47,20.64,17.12,22.45,16.41,948.02,-2.03,0.80,9.22,-12.36,4.86,21.15
290,0,0,334435702,-752364524,6457258,2023,10,14,13,45,48,0,0,0,3.61,3.31,4.98,4.99,29.26,19.44,17.11,22.47,16.44,948.12,-1.95,0.80,9.33,-11.76,4.82,21.95
291,0,0,334460726,-752340208,6458114,2023,10,14,13,45,49,0,0,0,3.62,3.31,4.98,4.96,29.69,20.41,17.12,22.50,16.44,948.17,-2.07,0.80,9.29,-12.48,4.82,21.75
292,0,0,334485749,-752315883,6458971,2023,10,14,13,45,50,0,0,0,3.62,3.31,4.98,4.99,29.05,19.63,17.13,22.52,16.44,947.98,-1.95,0.84,9.37,-11.71,5.02,21.05
293,0,0,331543156,-756206957,6358511,2023,10,14,13,45,51,0,0,0,3.61,3.31,4.98,4.98,29.19,20.32,17.14,22.57,16.45,948.17,-1.95,0.84,9.37,-11.71,5.02,21.78
294,0,0,331567669,-756182977,6359345,2023,10,14,13,45,52,0,0,0,3.62,3.32,4.98,4.99,29.30,19.79,17.17,22.53,16.48,948.29,-2.03,0.92,9.06,-12.54,5.64,20.75
295,0,0,327539963,-759840227,6222582,2023,10,14,13,45,53,0,0,0,3.61,3.30,4.98,4.99,29.40,20.09,17.18,22.55,16.46,948.13,-1.99,0.84,9.37,-11.94,5.02,21.52
296,0,0,331417545,-755681968,6354232,2023,10,14,13,45,54,0,0,0,3.62,3.32,4.98,4.99,29.18,19.60,17.20,22.59,16.44,948.13,-1.95,0.88,9.29,-11.80,5.29,20.56
297,0,0,331641195,-756110988,6361850,2023,10,14,13,45,55,0,0,0,3.61,3.31,4.98,4.97,29.20,20.72,17.20,22.60,16.41,948.21,-2.03,0.84,9.37,-12.16,5.02,21.04
298,0,0,327862536,-760154523,6233503,2023,10,14,13,45,56,0,0,0,3.61,3.31,4.98,4.99,29.45,19.53,17.22,22.63,16.49,948.17,-1.99,0.88,9.41,-11.89,5.23,21.14
299,0,0,327885739,-760131099,6234288,2023,10,14,13,45,57,0,0,0,3.61,3.31,4.98,4.99,29.14,20.39,17.21,22.59,16.49,948.09,-1.95,0.84,9.37,-11.71,5.02,21.70
300,0,0,327908940,-760107667,6235074,2023,10,14,13,45,58,0,0,0,3.57,3.31,4.98,4.99,29.22,19.57,17.24,22.63,16.47,948.06,-2.03,0.84,9.29,-12.26,5.05,21.89
301,0,0,331739208,-756014883,6365190,2023,10,14,13,45,59,0,0,0,3.62,3.31,4.98,4.99,29.99,20.45,17.25,22.64,16.53,948.11,-2.03,0.80,9.33,-12.21,4.81,22.40
302,0,0,327955338,-760060778,6236645,2023,10,14,13,46,0,0,0,0,3.61,3.31,4.98,4.99,29.25,19.56,17.25,22.66,16.52,947.94,-1.95,0.84,9.56,-11.49,4.93,20.65
303,0,0,331788204,-755966778,6366859,2023,10,14,13,46,1,0,0,0,3.62,3.30,4.98,4.99,29.81,20.53,17.28,22.68,16.54,948.21,-1.99,0.80,9.29,-12.04,4.83,20.56
304,0,0,331812700,-755942713,6367694,2023,10,14,13,46,2,0,0,0,3.62,3.32,4.98,4.99,29.25,19.60,17.26,22.66,16.51,948.26,-1.99,0.76,9.29,-12.04,4.60,20.65
305,0,0,331837195,-755918640,6368528,2023,10,14,13,46,3,0,0,0,3.60,3.31,4.98,4.99,29.76,20.40,17.31,22.68,16.55,948.15,-2.03,0.84,9.14,-12.45,5.14,20.87
306,0,0,331861687,-755894557,6369363,2023,10,14,13,46,4,0,0,0,3.61,3.31,4.98,4.99,29.42,19.73,17.28,22.68,16.51,948.16,-1.95,0.88,9.33,-11.76,5.27,21.31
307,0,0,327811545,-759560664,6231776,2023,10,14,13,46,5,0,0,0,3.61,3.31,4.98,4.98,29.57,20.21,17.30,22.70,16.58,948.13,-1.99,0.84,9.26,-12.08,5.08,21.27
308,0,0,327834166,-759537313,6232542,2023,10,14,13,46,6,0,0,0,3.62,3.31,4.98,4.99,29.40,19.66,17.30,22.70,16.53,948.10,-2.14,0.76,9.45,-12.73,4.52,20.89
309,0,0,327856786,-759513953,6233308,2023,10,14,13,46,7,0,0,0,3.61,3.31,4.98,4.98,30.24,20.51,17.32,22.73,16.59,948.09,-2.03,0.80,9.33,-12.21,4.81,20.86
310,0,0,334935868,-751876535,6474377,2023,10,14,13,46,8,0,0,0,3.62,3.31,4.98,4.97,29.73,19.56,17.33,22.72,16.58,948.06,-1.95,0.76,9.37,-11.72,4.57,21.93
311,0,0,331166765,-755952598,6345693,2023,10,14,13,46,9,0,0,0,3.62,3.31,4.98,4.98,30.19,20.37,17.32,22.75,16.59,947.92,-2.03,0.84,9.33,-12.21,5.04,20.75
312,0,0,334985849,-751827544,6476089,2023,10,14,13,46,10,0,0,0,3.61,3.31,4.98,4.99,29.54,19.42,17.33,22.77,16.59,948.09,-1.95,0.80,9.03,-12.15,4.97,21.66
313,0,0,334849158,-751297497,6471409,2023,10,14,13,46,11,0,0,0,3.61,3.31,4.98,4.98,30.72,20.53,17.34,22.80,16.59,947.98,-2.03,0.76,9.37,-12.17,4.56,21.75
314,0,0,331021745,-755444848,6340757,2023,10,14,13,46,12,0,0,0,3.61,3.32,4.98,4.95,29.69,19.73,17.36,22.81,16.61,948.08,-1.95,0.84,9.33,-11.76,5.04,18.86
315,0,0,331261578,-755856980,6348921,2023,10,14,13,46,13,0,0,0,3.62,3.31,4.98,4.98,29.85,20.97,17.36,22.81,16.64,948.08,-1.87,0.76,9.37,-11.27,4.58,22.17
316,0,0,331285277,-755833054,6349728,2023,10,14,13,46,14,0,0,0,3.61,3.31,4.98,4.99,29.83,19.77,17.37,22.83,16.62,948.14,-1.99,0.80,9.33,-11.99,4.81,21.27
317,0,0,331091194,-755373495,6343121,2023,10,14,13,46,15,0,0,0,3.61,3.31,4.98,4.99,30.23,20.63,17.37,22.84,16.63,948.04,-2.03,0.80,9.22,-12.36,4.86,21.09
318,0,0,331114340,-755349693,6343909,2023,10,14,13,46,16,0,0,0,3.62,3.31,4.98,4.99,29.70,19.57,17.38,22.86,16.61,947.84,-2.07,0.80,9.41,-12.34,4.77,20.19
319,0,0,334995843,-751151066,6476431,2023,10,14,13,46,17,0,0,0,3.61,3.30,4.98,4.99,30.00,20.36,17.40,22.87,16.61,948.08,-1.99,0.69,9.18,-12.19,4.19,21.36
320,0,0,335020284,-751126630,6477268,2023,10,14,13,46,18,0,0,0,3.62,3.32,4.98,4.99,29.35,19.90,17.40,22.88,16.64,948.09,-2.03,0.80,9.37,-12.16,4.79,21.96
321,0,0,335044724,-751102186,6478105,2023,10,14,13,46,19,0,0,0,3.61,3.30,4.98,4.99,30.07,20.51,17.41,22.89,16.69,948.06,-2.07,0.76,9.41,-12.34,4.54,22.09
322,0,0,330979443,-754806347,6339318,2023,10,14,13,46,20,0,0,0,3.62,3.31,4.98,4.99,29.65,19.57,17.42,22.86,16.68,948.23,-1.99,0.84,9.29,-12.03,5.06,20.55
323,0,0,334743062,-749997718,6467777,2023,10,14,13,46,21,0,0,0,3.58,3.31,4.98,4.99,30.57,20.22,17.44,22.91,16.62,948.22,-1.95,0.92,9.75,-11.26,5.27,22.08
324,0,0,335118034,-751028799,6480616,2023,10,14,13,46,22,0,0,0,3.62,3.31,4.98,4.99,29.53,20.06,17.41,22.91,16.66,947.97,-1.99,0.88,9.37,-11.93,5.25,20.88
325,0,0,335142467,-751004319,6481453,2023,10,14,13,46,23,0,0,0,3.61,3.30,4.98,4.99,29.96,20.35,17.44,22.91,16.69,947.84,-2.03,0.73,9.33,-12.22,4.35,22.06
326,0,0,335166899,-750979831,6482289,2023,10,14,13,46,24,0,0,0,3.61,3.31,4.98,4.99,30.23,19.94,17.45,22.95,16.70,948.13,-1.99,0.84,9.26,-12.08,5.08,21.57
327,0,0,335360486,-751458989,6488921,2023,10,14,13,46,25,0,0,0,3.61,3.31,4.98,4.98,30.19,20.20,17.45,22.96,16.70,948.02,-1.95,0.84,9.37,-11.71,5.02,21.54
328,0,0,336323794,-751138069,6521950,2023,10,14,13,46,26,0,0,0,3.61,3.31,4.98,4.99,30.27,19.75,17.47,23.05,16.70,947.96,-2.07,0.84,9.29,-12.48,5.05,20.72
329,0,0,332424562,-755338284,6388554,2023,10,14,13,46,27,0,0,0,3.62,3.31,4.98,4.98,30.82,20.41,17.50,23.00,16.74,948.16,-1.99,0.80,9.26,-12.08,4.85,22.04
330,0,0,332231126,-754865774,6381957,2023,10,14,13,46,28,0,0,0,3.61,3.32,4.98,4.99,30.04,19.71,17.49,23.02,16.74,947.98,-1.95,0.84,9.37,-11.71,5.02,21.00
331,0,0,336401115,-751063298,6524603,2023,10,14,13,46,29,0,0,0,3.61,3.31,4.98,4.96,29.96,20.60,17.49,23.04,16.72,948.14,-1.95,0.88,9.26,-11.85,5.31,21.33
332,0,0,336265238,-750517031,6519941,2023,10,14,13,46,30,0,0,0,3.61,3.31,4.98,4.99,29.77,20.00,17.52,23.05,16.73,948.07,-2.03,0.80,9.37,-12.16,4.79,20.67
333,0,0,337294149,-750158537,6555268,2023,10,14,13,46,31,0,0,0,3.62,3.31,4.98,4.98,30.45,20.75,17.54,23.08,16.75,948.16,-2.03,0.76,9.33,-12.22,4.58,20.71
334,0,0,329727690,-759602797,6296759,2023,10,14,13,46,32,0,0,0,3.57,3.32,4.98,4.99,29.82,20.08,17.55,23.07,16.76,948.30,-1.99,0.88,9.56,-11.70,5.15,20.26
335,0,0,321819039,-767191364,6029856,2023,10,14,13,46,33,0,0,0,3.62,3.31,4.98,4.98,29.26,20.67,17.55,23.12,16.73,948.11,-2.03,0.84,9.29,-12.26,5.05,21.78
336,0,0,318544521,-771162578,5920379,2023,10,14,13,46,34,0,0,0,3.61,3.32,4.98,4.99,29.80,19.91,17.57,23.10,16.81,948.08,-1.95,0.80,9.33,-11.76,4.82,21.59
337,0,0,322231169,-767395837,6043678,2023,10,14,13,46,35,0,0,0,3.61,3.30,4.98,4.98,30.25,20.95,17.55,23.16,16.77,948.10,-1.99,0.76,9.37,-11.94,4.57,17.43
338,0,0,322253055,-767372863,6044412,2023,10,14,13,46,36,0,0,0,3.61,3.32,4.98,4.99,29.70,19.89,17.55,23.13,16.80,948.02,-1.91,0.84,9.18,-11.72,5.13,20.37
339,0,0,326331538,-763783539,6181721,2023,10,14,13,46,37,0,0,0,3.62,3.30,4.98,4.99,30.39,21.02,17.57,23.16,16.78,948.20,-2.03,0.92,9.10,-12.49,5.62,20.80
340,0,0,325056775,-762493516,6138704,2023,10,14,13,46,38,0,0,0,3.62,3.31,4.98,4.99,30.02,19.66,17.58,23.16,16.83,948.21,-1.99,0.84,9.33,-11.98,5.04,20.94
341,0,0,336320272,-749756840,6521829,2023,10,14,13,46,39,0,0,0,3.62,3.31,4.98,4.99,30.24,21.00,17.58,23.19,16.84,948.25,-2.03,0.84,9.29,-12.26,5.05,21.28
342,0,0,333187642,-753887070,6414597,2023,10,14,13,46,40,0,0,0,3.62,3.31,4.98,4.99,30.17,20.03,17.58,23.22,16.77,948.33,-2.07,0.80,9.33,-12.43,4.80,20.92
343,0,0,337226552,-748774705,6552946,2023,10,14,13,46,41,0,0,0,3.62,3.31,4.98,4.99,30.51,20.96,17.60,23.22,16.80,948.29,-1.95,0.84,9.29,-11.81,5.06,22.16
344,0,0,332332681,-754066721,6385420,2023,10,14,13,46,42,0,0,0,3.62,3.32,4.98,4.99,30.14,20.01,17.60,23.20,16.81,948.11,-1.95,0.80,9.26,-11.86,4.85,20.54
345,0,0,331738664,-754703809,6365171,2023,10,14,13,46,43,0,0,0,3.61,3.31,4.98,4.99,30.40,20.88,17.61,23.25,16.82,948.18,-2.07,0.76,9.29,-12.49,4.59,21.37
346,0,0,328692573,-758643741,6261630,2023,10,14,13,46,44,0,0,0,3.61,3.31,4.98,4.99,29.88,19.45,17.62,23.24,16.85,948.26,-2.03,0.84,9.33,-12.21,5.04,20.72
347,0,0,328715131,-758620061,6262395,2023,10,14,13,46,45,0,0,0,3.61,3.31,4.98,4.99,30.79,21.33,17.62,23.30,16.84,948.20,-1.95,0.92,9.22,-11.89,5.56,21.53
348,0,0,328445734,-758208228,6253261,2023,10,14,13,46,46,0,0,0,3.62,3.31,4.98,4.99,29.41,20.16,17.62,23.26,16.85,948.35,-1.99,0.76,9.26,-12.09,4.62,22.32
349,0,0,328760242,-758572676,6263925,2023,10,14,13,46,47,0,0,0,3.61,3.31,4.98,4.98,30.73,20.65,17.65,23.30,16.89,948.18,-1.99,0.80,9.29,-12.04,4.83,20.28
350,0,0,315973741,-775569479,5834869,2023,10,14,13,46,48,0,0,0,3.61,3.31,4.98,4.99,29.79,19.88,17.65,23.27,16.90,948.08,-1.99,0.84,9.37,-11.94,5.02,22.11
351,0,0,319557918,-771138082,5954194,2023,10,14,13,46,49,0,0,0,3.59,3.31,4.99,4.98,30.77,20.93,17.66,23.30,16.88,947.88,-1.95,0.84,9.33,-11.76,5.04,22.08
352,0,0,320030573,-771315413,5969986,2023,10,14,13,46,50,0,0,0,3.62,3.31,4.98,4.99,30.05,19.86,17.68,23.31,16.90,947.98,-1.99,0.80,9.26,-12.08,4.85,22.29
353,0,0,331923418,-754511231,6371467,2023,10,14,13,46,51,0,0,0,3.61,3.31,4.98,4.98,30.46,21.03,17.70,23.38,16.95,948.09,-1.99,0.88,9.29,-12.03,5.29,20.61
354,0,0,332804271,-754283627,6401509,2023,10,14,13,46,52,0,0,0,3.61,3.31,4.98,4.99,30.12,19.84,17.71,23.34,16.96,948.17,-2.07,0.96,9.29,-12.47,5.74,20.89
355,0,0,332828131,-754259262,6402324,2023,10,14,13,46,53,0,0,0,3.61,3.31,4.98,4.98,31.20,21.13,17.73,23.38,16.93,948.14,-1.99,0.88,9.33,-11.98,5.27,20.98
356,0,0,336870384,-749918989,6540712,2023,10,14,13,46,54,0,0,0,3.61,3.31,4.98,4.99,30.09,20.11,17.73,23.40,16.94,948.08,-1.95,0.84,9.26,-11.85,5.08,21.63
357,0,0,335923443,-750216317,6508217,2023,10,14,13,46,55,0,0,0,3.62,3.31,4.98,4.98,30.43,20.85,17.74,23.40,16.99,948.08,-1.99,0.73,9.37,-11.95,4.34,20.90
358,0,0,335947821,-750191546,6509053,2023,10,14,13,46,56,0,0,0,3.61,3.31,4.98,4.99,30.19,19.88,17.77,23.41,16.98,948.09,-1.95,0.88,9.45,-11.62,5.21,21.56
359,0,0,336158451,-750666097,6516277,2023,10,14,13,46,57,0,0,0,3.62,3.31,4.98,4.98,30.32,21.20,17.77,23.42,17.00,948.04,-1.99,0.84,9.41,-11.89,5.00,21.11
360,0,0,305455159,-1006135830,765802,2023,10,14,13,46,58,0,0,0,3.61,3.31,4.98,4.99,30.32,19.78,17.76,23.43,17.00,948.17,-2.03,0.84,9.48,-12.02,4.96,21.92
361,0,0,305454834,-1006134735,765873,2023,10,14,13,46,59,0,0,0,3.61,3.31,4.98,4.99,30.56,20.88,17.80,23.43,16.98,948.17,-1.99,0.80,9.33,-11.99,4.81,21.09
362,0,0,305455641,-1006135990,767810,2023,10,14,13,47,0,0,0,0,3.61,3.32,4.98,4.99,30.17,19.84,17.81,23.41,16.98,948.22,-2.07,0.73,9.29,-12.49,4.36,21.94
363,0,0,305455235,-1006135116,767967,2023,10,14,13,47,1,0,0,0,3.61,3.31,4.98,4.99,30.78,20.95,17.77,23.45,16.95,948.23,-1.99,0.84,9.29,-12.03,5.06,22.40
364,0,0,305455111,-1006135251,765762,2023,10,14,13,47,2,0,0,0,3.61,3.31,4.98,4.99,29.96,19.81,17.77,23.45,17.02,948.20,-1.99,0.80,9.33,-11.99,4.81,21.35
365,0,0,305455078,-1006134999,766328,2023,10,14,13,47,3,0,0,0,3.61,3.31,4.98,4.97,30.84,20.98,17.79,23.50,17.00,948.27,-2.07,0.80,9.22,-12.58,4.86,19.48
366,0,0,305454798,-1006133646,771559,2023,10,14,13,47,4,0,0,0,3.61,3.31,4.98,4.99,30.34,20.08,17.80,23.48,16.98,948.44,-2.07,0.80,9.29,-12.48,4.82,22.06
367,0,0,305454798,-1006133646,771559,2023,10,14,13,47,5,0,0,0,3.61,3.31,4.98,4.99,29.71,21.40,17.79,23.48,16.99,948.17,-1.99,0.76,9.52,-11.76,4.50,21.80
368,0,0,305454798,-1006133646,771559,2023,10,14,13,47,6,0,0,0,3.61,3.31,4.98,4.99,30.29,19.82,17.81,23.48,17.02,948.10,-2.03,0.84,9.29,-12.26,5.05,20.56
369,0,0,305454798,-1006133646,771559,2023,10,14,13,47,7,0,0,0,3.61,3.31,4.98,4.99,30.86,21.40,17.79,23.52,17.05,948.05,-1.99,0.80,9.29,-12.04,4.83,21.20
370,0,0,305454798,-1006133646,771559,2023,10,14,13,47,8,0,0,0,3.54,3.31,4.98,4.99,30.21,20.19,17.83,23.54,17.05,948.07,-2.14,0.92,9.18,-13.07,5.56,19.82
371,0,0,305454798,-1006133646,771559,2023,10,14,13,47,9,0,0,0,3.62,3.31,4.98,4.98,30.20,21.47,17.82,23.53,17.10,948.07,-2.07,0.80,9.26,-12.53,4.84,21.68
372,0,0,305454798,-1006133646,771559,2023,10,14,13,47,10,0,0,0,3.61,3.31,4.98,4.99,29.99,19.91,17.84,23.54,17.05,948.09,-1.99,0.84,9.18,-12.18,5.12,20.33
373,0,0,305454798,-1006133646,771559,2023,10,14,13,47,11,0,0,0,3.61,3.31,4.98,4.98,31.78,20.80,17.86,23.55,17.10,948.11,-1.91,0.92,9.48,-11.35,5.42,19.80
374,0,0,305454798,-1006133646,771559,2023,10,14,13,47,12,0,0,0,3.55,3.31,4.98,4.99,30.35,20.03,17.84,23.56,17.12,947.97,-2.07,0.88,9.33,-12.43,5.26,20.44
375,0,0,305454798,-1006133646,771559,2023,10,14,13,47,13,0,0,0,3.62,3.31,4.98,4.98,31.05,20.96,17.89,23.55,17.13,948.16,-1.99,0.80,9.26,-12.08,4.85,21.35
376,0,0,305454798,-1006133646,771559,2023,10,14,13,47,14,0,0,0,3.61,3.32,4.98,4.99,30.42,20.18,17.88,23.56,17.10,948.04,-2.07,0.76,9.26,-12.54,4.61,21.67
377,0,0,305454798,-1006133646,771559,2023,10,14,13,47,15,0,0,0,3.62,3.31,4.98,4.98,31.38,20.49,17.88,23.56,17.09,947.99,-2.03,0.88,9.45,-12.06,5.20,21.96
378,0,0,305454798,-1006133646,771559,2023,10,14,13,47,16,0,0,0,3.61,3.31,4.98,4.95,30.06,20.06,17.88,23.57,17.12,947.96,-1.95,0.88,9.14,-11.99,5.38,17.30
379,0,0,305454798,-1006133646,771559,2023,10,14,13,47,17,0,0,0,3.59,3.31,4.98,4.98,30.93,21.25,17.90,23.59,17.12,948.11,-2.03,0.80,9.29,-12.26,4.83,21.27
380,0,0,305454798,-1006133646,771559,2023,10,14,13,47,18,0,0,0,3.62,3.31,4.98,4.99,30.55,20.13,17.92,23.62,17.14,948.12,-1.99,0.84,9.26,-12.08,5.08,20.57
381,0,0,305454798,-1006133646,771559,2023,10,14,13,47,19,0,0,0,3.62,3.31,4.98,4.99,31.50,21.26,17.92,23.63,17.15,948.08,-2.03,0.80,9.33,-12.21,4.81,17.81
382,0,0,305454798,-1006133646,771559,2023,10,14,13,47,20,0,0,0,3.62,3.31,4.98,4.99,30.26,20.33,17.92,23.65,17.13,948.08,-2.03,0.84,9.29,-12.26,5.05,19.71
383,0,0,305454798,-1006133646,771559,2023,10,14,13,47,21,0,0,0,3.61,3.31,4.98,4.99,31.01,21.10,17.91,23.65,17.17,948.05,-1.99,0.80,9.37,-11.94,4.79,22.29
384,0,0,305460616,-1006286848,-59323,2023,10,14,13,47,22,0,0,0,3.62,3.32,4.98,4.99,29.92,20.63,17.95,23.67,17.15,948.14,-1.99,0.84,9.33,-11.98,5.04,22.79
385,0,0,305460693,-1006286618,-56075,2023,10,14,13,47,23,0,0,0,3.62,3.31,4.98,4.99,30.48,20.86,17.92,23.64,17.15,948.04,-2.03,0.80,9.37,-12.16,4.79,21.29
386,0,0,305548996,-1006338711,659490,2023,10,14,13,47,24,0,0,0,3.61,3.31,4.98,4.99,30.59,19.90,17.91,23.66,17.16,948.03,-2.03,0.84,9.33,-12.21,5.04,21.43
387,0,0,305548959,-1006338505,659694,2023,10,14,13,47,25,0,0,0,3.56,3.30,4.98,4.99,31.50,21.03,17.91,23.68,17.16,948.21,-2.07,0.84,9.37,-12.38,5.01,20.83
388,0,0,305548657,-1006338113,658088,2023,10,14,13,47,26,0,0,0,3.62,3.31,4.98,4.99,30.70,19.85,17.93,23.66,17.14,947.97,-2.03,0.88,9.60,-11.87,5.12,20.18
389,0,0,305548461,-1006337862,656966,2023,10,14,13,47,27,0,0,0,3.62,3.31,4.98,4.99,30.87,20.80,17.94,23.67,17.18,948.07,-1.91,0.76,9.29,-11.59,4.61,21.90
390,0,0,305548520,-1006337851,657299,2023,10,14,13,47,28,0,0,0,3.61,3.31,4.98,4.99,30.35,20.24,17.95,23.73,17.16,948.05,-2.03,0.84,9.37,-12.16,5.02,21.49
391,0,0,305549425,-1006339914,656218,2023,10,14,13,47,29,0,0,0,3.62,3.31,4.98,4.99,31.22,20.93,17.96,23.73,17.16,947.90,-1.99,0.80,9.03,-12.38,4.97,23.06
392,0,0,305549288,-1006339766,654886,2023,10,14,13,47,30,0,0,0,3.61,3.32,4.98,4.99,30.62,20.31,17.99,23.73,17.20,948.07,-1.99,0.88,9.26,-12.07,5.31,21.87
393,0,0,305549488,-1006339855,657119,2023,10,14,13,47,31,0,0,0,3.62,3.31,4.98,4.98,30.93,21.36,17.99,23.73,17.20,947.88,-2.07,0.80,9.33,-12.43,4.80,20.81
394,0,0,305549332,-1006339733,655103,2023,10,14,13,47,32,0,0,0,3.61,3.31,4.98,4.99,30.47,20.02,18.00,23.77,17.23,947.82,-2.03,0.84,9.45,-12.06,4.98,20.75
395,0,0,305549088,-1006339693,651816,2023,10,14,13,47,33,0,0,0,3.63,3.31,4.98,4.98,31.49,21.34,18.02,23.77,17.24,948.06,-1.95,0.84,9.29,-11.81,5.06,21.65
396,0,0,305548093,-1006337579,651965,2023,10,14,13,47,34,0,0,0,3.61,3.31,4.98,4.99,30.71,20.14,18.04,23.82,17.23,948.19,-2.18,0.80,9.33,-13.10,4.79,20.89
397,0,0,305547770,-1006337282,649875,2023,10,14,13,47,35,0,0,0,3.62,3.31,4.98,4.95,31.15,21.30,18.03,23.84,17.27,947.81,-2.03,0.84,9.26,-12.30,5.07,20.36
398,0,0,305547925,-1006337520,649716,2023,10,14,13,47,36,0,0,0,3.61,3.31,4.98,4.99,30.14,20.16,18.03,23.80,17.24,947.83,-1.99,0.80,9.06,-12.33,4.95,21.32
399,0,0,305547593,-1006337401,646330,2023,10,14,13,47,37,0,0,0,3.62,3.30,4.98,4.98,30.93,20.96,18.05,23.85,17.25,948.14,-1.99,0.80,9.29,-12.04,4.83,20.99
400,0,0,305547805,-1006337550,647952,2023,10,14,13,47,38,0,0,0,3.61,3.31,4.98,4.99,30.94,20.30,18.06,23.88,17.26,948.08,-2.07,0.80,9.03,-12.84,4.96,20.88
401,0,0,305548023,-1006337800,649701,2023,10,14,13,47,39,0,0,0,3.60,3.31,4.98,4.98,30.52,21.49,18.08,23.88,17.28,947.92,-1.99,0.80,9.33,-11.99,4.81,22.55
402,0,0,305548284,-1006338017,650974,2023,10,14,13,47,40,0,0,0,3.61,3.31,4.98,4.99,30.97,20.16,18.07,23.89,17.31,948.22,-1.99,0.84,9.37,-11.94,5.02,17.67
403,0,0,305548421,-1006337984,653826,2023,10,14,13,47,41,0,0,0,3.61,3.30,4.98,4.99,31.05,21.60,18.10,23.92,17.28,948.25,-2.03,0.80,9.41,-12.12,4.77,20.92
404,0,0,305548575,-1006337975,656057,2023,10,14,13,47,42,0,0,0,3.61,3.32,4.98,4.99,30.77,20.69,18.10,23.90,17.30,948.14,-1.99,0.84,9.29,-12.03,5.06,22.23
405,0,0,305548753,-1006338128,656936,2023,10,14,13,47,43,0,0,0,3.61,3.30,4.98,4.99,30.98,21.41,18.13,23.92,17.34,947.86,-2.03,0.80,9.18,-12.41,4.88,21.28
406,0,0,305548830,-1006338094,658244,2023,10,14,13,47,44,0,0,0,3.61,3.31,4.98,4.99,30.73,19.95,18.13,23.95,17.30,948.12,-2.03,0.80,9.26,-12.31,4.85,20.04
407,0,0,305548987,-1006338275,658955,2023,10,14,13,47,45,0,0,0,3.61,3.30,4.98,4.99,32.42,21.16,18.14,23.98,17.34,948.08,-2.03,0.88,9.37,-12.15,5.24,22.03
408,0,0,305548915,-1006338255,657900,2023,10,14,13,47,46,0,0,0,3.61,3.31,4.98,4.99,30.86,20.00,18.14,23.97,17.35,948.26,-2.03,0.84,9.06,-12.55,5.18,21.77
409,0,0,305548915,-1006338255,657900,2023,10,14,13,47,47,0,0,0,3.62,3.31,4.98,4.99,31.45,21.42,18.16,23.97,17.35,948.01,-2.03,0.84,9.22,-12.35,5.09,21.38
410,0,0,305548915,-1006338255,657900,2023,10,14,13,47,48,0,0,0,3.62,3.31,4.98,4.99,30.87,20.20,18.16,24.01,17.38,948.39,-2.03,0.76,9.29,-12.26,4.60,21.43
