Packet Number,SIV,FixType,Latitude,Longitude,Altitude,Year,Month,Day,Hour,Min,Sec,NNV,NEV,NDV,Battery,3v3 Supply,5v Supply,Radio Supply,Analog Internal,Analog External,Altimeter Temp,Digital Internal,Digital Eternal,Pressure,Accel A,Accel Y,Accel z,Pitch,Roll,Yaw
Packet Number,SIV,FixType,Latitude,Longitude,Altitude,Year,Month,Day,Hour,Min,Sec,NNV,NEV,NDV,Battery,3v3 Supply,5v Supply,Radio Supply,Analog Internal,Analog External,Altimeter Temp,Digital Internal,Digital Eternal,Pressure,Accel A,Accel Y,Accel z,Pitch,Roll,Yaw
3,0,0,0,0,7,-6.14,EN4,0,0,0,0,0,2020,8,2,0,0,6,0,0,0,3.95,3.32,4.98,4.99,28.63,28.60,25.09,25.78,25.26,989.70,-4.28,4.09,7.84,-25.84,24.61,-9.15,"END
"
15,0,0,0,0,0,2020,8,2,0,0,17,0,0,0,3.93,3.31,4.98,4.98,30.67,29.44,25.03,26.65,25.66,976.71,7.46,-4.78,3.52,51.48,-30.10,-163.91,"END
"
18,0,0,0,0,0,2020,8,2,0,0,20,0,0,0,3.94,3.32,4.98,4.99,30.80,29.21,25.33,27.02,25.61,979.77,3.94,-8.95,0.15,23.75,-66.23,-132.39,"END
"
19,0,0,0,0,0,2020,8,2,0,0,21,0,0,0,3.90,3.30,4.98,4.99,31.87,29.25,25.53,27.15,25.59,988.65,3.48,-10.29,0.50,18.67,-71.13,-104.37,"END
"
30,0,0,0,0,0,2020,8,2,0,0,32,0,0,0,3.96,3.30,4.99,4.99,32.23,29.74,25.97,28.39,26.36,978.03,6.35,-3.52,5.93,42.64,-22.05,-148.33,"END
"
32,0,0,0,0,0,2020,8,2,0,0,34,0,0,0,3.97,3.30,4.99,4.99,32.34,30.46,26.11,28.59,26.45,977.99,6.31,-3.60,6.12,41.64,-22.24,-149.36,"END
"
33,0,0,0,0,0,2020,8,2,0,0,35,0,0,0,3.95,3.30,4.98,4.95,33.28,31.22,26.17,28.69,26.50,977.95,6.27,-3.60,6.00,41.87,-22.49,-148.29,"END
"
34,0,0,0,0,0,2020,8,2,0,0,36,0,0,0,3.94,3.30,4.98,4.99,32.90,30.36,26.26,28.81,26.57,977.88,6.31,-3.56,5.93,42.39,-22.33,-149.32,"END
"
35,0,0,0,0,0,2020,8,2,0,0,37,0,0,0,3.95,3.31,4.98,4.99,33.07,30.71,26.30,28.95,26.59,977.91,6.31,-3.60,5.78,42.85,-22.80,-149.84,"END
"
36,0,0,0,0,0,2020,8,2,0,0,38,0,0,0,3.96,3.32,4.98,4.99,32.76,30.66,26.36,29.02,26.65,977.85,6.35,-3.63,6.08,41.87,-22.45,-149.83,"END
"
37,0,0,0,0,0,2020,8,2,0,0,39,0,0,0,3.95,3.31,4.98,4.99,33.89,30.87,26.43,29.17,26.66,977.98,6.27,-3.56,5.93,42.22,-22.40,-149.04,"END
"
38,0,0,0,0,0,2020,8,2,0,0,40,0,0,0,3.98,3.32,4.98,4.99,32.99,30.75,26.50,29.27,26.73,977.87,6.31,-3.52,5.93,42.47,-22.12,-147.26,"END
"
39,0,0,0,0,0,2020,8,2,0,0,41,0,0,0,3.94,3.31,4.98,4.99,34.43,29.31,26.55,29.37,26.73,978.00,6.31,-3.56,5.93,42.39,-22.33,-148.16,"END
"
40,0,0,0,0,0,2020,8,2,0,0,42,0,0,0,3.93,3.32,4.99,4.99,33.56,30.56,26.61,29.48,26.80,977.95,6.31,-3.44,5.74,43.33,-21.98,-148.56,"END
"
41,0,0,0,0,0,2020,8,2,0,0,43,0,0,0,3.94,3.31,4.98,4.99,34.22,29.42,26.68,29.59,26.85,977.87,6.27,-3.52,5.85,42.57,-22.30,-148.53,"END
"
42,0,0,0,0,0,2020,8,2,0,0,44,0,0,0,3.93,3.32,4.98,4.99,33.90,31.18,26.73,29.66,26.91,977.77,6.39,-3.56,5.97,42.60,-22.14,-148.19,"END
"
43,0,0,0,0,0,2020,8,2,0,0,45,0,0,0,3.94,3.31,4.98,4.99,35.46,30.97,26.79,29.80,26.93,977.89,6.35,-3.63,5.93,42.40,-22.70,-149.81,"END
"
44,0,0,0,0,0,2020,8,2,0,0,46,0,0,0,3.91,3.32,4.98,4.99,33.91,31.22,26.84,29.94,26.96,977.80,6.31,-3.63,6.35,40.78,-22.09,-148.31,"END
"
45,0,0,0,0,0,2020,8,2,0,0,47,0,0,0,3.94,3.31,4.98,4.99,34.64,31.05,26.90,30.00,26.99,977.80,6.39,-3.56,5.97,42.60,-22.14,-149.45,"END
"
46,0,0,0,0,0,2020,8,2,0,0,48,0,0,0,3.95,3.32,4.98,4.99,33.83,30.82,26.96,30.15,27.06,977.91,6.31,-3.56,6.04,41.99,-22.15,-149.34,"END
"
47,0,0,0,0,0,2020,8,2,0,0,49,0,0,0,3.94,3.31,4.98,4.99,34.94,30.76,27.02,30.20,27.06,978.01,6.27,-3.63,5.93,42.05,-22.83,-150.12,"END
"
48,0,0,0,0,0,2020,8,2,0,0,50,0,0,0,3.95,3.32,4.98,4.99,34.62,31.77,27.07,30.32,27.16,977.80,6.31,-3.60,5.93,42.31,-22.55,-149.98,"END
"
49,0,0,0,0,0,2020,8,2,0,0,51,0,0,0,3.94,3.31,4.98,4.99,35.74,31.40,27.13,30.41,27.13,977.88,6.35,-3.60,5.89,42.62,-22.54,-149.38,"END
"
50,0,0,0,0,0,2020,8,2,0,0,52,0,0,0,3.95,3.31,4.98,4.98,33.37,30.73,27.44,30.52,27.10,989.98,6.39,-3.63,6.00,42.30,-22.51,-149.79,"END
"
51,0,0,0,0,0,2020,8,2,0,0,53,0,0,0,3.95,3.31,4.98,4.99,35.50,30.74,27.39,30.41,26.95,989.98,6.31,-3.60,5.93,42.31,-22.55,-148.46,"END
"
52,0,0,0,0,0,2020,8,2,0,0,54,0,0,0,3.94,3.32,4.98,4.99,34.08,31.01,27.35,30.45,26.91,989.42,6.27,-3.63,5.85,42.32,-22.96,-150.16,"END
"
53,0,0,0,0,0,2020,8,2,0,0,55,0,0,0,3.94,3.31,4.98,4.99,35.66,30.80,27.34,30.47,26.88,989.28,6.35,-3.60,5.93,42.48,-22.48,-149.90,"END
"
54,0,0,0,0,0,2020,8,2,0,0,56,0,0,0,3.96,3.32,4.98,4.97,34.20,30.21,27.31,30.55,26.87,989.00,6.12,-3.63,6.16,40.56,-22.71,-149.13,"END
"
55,0,0,0,0,0,2020,8,2,0,0,57,0,0,0,3.94,3.31,4.98,4.99,36.21,30.94,27.05,30.56,26.91,977.96,6.31,-3.60,5.58,43.54,-23.11,-149.80,"END
"
56,0,0,0,0,0,2020,8,2,0,0,58,0,0,0,3.95,3.31,4.98,4.96,34.49,31.49,27.40,30.70,27.00,989.53,6.27,-3.60,5.97,42.00,-22.55,-149.24,"END
"
57,0,0,0,0,0,2020,8,2,0,0,59,0,0,0,3.93,3.30,4.98,4.99,35.94,31.24,27.32,30.75,27.00,988.48,6.35,-3.63,5.97,42.27,-22.64,-149.17,"END
"
58,0,0,0,0,0,2020,8,2,0,1,0,0,0,0,3.94,3.31,4.98,4.99,34.98,30.97,27.10,30.74,26.96,977.87,6.31,-3.67,6.12,41.49,-22.67,-150.05,"END
"
59,0,0,0,0,0,2020,8,2,0,1,1,0,0,0,3.94,3.31,4.98,4.99,36.27,31.55,27.16,30.98,26.99,977.66,6.31,-3.63,6.00,41.96,-22.64,-148.54,"END
"
60,0,0,0,0,0,2020,8,2,0,1,2,0,0,0,3.95,3.31,4.98,4.99,35.84,30.10,27.19,31.02,27.05,977.50,6.27,-3.56,5.93,42.22,-22.40,-150.04,"END
"
61,0,0,0,0,0,2020,8,2,0,1,3,0,0,0,3.94,3.31,4.99,4.99,36.81,31.73,27.27,31.16,27.12,977.56,6.23,-3.48,6.16,41.39,-21.66,-149.02,"END
"
62,0,0,0,0,0,2020,8,2,0,1,4,0,0,0,3.95,3.31,4.98,4.99,37.41,30.59,27.30,31.28,27.23,977.59,6.35,-3.60,5.89,42.62,-22.54,-149.11,"END
"
63,0,0,0,0,0,2020,8,2,0,1,5,0,0,0,3.87,3.30,4.98,4.99,36.85,31.35,27.37,31.38,27.23,977.57,6.27,-3.60,5.89,42.27,-22.68,-149.15,"END
"
64,0,0,0,0,0,2020,8,2,0,1,6,0,0,0,3.95,3.32,4.98,4.99,35.90,30.45,27.42,31.49,27.30,977.55,6.27,-3.60,5.89,42.27,-22.68,-149.93,"END
"
65,0,0,0,0,0,2020,8,2,0,1,7,0,0,0,3.95,3.30,4.98,4.99,36.62,31.36,27.46,31.59,27.37,977.53,6.27,-3.63,5.93,42.05,-22.83,-149.62,"END
"
66,0,0,0,0,0,2020,8,2,0,1,8,0,0,0,3.95,3.32,4.98,4.99,34.56,31.58,27.53,31.77,27.42,977.61,6.39,-3.60,5.97,42.52,-22.36,-148.72,"END
"
67,0,0,0,0,0,2020,8,2,0,1,9,0,0,0,3.95,3.31,4.98,4.99,37.31,31.82,27.58,31.81,27.47,977.53,6.27,-3.60,5.93,42.14,-22.61,-149.47,"END
"
68,0,0,0,0,0,2020,8,2,0,1,10,0,0,0,3.94,3.32,4.98,4.99,34.68,31.43,27.64,31.95,27.49,977.58,6.31,-3.60,5.97,42.17,-22.49,-149.14,"END
"
69,0,0,0,0,0,2020,8,2,0,1,11,0,0,0,3.94,3.31,4.98,4.99,37.86,32.13,27.69,32.03,27.54,977.49,6.27,-3.56,5.78,42.76,-22.64,-149.54,"END
"
70,0,0,0,0,0,2020,8,2,0,1,12,0,0,0,3.95,3.31,4.98,4.99,35.29,31.43,27.75,32.12,27.59,977.38,6.31,-3.60,5.93,42.31,-22.55,-149.57,"END
"
71,0,0,0,0,0,2020,8,2,0,1,13,0,0,0,3.94,3.31,4.98,4.99,37.16,31.57,27.80,32.26,27.62,977.58,6.27,-3.60,6.00,41.87,-22.49,-149.46,"END
"
72,0,0,0,0,0,2020,8,2,0,1,14,0,0,0,3.93,3.32,4.98,4.99,36.26,31.25,27.85,32.32,27.67,977.36,6.27,-3.52,5.78,42.85,-22.43,-148.49,"END
"
73,0,0,0,0,0,2020,8,2,0,1,15,0,0,0,3.94,3.30,4.98,4.97,37.70,31.97,27.91,32.41,27.71,977.54,6.27,-3.56,6.16,41.41,-22.03,-148.09,"END
"
74,0,0,0,0,0,2020,8,2,0,1,16,0,0,0,3.95,3.32,4.98,4.99,36.79,31.71,27.97,32.53,27.77,977.62,6.27,-3.63,6.00,41.79,-22.71,-149.30,"END
"
75,0,0,0,0,0,2020,8,2,0,1,17,0,0,0,3.94,3.31,4.98,4.95,37.61,32.97,28.02,32.62,27.80,977.62,6.31,-3.60,5.97,42.17,-22.49,-149.38,"END
"
76,0,0,0,0,0,2020,8,2,0,1,18,0,0,0,3.95,3.32,4.98,4.99,37.37,31.72,28.08,32.72,27.83,977.59,6.31,-3.52,5.93,42.47,-22.12,-148.93,"END
"
77,0,0,0,0,0,2020,8,2,0,1,19,0,0,0,3.94,3.30,4.98,4.99,38.57,32.34,28.11,32.77,27.88,977.46,6.27,-3.63,6.23,41.00,-22.34,-149.46,"END
"
78,0,0,0,0,0,2020,8,2,0,1,20,0,0,0,3.95,3.31,4.98,4.99,37.22,32.13,28.15,32.88,27.93,977.52,6.23,-3.60,5.93,41.96,-22.68,-149.47,"END
"
79,0,0,0,0,0,2020,8,2,0,1,21,0,0,0,3.94,3.31,4.98,4.98,38.34,32.57,28.51,33.02,27.96,989.30,6.35,-3.63,5.97,42.27,-22.64,-148.41,"END
"
80,0,0,0,0,0,2020,8,2,0,1,22,0,0,0,3.94,3.32,4.98,4.99,37.79,31.83,28.46,32.92,27.91,989.22,6.27,-3.56,5.93,42.22,-22.40,-148.85,"END
"
81,0,0,0,0,0,2020,8,2,0,1,23,0,0,0,3.94,3.31,4.98,4.99,38.65,31.45,28.42,32.97,27.80,989.19,6.35,-3.60,6.00,42.21,-22.36,-149.19,"END
"
82,0,0,0,0,0,2020,8,2,0,1,24,0,0,0,3.91,3.31,4.98,4.99,37.20,31.74,28.40,32.95,27.76,989.26,6.31,-3.63,5.93,42.23,-22.76,-149.40,"END
"
83,0,0,0,0,0,2020,8,2,0,1,25,0,0,0,3.95,3.30,4.98,4.99,38.53,30.06,28.38,32.98,27.73,989.12,6.27,-3.44,5.78,43.01,-21.98,-148.37,"END
"
84,0,0,0,0,0,2020,8,2,0,1,26,0,0,0,3.92,3.32,4.98,4.99,37.37,31.98,28.16,33.12,27.77,977.67,6.23,-3.56,5.93,42.04,-22.46,-149.65,"END
"
85,0,0,0,0,0,2020,8,2,0,1,27,0,0,0,3.94,3.31,4.98,4.99,38.70,32.47,28.23,33.27,27.90,977.36,6.20,-3.60,5.97,41.65,-22.68,-149.20,"END
"
86,0,0,0,0,0,2020,8,2,0,1,28,0,0,0,3.90,3.32,4.98,4.99,38.37,31.78,28.28,33.41,27.97,977.30,6.35,-3.63,5.97,42.27,-22.64,-149.52,"END
"
87,0,0,0,0,0,2020,8,2,0,1,29,0,0,0,3.94,3.30,4.98,4.99,39.01,32.22,28.35,33.46,28.04,977.28,6.27,-3.60,5.89,42.27,-22.68,-149.65,"END
"
88,0,0,0,0,0,2020,8,2,0,1,30,0,0,0,3.95,3.31,4.98,4.99,38.15,31.88,28.40,33.57,28.09,977.25,6.27,-3.60,5.97,42.00,-22.55,-149.64,"END
"
89,0,0,0,0,0,2020,8,2,0,1,31,0,0,0,3.94,3.31,4.98,4.99,38.77,32.96,28.46,33.70,28.15,977.37,6.35,-3.63,5.97,42.27,-22.64,-149.60,"END
"
90,0,0,0,0,0,2020,8,2,0,1,32,0,0,0,3.95,3.32,4.98,4.99,38.37,31.85,28.51,33.79,28.20,977.24,6.27,-3.63,5.97,41.92,-22.77,-149.54,"END
"
91,0,0,0,0,0,2020,8,2,0,1,33,0,0,0,3.94,3.30,4.98,4.99,38.72,32.46,28.56,33.86,28.24,977.42,6.27,-3.60,5.93,42.14,-22.61,-149.62,"END
"
92,0,0,0,0,0,2020,8,2,0,1,34,0,0,0,3.94,3.31,4.98,4.98,37.82,32.19,28.59,34.00,28.27,977.34,6.20,-3.63,6.04,41.31,-22.77,-150.06,"END
"
93,0,0,0,0,0,2020,8,2,0,1,35,0,0,0,3.94,3.30,4.98,4.99,39.07,33.18,28.65,34.06,28.32,977.37,6.27,-3.63,6.00,41.79,-22.71,-150.36,"END
"
94,0,0,0,0,0,2020,8,2,0,1,36,0,0,0,3.95,3.31,4.98,4.98,39.38,32.09,28.72,34.16,28.36,977.31,6.20,-3.56,5.97,41.73,-22.47,-149.29,"END
"
95,0,0,0,0,0,2020,8,2,0,1,37,0,0,0,3.94,3.30,4.98,4.99,39.50,33.40,28.76,34.24,28.41,977.30,6.23,-3.63,5.97,41.75,-22.83,-149.40,"END
"
96,0,0,0,0,0,2020,8,2,0,1,38,0,0,0,3.95,3.31,4.98,4.99,39.24,32.34,28.80,34.33,28.45,977.43,6.27,-3.63,5.93,42.05,-22.83,-149.12,"END
"
97,0,0,0,0,0,2020,8,3,13,49,1,0,0,0,3.94,3.30,4.98,4.99,39.30,31.93,28.87,34.41,28.49,977.23,6.27,-3.60,5.85,42.41,-22.74,-148.54,"END
"
98,0,0,0,0,0,2020,8,3,13,49,2,0,0,0,3.89,3.31,4.98,4.99,39.16,32.62,28.91,34.51,28.52,977.19,6.20,-3.67,6.04,41.23,-22.99,-150.41,"END
"
99,0,0,0,0,0,2020,8,3,13,49,3,0,0,0,3.94,3.30,4.98,4.99,39.28,33.11,28.97,34.63,28.55,977.28,6.27,-3.63,6.00,41.79,-22.71,-149.32,"END
"
100,0,0,0,0,0,2020,8,3,13,49,4,0,0,0,3.94,3.32,4.98,4.99,39.70,32.63,29.02,34.67,28.59,977.39,6.20,-3.63,5.78,42.24,-23.22,-150.38,"END
"
101,0,0,0,0,0,2020,8,3,13,49,5,0,0,0,3.94,3.30,4.98,4.99,39.98,32.77,29.08,34.77,28.62,977.40,6.23,-3.67,6.04,41.40,-22.92,-150.17,"END
"
102,0,0,0,0,0,2020,8,3,13,49,6,0,0,0,3.95,3.32,4.98,4.98,39.34,32.27,29.10,34.86,28.66,977.45,6.23,-3.60,5.97,41.83,-22.62,-149.38,"END
"
103,0,0,0,0,0,2020,8,3,13,49,7,0,0,0,3.94,3.30,4.98,4.99,39.84,33.70,29.15,34.93,28.74,977.24,6.27,-3.56,6.00,41.95,-22.28,-149.58,"END
"
104,0,0,0,0,0,2020,8,3,13,49,8,0,0,0,3.94,3.31,4.98,4.99,40.55,32.54,29.21,35.04,28.75,977.26,6.27,-3.60,6.12,41.47,-22.31,-149.63,"END
"
105,0,0,0,0,0,2020,8,3,13,49,9,0,0,0,3.94,3.30,4.98,4.99,39.98,33.57,29.25,35.13,28.80,977.25,6.31,-3.63,5.93,42.23,-22.76,-150.72,"END
"
106,0,0,0,0,0,2020,8,3,13,49,10,0,0,0,3.94,3.32,4.98,4.95,40.30,32.91,29.30,35.24,28.80,977.23,6.27,-3.63,5.97,41.92,-22.77,-150.07,"END
"
107,0,0,0,0,0,2020,8,3,13,49,11,0,0,0,3.94,3.30,4.98,4.99,40.01,33.42,29.36,35.30,28.87,977.43,6.27,-3.60,6.00,41.87,-22.49,-148.55,"END
"
108,0,0,0,0,0,2020,8,3,13,49,12,0,0,0,3.95,3.31,4.98,4.96,40.95,32.98,29.40,35.39,28.94,977.25,6.31,-3.60,6.00,42.04,-22.43,-149.18,"END
"
109,0,0,0,0,0,2020,8,3,13,49,13,0,0,0,3.94,3.30,4.98,4.99,40.38,33.64,29.44,35.46,28.95,977.14,6.27,-3.60,5.97,42.00,-22.55,-149.79,"END
"
110,0,0,0,0,0,2023,10,2,13,49,14,0,0,0,3.95,3.31,4.98,4.96,40.95,32.95,29.49,35.55,28.99,977.35,6.23,-3.56,6.00,41.77,-22.34,-149.42,"END
"
111,0,0,0,0,0,2023,10,2,13,49,15,0,0,0,3.94,3.30,4.98,4.99,40.56,34.23,29.54,35.66,29.03,977.07,6.23,-3.63,5.97,41.75,-22.83,-149.75,"END
"
112,0,0,0,0,0,2023,10,2,13,49,16,0,0,0,3.95,3.31,4.98,4.97,41.24,33.02,29.58,35.70,29.05,977.30,6.23,-3.60,6.00,41.69,-22.56,-149.22,"END
"
113,0,0,0,0,0,2023,10,2,13,49,17,0,0,0,3.94,3.30,4.98,4.99,40.43,34.15,29.65,35.80,29.11,977.36,6.31,-3.60,5.97,42.17,-22.49,-150.13,"END
"
114,0,0,0,0,0,2023,10,2,13,49,18,0,0,0,3.95,3.32,4.98,4.99,41.41,33.28,29.69,35.82,29.13,977.23,6.27,-3.56,5.85,42.49,-22.52,-149.92,"END
"
115,0,0,0,0,0,2023,10,2,13,49,19,0,0,0,3.94,3.30,4.98,4.99,40.63,34.31,29.74,36.00,29.18,977.26,6.20,-3.63,6.20,40.78,-22.52,-148.47,"END
"
116,0,0,0,0,0,2023,10,2,13,49,20,0,0,0,3.94,3.31,4.98,4.97,41.69,33.04,29.78,36.02,29.20,977.21,6.27,-3.63,5.93,42.05,-22.83,-149.74,"END
"
117,0,0,0,0,0,2023,10,2,13,49,21,0,0,0,3.90,3.30,4.98,4.99,41.03,34.03,29.84,36.11,29.27,977.23,6.27,-3.63,5.93,42.05,-22.83,-149.90,"END
"
118,0,0,0,0,0,2023,10,2,13,49,22,0,0,0,3.95,3.31,4.98,4.99,41.83,32.99,29.88,36.20,29.30,977.22,6.27,-3.63,5.97,41.92,-22.77,-150.03,"END
"
119,0,0,0,0,0,2023,10,2,13,49,23,0,0,0,3.88,3.30,4.98,4.99,40.86,34.31,29.93,36.26,29.34,977.31,6.23,-3.60,5.97,41.83,-22.62,-149.30,"END
"
120,0,0,0,0,0,2023,10,2,13,49,24,0,0,0,3.94,3.31,4.98,4.99,41.65,32.90,29.97,36.32,29.35,977.49,6.27,-3.63,6.00,41.79,-22.71,-150.76,"END
"
121,0,0,0,0,0,2023,10,2,13,49,25,0,0,0,3.94,3.31,4.98,4.99,41.00,34.47,30.02,36.45,29.41,977.32,6.27,-3.67,5.93,41.97,-23.05,-150.47,"END
"
122,0,0,0,0,0,2023,10,2,13,49,26,0,0,0,3.95,3.32,4.98,4.99,41.51,33.18,30.08,36.55,29.45,977.17,6.23,-3.60,6.00,41.69,-22.56,-148.87,"END
"
123,0,0,0,0,0,2023,10,2,13,49,27,0,0,0,3.94,3.31,4.98,4.99,41.11,34.40,30.11,36.60,29.48,977.22,6.20,-3.60,6.00,41.52,-22.62,-150.50,"END
"
124,0,0,0,0,0,2023,10,2,13,49,28,0,0,0,3.94,3.32,4.98,4.99,42.12,33.22,30.15,36.65,29.53,977.13,6.31,-3.60,5.97,42.17,-22.49,-150.41,"END
"
125,0,0,0,0,0,2023,10,2,13,49,29,0,0,0,3.95,3.31,4.98,4.99,41.68,34.43,30.19,36.70,29.56,977.13,6.20,-3.60,6.12,41.12,-22.43,-149.83,"END
"
126,0,0,0,0,0,2023,10,2,13,49,30,0,0,0,3.94,3.31,4.98,4.99,41.81,33.18,30.23,36.86,29.59,977.29,6.20,-3.56,5.89,42.00,-22.59,-149.98,"END
"
127,0,0,0,0,0,2023,10,2,13,49,31,0,0,0,3.94,3.30,4.98,4.99,41.92,34.25,30.28,36.91,29.62,977.35,6.20,-3.63,5.97,41.57,-22.90,-148.92,"END
"
128,0,0,0,0,0,2023,10,2,13,49,32,0,0,0,3.95,3.31,4.98,4.99,42.38,33.76,30.33,37.01,29.65,977.19,6.23,-3.56,6.08,41.51,-22.22,-148.37,"END
"
129,0,0,0,0,0,2023,10,2,13,49,33,0,0,0,3.93,3.30,4.98,4.98,42.08,34.75,30.37,37.05,29.67,977.34,6.23,-3.63,5.97,41.75,-22.83,-150.49,"END
"
130,0,0,0,0,0,2023,10,2,13,49,34,0,0,0,3.94,3.32,4.98,4.99,42.16,33.39,30.40,37.18,29.73,977.15,6.27,-3.63,5.81,42.46,-23.02,-150.77,"END
"
131,0,0,0,0,0,2023,10,2,13,49,35,0,0,0,3.93,3.30,4.98,4.99,41.62,35.34,30.45,37.23,29.77,977.11,6.23,-3.63,5.97,41.75,-22.83,-150.46,"END
"
132,0,0,0,0,0,2023,10,2,13,49,36,0,0,0,3.93,3.31,4.98,4.99,42.41,32.97,30.49,37.27,29.81,977.14,6.27,-3.63,5.93,42.05,-22.83,-150.68,"END
"
133,0,0,0,0,0,2023,10,2,13,49,37,0,0,0,3.94,3.30,4.98,4.99,41.83,34.39,30.54,37.41,29.85,976.90,6.20,-3.56,6.00,41.60,-22.40,-150.10,"END
"
134,0,0,0,0,0,2023,10,2,13,49,38,0,0,0,3.94,3.31,4.98,4.99,42.58,33.74,30.58,37.43,29.87,977.14,6.23,-3.63,5.97,41.75,-22.83,-149.86,"END
"
135,0,0,0,0,0,2023,10,2,13,49,39,0,0,0,3.94,3.30,4.98,4.99,41.66,35.20,30.62,37.56,29.91,977.28,6.23,-3.63,5.93,41.88,-22.90,-149.50,"END
"
136,0,0,0,0,0,2023,10,2,13,49,40,0,0,0,3.90,3.31,4.98,4.99,42.88,33.55,30.65,37.62,29.94,977.10,6.20,-3.67,5.97,41.49,-23.12,-149.37,"END
"
137,0,0,0,0,0,2023,10,2,13,49,41,0,0,0,3.94,3.30,4.98,4.99,42.06,35.21,30.70,37.74,29.96,977.08,6.16,-3.67,6.04,41.05,-23.05,-149.96,"END
"
138,0,0,0,0,0,2023,10,2,13,49,42,0,0,0,3.89,3.31,4.98,4.99,42.75,33.88,30.75,37.77,30.00,976.93,6.20,-3.67,5.97,41.49,-23.12,-150.86,"END
"
139,0,0,0,0,0,2023,10,2,13,49,43,0,0,0,3.93,3.30,4.98,4.99,42.62,33.99,30.80,37.82,30.02,977.39,6.23,-3.67,6.00,41.53,-22.99,-151.28,"END
"
140,0,0,0,0,0,2023,10,2,13,49,44,0,0,0,3.89,3.31,4.98,4.99,42.96,34.00,30.83,37.91,30.02,977.34,6.23,-3.60,5.93,41.96,-22.68,-149.71,"END
"
141,0,0,0,0,0,2023,10,2,13,49,45,0,0,0,3.94,3.31,4.98,4.99,42.25,34.96,30.88,37.99,30.07,976.99,6.23,-3.71,5.97,41.58,-23.26,-150.07,"END
"
142,0,0,0,0,0,2023,10,2,13,49,46,0,0,0,3.92,3.31,4.98,4.99,43.03,33.75,30.92,38.06,30.11,976.99,6.20,-3.67,6.12,40.96,-22.86,-151.15,"END
"
143,0,0,0,0,0,2023,10,2,13,49,47,0,0,0,3.94,3.30,4.98,4.99,42.72,33.04,30.97,38.16,30.19,977.14,6.23,-3.60,5.70,42.78,-23.06,-150.08,"END
"
144,0,0,0,0,0,2023,10,2,13,49,48,0,0,0,3.94,3.31,4.98,4.99,43.04,33.98,31.00,38.20,30.20,977.15,6.20,-3.63,5.97,41.57,-22.90,-151.00,"END
"
145,0,0,0,0,0,2023,10,2,13,49,49,0,0,0,3.94,3.30,4.98,4.99,42.74,35.66,31.05,38.27,30.23,977.25,6.23,-3.63,5.97,41.75,-22.83,-149.89,"END
"
146,0,0,0,0,0,2023,10,2,13,49,50,0,0,0,3.92,3.32,4.98,4.99,43.55,33.72,31.10,38.36,30.27,977.18,6.20,-3.67,6.04,41.23,-22.99,-150.40,"END
"
147,0,0,0,0,0,2023,10,2,13,49,51,0,0,0,3.94,3.30,4.98,4.99,42.96,35.08,31.14,38.42,30.31,977.12,6.16,-3.63,6.00,41.26,-22.90,-150.46,"END
"
148,0,0,0,0,0,2023,10,2,13,49,52,0,0,0,3.95,3.31,4.98,4.95,43.41,33.73,31.16,38.54,30.35,976.99,6.20,-3.63,5.93,41.70,-22.96,-150.30,"END
"
149,0,0,0,0,0,2023,10,2,13,49,53,0,0,0,3.94,3.31,4.98,4.99,42.78,35.57,31.22,38.59,30.37,976.89,6.27,-3.56,6.00,41.95,-22.28,-150.85,"END
"
150,0,0,0,0,0,2023,10,2,13,49,54,0,0,0,3.94,3.31,4.98,4.94,43.71,34.37,31.27,38.70,30.41,977.22,6.16,-3.63,6.20,40.61,-22.58,-150.53,"END
"
151,0,0,0,0,0,2023,10,2,13,49,55,0,0,0,3.94,3.30,4.98,4.99,43.38,35.38,31.30,38.80,30.45,977.05,6.20,-3.67,5.97,41.49,-23.12,-149.83,"END
"
152,0,0,0,0,0,2023,10,2,13,49,56,0,0,0,3.94,3.32,4.98,4.97,43.76,34.28,31.34,38.80,30.48,977.01,6.20,-3.67,5.93,41.62,-23.18,-149.48,"END
"
153,0,0,0,0,0,2023,10,2,13,49,57,0,0,0,3.93,3.30,4.98,4.99,43.27,35.71,31.39,38.91,30.52,977.15,6.35,-3.48,5.70,43.56,-22.19,-150.74,"END
"
154,0,0,0,0,0,2023,10,2,13,49,58,0,0,0,3.94,3.31,4.98,4.96,43.21,34.15,31.44,38.95,30.55,977.15,6.20,-3.63,6.35,40.26,-22.27,-149.12,"END
"
155,0,0,0,0,0,2023,10,2,13,49,59,0,0,0,3.93,3.30,4.98,4.99,43.41,36.03,31.46,39.02,30.58,976.96,6.20,-3.63,5.66,42.65,-23.41,-151.30,"END
"
156,0,0,0,0,0,2023,10,2,13,50,0,0,0,0,3.95,3.31,4.98,4.99,44.05,33.73,31.51,39.13,30.63,977.06,6.16,-3.56,5.97,41.56,-22.53,-150.33,"END
"
157,0,0,0,0,0,2023,10,2,13,50,1,0,0,0,3.93,3.30,4.98,4.99,43.38,36.05,31.55,39.18,30.67,977.01,6.23,-3.60,6.00,41.69,-22.56,-151.83,"END
"
158,0,0,0,0,0,2023,10,2,13,50,2,0,0,0,3.94,3.31,4.98,4.99,44.20,33.75,31.60,39.22,30.70,977.16,6.20,-3.63,5.97,41.57,-22.90,-150.29,"END
"
159,0,0,0,0,0,2023,10,2,13,50,3,0,0,0,3.91,3.30,4.98,4.99,43.48,36.58,31.64,39.31,30.72,977.04,6.20,-3.56,6.00,41.60,-22.40,-150.50,"END
"
160,0,0,0,0,0,2023,10,2,13,50,4,0,0,0,3.94,3.31,4.98,4.99,44.04,34.43,31.69,39.38,30.78,976.90,6.20,-3.63,6.08,41.17,-22.71,-148.80,"END
"
161,0,0,0,0,0,2023,10,2,13,50,5,0,0,0,3.87,3.30,4.98,4.98,44.20,36.14,31.72,39.41,30.82,977.09,6.20,-3.67,6.16,40.83,-22.80,-150.67,"END
"
162,0,0,0,0,0,2023,10,2,13,50,6,0,0,0,3.94,3.31,4.98,4.99,44.46,34.80,31.76,39.48,30.84,977.14,6.23,-3.63,5.93,41.88,-22.90,-150.43,"END
"
163,0,0,0,0,0,2023,10,2,13,50,7,0,0,0,3.94,3.31,4.98,4.99,43.55,36.65,31.82,39.57,30.86,977.14,6.20,-3.71,6.00,41.28,-23.27,-150.79,"END
"
164,0,0,0,0,0,2023,10,2,13,50,8,0,0,0,3.94,3.31,4.98,4.99,44.64,35.01,31.86,39.61,30.89,977.24,6.16,-3.63,6.04,41.13,-22.84,-150.29,"END
"
165,0,0,0,0,0,2023,10,2,13,50,9,0,0,0,3.94,3.31,4.98,4.99,43.90,36.63,31.89,39.70,30.93,976.89,6.27,-3.71,5.97,41.76,-23.20,-150.38,"END
"
166,0,0,0,0,0,2023,10,2,13,50,10,0,0,0,3.94,3.31,4.98,4.99,44.17,34.84,31.93,39.73,30.95,977.10,6.16,-3.63,5.93,41.53,-23.03,-149.71,"END
"
167,0,0,0,0,0,2023,10,2,13,50,11,0,0,0,3.94,3.31,4.98,4.98,44.33,36.06,31.95,39.82,31.03,977.06,6.16,-3.60,5.97,41.48,-22.75,-150.26,"END
"
168,0,0,0,0,0,2023,10,2,13,50,12,0,0,0,3.94,3.31,4.98,4.99,44.39,34.76,31.99,39.91,31.06,977.16,6.16,-3.79,6.12,40.55,-23.56,-150.70,"END
"
169,0,0,0,0,0,2023,10,2,13,50,13,0,0,0,3.94,3.30,4.98,4.99,44.51,36.76,32.03,39.98,31.07,977.04,6.20,-3.60,5.93,41.79,-22.75,-149.90,"END
"
170,0,0,0,0,0,2023,10,2,13,50,14,0,0,0,3.94,3.31,4.98,4.99,44.61,35.18,32.07,40.01,31.09,976.95,6.39,-3.56,6.04,42.33,-22.02,-150.84,"END
"
171,0,0,0,0,0,2023,10,2,13,50,15,0,0,0,3.94,3.30,4.98,4.95,44.52,36.27,32.12,40.09,31.13,976.93,6.16,-3.60,6.04,41.21,-22.62,-147.84,"END
"
172,0,0,0,0,0,2023,10,2,13,50,16,0,0,0,3.94,3.31,4.98,4.99,44.64,34.68,32.16,40.16,31.18,976.96,6.20,-3.71,5.97,41.41,-23.33,-150.66,"END
"
173,0,0,0,0,0,2023,10,2,13,50,17,0,0,0,3.94,3.30,4.98,4.94,44.63,36.89,32.19,40.22,31.23,976.93,6.16,-3.63,6.04,41.13,-22.84,-149.73,"END
"
174,0,0,0,0,0,2023,10,2,13,50,18,0,0,0,3.93,3.31,4.98,4.99,44.46,34.99,32.23,40.30,31.24,976.70,6.20,-3.60,5.97,41.65,-22.68,-149.49,"END
"
175,0,0,0,0,0,2023,10,2,13,50,19,0,0,0,3.94,3.30,4.98,4.99,44.17,36.25,32.28,40.37,31.29,976.56,6.16,-3.63,6.00,41.26,-22.90,-149.84,"END
"
176,0,0,0,0,0,2023,10,2,13,50,20,0,0,0,3.94,3.31,4.98,4.99,44.47,35.21,32.31,40.38,31.32,976.66,6.20,-3.71,5.97,41.41,-23.33,-150.46,"END
"
177,0,0,0,0,0,2023,10,2,13,50,21,0,0,0,3.95,3.30,4.98,4.99,44.40,36.72,32.35,40.51,31.38,976.66,6.16,-3.60,5.78,42.15,-23.07,-150.39,"END
"
178,0,0,0,0,0,2023,10,2,13,50,22,0,0,0,3.90,3.31,4.98,4.99,44.91,35.34,32.39,40.56,31.42,976.63,6.20,-3.71,5.93,41.54,-23.39,-150.80,"END
"
179,0,0,0,0,0,2023,10,2,13,50,23,0,0,0,3.94,3.31,4.98,4.99,44.50,36.49,32.41,40.58,31.45,976.27,6.16,-3.71,5.93,41.36,-23.46,-151.66,"END
"
180,0,0,0,0,0,2023,10,2,13,50,24,0,0,0,3.90,3.31,4.98,4.99,45.27,35.05,32.48,40.67,31.50,976.80,6.27,-3.48,5.85,42.65,-22.08,-150.37,"END
"
181,0,0,0,0,0,2023,10,2,13,50,25,0,0,0,3.94,3.30,4.98,4.99,45.07,33.55,32.50,40.74,31.46,976.86,6.62,-3.21,5.93,44.46,-19.88,-150.34,"END
"
182,0,0,0,0,0,2023,10,2,13,50,26,0,0,0,3.88,3.31,4.98,4.99,45.12,35.16,32.53,40.80,31.43,976.77,6.46,-3.25,5.85,44.00,-20.45,-149.79,"END
"
183,0,0,0,0,0,2023,10,2,13,50,27,0,0,0,3.94,3.30,4.98,4.99,44.83,36.31,32.56,40.88,31.41,976.67,6.46,-3.33,5.81,43.98,-20.94,-149.36,"END
"
184,0,0,0,0,0,2023,10,2,13,50,28,0,0,0,3.93,3.32,4.98,4.99,45.15,34.97,32.59,40.91,31.43,977.13,6.43,-3.02,6.00,43.71,-18.96,-148.65,"END
"
185,0,0,0,0,0,2023,10,2,13,50,29,0,0,0,3.94,3.30,4.98,4.98,45.00,35.43,32.57,40.97,31.40,977.30,6.39,-3.25,5.81,43.80,-20.63,-149.90,"END
"
186,0,0,0,0,0,2023,10,2,13,50,30,0,0,0,3.94,3.31,4.98,4.99,45.35,35.50,32.55,41.04,31.39,977.39,6.54,-3.14,5.78,44.86,-19.77,-149.33,"END
"
187,0,0,0,0,0,2023,10,2,13,50,31,0,0,0,3.95,3.30,4.98,4.98,45.46,36.16,32.52,41.05,31.38,977.26,6.39,-2.75,5.78,44.95,-17.73,-148.87,"END
"
188,0,0,0,0,0,2023,10,2,13,50,32,0,0,0,3.94,3.31,4.98,4.99,45.06,35.01,32.51,41.14,31.38,977.24,6.77,-3.17,5.74,45.92,-19.68,-149.53,"END
"
189,0,0,0,0,0,2023,10,2,13,50,33,0,0,0,3.93,3.30,4.98,4.99,45.01,36.63,32.52,41.20,31.37,977.78,6.65,-3.17,5.78,45.28,-19.81,-149.71,"END
"
190,0,0,0,0,0,2023,10,2,13,50,34,0,0,0,3.94,3.31,4.98,4.96,45.31,34.88,32.53,41.26,31.35,977.42,4.93,-2.41,4.63,43.40,-19.61,-148.39,"END
"
191,0,0,0,0,0,2023,10,2,13,50,35,0,0,0,3.94,3.30,4.98,4.99,45.64,36.28,32.56,41.34,31.37,977.96,6.58,-3.14,5.78,45.03,-19.71,-149.44,"END
"
192,0,0,0,0,0,2023,10,2,13,50,36,0,0,0,3.94,3.31,4.98,4.95,45.53,34.94,32.54,41.38,31.36,978.10,7.00,-2.64,4.97,51.19,-17.09,-147.28,"END
"
193,0,0,0,0,0,2023,10,2,13,50,37,0,0,0,3.94,3.30,4.98,4.99,45.40,36.40,32.73,41.40,31.36,988.21,6.50,-3.48,5.70,44.24,-21.93,-150.39,"END
"
194,0,0,0,0,0,2023,10,2,13,50,38,0,0,0,3.94,3.31,4.98,4.98,45.66,34.49,32.68,41.44,31.36,987.57,6.58,-3.33,5.78,44.62,-20.81,-149.33,"END
"
195,0,0,0,0,0,2023,10,2,13,50,39,0,0,0,3.94,3.30,4.98,4.99,45.43,36.25,32.64,41.53,31.37,987.28,6.54,-3.40,5.66,44.72,-21.48,-149.47,"END
"
196,0,0,0,0,0,2023,10,2,13,50,40,0,0,0,3.94,3.31,4.98,4.97,43.98,34.28,32.63,41.57,31.34,987.78,6.62,-3.29,5.81,44.73,-20.48,-149.31,"END
"
197,0,0,0,0,0,2023,10,2,13,50,41,0,0,0,3.93,3.30,4.98,4.98,45.64,36.16,32.62,41.62,31.36,987.40,6.54,-3.29,5.70,44.83,-20.77,-148.70,"END
"
198,0,0,0,0,0,2023,10,2,13,50,42,0,0,0,3.94,3.32,4.98,4.99,45.86,33.19,32.64,41.61,31.37,987.51,6.54,-3.29,5.78,44.54,-20.66,-148.71,"END
"
199,0,0,0,0,0,2023,10,2,13,50,43,0,0,0,3.93,3.30,4.98,4.99,45.56,36.07,32.64,41.69,31.33,987.49,6.65,-3.29,5.70,45.32,-20.58,-147.87,"END
"
200,0,0,0,0,0,2023,10,2,13,50,44,0,0,0,3.94,3.31,4.98,4.97,45.87,34.94,32.63,41.78,31.37,987.29,6.58,-3.37,5.66,44.97,-21.20,-149.05,"END
"
201,0,0,0,0,0,2023,10,2,13,50,45,0,0,0,3.92,3.31,4.98,4.99,45.58,36.08,32.62,41.79,31.30,987.72,6.85,-3.40,5.24,47.61,-21.55,-150.31,"END
"
202,0,0,0,0,0,2023,10,2,13,50,46,0,0,0,3.94,3.31,4.98,4.99,45.86,34.49,32.62,41.84,31.34,987.32,6.46,-3.37,5.81,43.90,-21.16,-148.55,"END
"
203,0,0,0,0,0,2023,10,2,13,50,47,0,0,0,3.94,3.30,4.98,4.99,46.47,35.62,32.62,41.89,31.35,987.59,6.54,-3.21,5.62,45.28,-20.43,-149.14,"END
"
204,0,0,0,0,0,2023,10,2,13,50,48,0,0,0,3.94,3.31,4.98,4.99,45.65,34.48,32.61,41.95,31.34,987.99,6.50,-3.44,5.70,44.32,-21.71,-148.94,"END
"
205,0,0,0,0,0,2023,10,2,13,50,49,0,0,0,3.94,3.30,4.98,4.98,45.89,36.38,32.61,41.96,31.32,988.19,6.58,-3.33,5.43,45.93,-21.31,-148.88,"END
"
206,0,0,0,0,0,2023,10,2,13,50,50,0,0,0,3.94,3.31,4.98,4.99,45.92,34.36,32.58,42.02,31.34,987.26,6.46,-3.40,5.66,44.38,-21.61,-148.97,"END
"
207,0,0,0,0,0,2023,10,2,13,50,51,0,0,0,3.94,3.30,4.98,4.99,45.56,36.24,32.57,42.07,31.35,986.96,6.54,-3.44,5.81,44.07,-21.47,-149.44,"END
"
208,0,0,0,0,0,2023,10,2,13,50,52,0,0,0,3.94,3.31,4.98,4.99,45.55,35.01,32.61,42.08,31.35,987.71,6.85,-3.21,5.74,46.16,-19.78,-147.12,"END
"
209,0,0,0,0,0,2023,10,2,13,50,53,0,0,0,3.93,3.31,4.98,4.99,45.76,36.56,32.64,42.05,31.40,989.59,6.27,-3.33,5.85,42.98,-21.20,-149.18,"END
"
210,0,0,0,0,0,2023,10,2,13,50,54,0,0,0,3.94,3.31,4.98,4.99,45.15,34.40,32.59,42.05,31.37,988.21,6.46,-3.40,5.78,43.96,-21.44,-149.95,"END
"
211,0,0,0,0,0,2023,10,2,13,50,55,0,0,0,3.94,3.30,4.98,4.99,45.44,36.12,32.63,42.02,31.37,989.79,6.46,-3.37,5.78,44.04,-21.22,-149.86,"END
"
212,0,0,0,0,0,2023,10,2,13,50,56,0,0,0,3.94,3.31,4.98,4.99,45.49,34.78,32.58,42.00,31.38,987.58,6.54,-3.37,5.70,44.66,-21.21,-149.80,"END
"
213,0,0,0,0,0,2023,10,2,13,50,57,0,0,0,3.93,3.30,4.99,4.99,46.79,36.98,32.59,42.02,31.38,987.76,6.50,-3.33,5.74,44.43,-20.99,-148.74,"END
"
214,0,0,0,0,0,2023,10,2,13,50,58,0,0,0,3.94,3.31,4.98,4.99,45.93,34.96,32.58,42.11,31.36,987.71,6.46,-3.40,5.85,43.68,-21.33,-149.43,"END
"
215,0,0,0,0,0,2023,10,2,13,50,59,0,0,0,3.93,3.30,4.98,4.93,45.51,35.91,32.59,42.20,31.39,987.51,5.93,-3.44,8.15,33.83,-18.86,-147.54,"END
"
216,0,0,0,0,0,2023,10,2,13,51,0,0,0,0,3.95,3.31,4.98,4.99,46.03,35.00,32.61,42.23,31.41,987.17,5.97,-5.89,7.00,33.11,-32.64,-144.94,"END
"
217,0,0,0,0,0,2023,10,2,13,51,1,0,0,0,3.94,3.30,4.98,4.99,45.16,36.47,32.64,42.27,31.40,989.40,6.92,-6.23,-0.80,47.76,-41.81,-126.52,"END
"
218,0,0,0,0,0,2023,10,2,13,51,2,0,0,0,3.94,3.31,4.98,4.99,45.76,34.93,32.63,42.19,31.41,988.96,-0.69,-0.69,1.99,-18.11,-18.11,-121.67,"END
"
219,0,0,0,0,0,2023,10,2,13,51,3,0,0,0,3.94,3.30,4.98,4.98,44.77,35.51,32.63,42.09,31.45,988.59,7.80,-5.09,0.15,56.89,-33.10,-127.78,"END
"
220,0,0,0,0,0,2023,10,2,13,51,4,0,0,0,3.88,3.31,4.98,4.99,45.80,35.08,32.64,42.09,31.41,988.39,9.83,0.27,-1.61,80.59,1.54,-85.56,"END
"
221,0,0,0,0,0,2023,10,2,13,51,5,0,0,0,3.94,3.31,4.98,4.99,46.63,34.65,32.51,42.10,31.43,981.51,9.22,-1.19,0.42,82.23,-7.32,-95.95,"END
"
222,0,0,0,0,0,2023,10,2,13,51,6,0,0,0,3.90,3.31,4.98,4.99,46.16,34.98,32.27,42.25,31.46,966.00,9.48,3.63,0.84,68.54,20.89,-146.52,"END
"
223,0,0,0,0,0,2023,10,2,13,51,7,0,0,0,3.95,3.29,4.98,4.99,46.78,35.40,32.55,42.31,31.52,975.97,8.30,-2.79,1.42,69.34,-18.35,-139.03,"END
"
224,0,0,0,0,0,2023,10,2,13,51,8,0,0,0,3.89,3.31,4.98,4.99,45.89,35.43,32.61,42.39,31.55,976.96,7.15,-0.42,8.53,39.95,-2.16,-153.69,"END
"
225,0,0,0,0,0,2023,10,2,13,51,9,0,0,0,3.93,3.30,4.98,4.99,46.49,36.44,32.93,42.48,31.64,989.53,1.03,-0.80,9.37,6.27,-4.87,-127.15,"END
"
226,0,0,0,0,0,2023,10,2,13,51,10,0,0,0,3.91,3.31,4.98,4.99,46.38,34.78,32.88,42.38,31.61,989.02,1.11,-0.96,9.33,6.74,-5.81,-130.27,"END
"
227,0,0,0,0,0,2023,10,2,13,51,11,0,0,0,3.94,3.30,4.98,4.99,46.31,35.76,32.87,42.29,31.64,989.60,1.11,-0.92,9.41,6.69,-5.53,-128.35,"END
"
228,0,0,0,0,0,2023,10,2,13,51,12,0,0,0,3.94,3.31,4.98,4.99,46.06,34.88,32.85,42.27,31.62,989.66,1.07,-0.84,9.33,6.52,-5.12,-127.56,"END
"
229,0,0,0,0,0,2023,10,2,13,51,13,0,0,0,3.93,3.30,4.98,4.99,46.35,36.20,32.83,42.25,31.64,989.63,1.07,-0.88,9.37,6.49,-5.33,-128.81,"END
"
230,0,0,0,0,0,2023,10,2,13,51,14,0,0,0,3.94,3.31,4.98,4.99,45.85,35.02,32.82,42.19,31.63,989.59,1.07,-0.88,9.56,6.36,-5.22,-129.89,"END
"
231,0,0,0,0,0,2023,10,2,13,51,15,0,0,0,3.92,3.30,4.98,4.99,46.30,36.41,32.81,42.17,31.63,989.53,1.11,-0.88,9.33,6.75,-5.35,-128.03,"END
"
232,0,0,0,0,0,2023,10,2,13,51,16,0,0,0,3.94,3.31,4.98,4.97,46.17,34.77,32.79,42.16,31.66,989.61,1.11,-0.96,9.37,6.72,-5.79,-129.93,"END
"
233,0,0,0,0,0,2023,10,2,13,51,17,0,0,0,3.93,3.30,4.98,4.99,46.51,36.02,32.80,42.12,31.62,989.45,1.11,-0.84,9.41,6.70,-5.08,-128.50,"END
"
234,0,0,0,0,0,2023,10,2,13,51,18,0,0,0,3.94,3.31,4.98,4.96,46.07,35.17,32.79,42.10,31.65,989.50,1.19,-0.88,9.33,7.21,-5.34,-128.19,"END
"
235,0,0,0,0,0,2023,10,2,13,51,19,0,0,0,3.94,3.31,4.98,4.99,46.41,36.34,32.80,42.06,31.65,989.60,1.15,-0.84,9.37,6.95,-5.09,-128.66,"END
"
236,0,0,0,0,0,2023,10,2,13,51,20,0,0,0,3.94,3.31,4.98,4.96,45.79,35.08,32.80,42.02,31.67,989.64,1.03,-0.92,9.41,6.23,-5.54,-127.90,"END
"
237,0,0,0,0,0,2023,10,2,13,51,21,0,0,0,3.94,3.30,4.98,4.98,45.81,36.28,32.79,42.01,31.66,989.55,1.15,-0.80,9.37,6.96,-4.86,-128.10,"END
"
238,0,0,0,0,0,2023,10,2,13,51,22,0,0,0,3.94,3.31,4.98,4.97,45.40,34.75,32.78,42.02,31.66,989.50,1.11,-0.92,9.37,6.72,-5.56,-129.30,"END
"
239,0,0,0,0,0,2023,10,2,13,51,23,0,0,0,3.94,3.30,4.98,4.99,46.42,36.55,32.80,41.95,31.68,989.54,0.99,-0.88,9.18,6.15,-5.44,-124.92,"END
"
240,0,0,0,0,0,2023,10,2,13,51,24,0,0,0,3.94,3.31,4.98,4.99,45.65,33.93,32.80,41.95,31.67,989.51,1.15,-0.92,9.26,7.03,-5.62,-125.26,"END
"
241,0,0,0,0,0,2023,10,2,13,51,25,0,0,0,3.93,3.30,4.98,4.99,45.69,36.68,32.77,41.92,31.68,989.52,1.03,-0.84,9.37,6.26,-5.10,-129.05,"END
"
242,0,0,0,0,0,2023,10,2,13,51,26,0,0,0,3.94,3.31,4.98,4.97,45.80,35.02,32.78,41.91,31.70,989.59,1.07,-0.84,9.37,6.49,-5.10,-123.79,"END
"
243,0,0,0,0,0,2023,10,2,13,51,27,0,0,0,3.92,3.30,4.98,4.98,46.56,36.70,32.76,41.89,31.71,989.50,1.07,-0.92,9.41,6.46,-5.54,-129.21,"END
"
244,0,0,0,0,0,2023,10,2,13,51,28,0,0,0,3.94,3.31,4.98,4.99,46.26,34.80,32.75,41.89,31.71,989.57,0.96,-0.88,9.14,5.94,-5.47,-129.16,"END
"
247,0,0,0,0,0,2023,10,2,13,51,31,0,0,0,3.93,3.30,4.98,4.98,45.96,36.64,32.73,41.82,31.73,989.66,1.11,-0.88,9.37,6.72,-5.33,-130.17,"END
"
248,0,0,0,0,0,2023,10,2,13,51,32,0,0,0,3.94,3.31,4.98,4.99,45.67,34.45,32.75,41.80,31.73,989.63,1.07,-0.80,9.41,6.47,-4.85,-128.71,"END
"
249,0,0,0,0,0,2023,10,2,13,51,33,0,0,0,3.93,3.30,4.98,4.99,46.14,36.41,32.74,41.77,31.73,989.48,0.96,-0.88,9.41,5.78,-5.31,-128.17,"END
"
250,0,0,0,0,0,2023,10,2,13,51,34,0,0,0,3.94,3.31,4.98,4.99,46.12,34.83,32.74,41.80,31.74,989.66,1.11,-0.92,9.29,6.77,-5.60,-128.53,"END
"
251,0,0,0,0,0,2023,10,2,13,51,35,0,0,0,3.93,3.30,4.98,4.99,46.38,36.31,32.73,41.73,31.73,989.64,1.07,-0.88,9.45,6.44,-5.29,-128.35,"END
"
252,0,0,0,0,0,2023,10,2,13,51,36,0,0,0,3.94,3.31,4.98,4.99,46.06,35.08,32.72,41.73,31.72,989.60,1.03,-0.84,9.37,6.26,-5.10,-124.97,"END
"
253,0,0,0,0,0,2023,10,2,13,51,37,0,0,0,3.93,3.30,4.98,4.99,46.33,35.92,32.72,41.69,31.73,989.55,1.07,-0.84,9.45,6.44,-5.06,-126.02,"END
"
254,0,0,0,0,0,2023,10,2,13,51,38,0,0,0,3.94,3.31,4.98,4.99,46.16,35.22,32.72,41.69,31.74,989.48,1.07,-0.80,9.41,6.47,-4.85,-127.01,"END
"
255,0,0,0,0,0,2023,10,2,13,51,39,0,0,0,3.94,3.30,4.98,4.97,45.71,36.40,32.71,41.73,31.74,989.32,1.07,-0.84,9.29,6.55,-5.14,-127.21,"END
"
256,0,0,0,0,0,2023,10,2,13,51,40,0,0,0,3.94,3.31,4.98,4.99,45.84,35.06,32.71,41.66,31.77,989.01,1.11,-0.84,9.45,6.67,-5.06,-127.41,"END
"
257,0,0,0,0,0,2023,10,2,13,51,41,0,0,0,3.94,3.30,4.98,4.95,46.46,36.80,32.70,41.66,31.77,988.75,1.07,-0.84,9.45,6.44,-5.06,-128.07,"END
"
258,0,0,0,0,0,2023,10,2,13,51,42,0,0,0,3.94,3.31,4.98,4.99,45.93,35.05,32.68,41.69,31.76,989.00,1.03,-0.88,9.41,6.24,-5.31,-126.65,"END
"
259,0,0,0,0,0,2023,10,2,13,51,43,0,0,0,3.93,3.30,4.98,4.99,45.51,36.03,32.67,41.63,31.77,988.77,1.07,-0.84,9.45,6.44,-5.06,-125.73,"END
"
260,0,0,0,0,0,2023,10,2,13,51,44,0,0,0,3.94,3.31,4.98,4.99,45.82,34.82,32.66,41.62,31.78,988.95,1.19,-0.84,9.56,7.04,-4.99,-126.46,"END
"
261,0,0,0,0,0,2023,10,2,13,51,45,0,0,0,3.93,3.30,4.98,4.99,44.92,36.03,32.68,41.62,31.77,988.92,1.03,-0.92,9.41,6.23,-5.54,-123.54,"END
"
262,0,0,0,0,0,2023,10,2,13,51,46,0,0,0,3.90,3.31,4.98,4.99,45.91,34.83,32.70,41.59,31.78,988.85,1.03,-0.84,9.48,6.19,-5.04,-125.06,"END
"
263,0,0,0,0,0,2023,10,2,13,51,47,0,0,0,3.93,3.30,4.98,4.99,46.03,35.31,32.70,41.61,31.80,989.44,1.11,-0.92,9.37,6.72,-5.56,-126.01,"END
"
264,0,0,0,0,0,2023,10,2,13,51,48,0,0,0,3.90,3.31,4.98,4.99,45.86,35.02,32.71,41.61,31.80,989.66,1.07,-0.80,9.45,6.44,-4.83,-126.09,"END
"
265,0,0,0,0,0,2023,10,2,13,51,49,0,0,0,3.93,3.30,4.98,4.98,44.93,35.39,32.71,41.55,31.81,989.47,1.11,-0.88,9.33,6.75,-5.35,-126.81,"END
"
266,0,0,0,0,0,2023,10,2,13,51,50,0,0,0,3.94,3.31,4.98,4.99,46.19,34.92,32.71,41.54,31.83,989.69,0.99,-0.38,9.45,6.00,-2.31,-124.92,"END
"
267,0,0,0,0,0,2023,10,2,13,51,51,0,0,0,3.93,3.30,4.98,4.98,45.79,36.54,32.71,41.54,31.82,989.93,0.65,-0.34,9.64,3.86,-2.04,-115.58,"END
"
268,0,0,0,0,0,2023,10,2,13,51,52,0,0,0,3.91,3.31,4.98,4.99,46.32,34.80,32.71,41.53,31.83,989.87,0.76,-0.46,9.37,4.66,-2.79,-121.78,"END
"
269,0,0,0,0,0,2023,10,2,13,51,53,0,0,0,3.93,3.30,4.98,4.99,45.68,35.45,32.70,41.51,31.80,990.05,1.30,-1.38,8.72,8.38,-8.88,-135.06,"END
"
270,0,0,0,0,0,2023,10,2,13,51,54,0,0,0,3.93,3.31,4.98,4.99,45.76,34.79,32.69,41.53,31.83,989.38,0.99,-0.76,9.48,5.97,-4.59,-124.31,"END
"
271,0,0,0,0,0,2023,10,2,13,51,55,0,0,0,3.94,3.30,4.98,4.99,45.81,36.62,32.68,41.48,31.84,989.47,0.99,-0.80,9.41,6.01,-4.85,-125.19,"END
"
272,0,0,0,0,0,2023,10,2,13,51,56,0,0,0,3.91,3.31,4.98,4.99,45.76,35.24,32.69,41.45,31.83,989.48,0.96,-0.76,9.37,5.81,-4.64,-125.49,"END
"
273,0,0,0,0,0,2023,10,2,13,51,57,0,0,0,3.93,3.30,4.98,4.99,46.01,36.52,32.69,41.49,31.86,989.41,0.96,-0.80,9.41,5.78,-4.85,-127.93,"END
"
274,0,0,0,0,0,2023,10,2,13,51,58,0,0,0,3.94,3.31,4.98,4.95,45.93,35.01,32.68,41.44,31.86,989.53,1.07,-0.69,9.45,6.45,-4.14,-126.68,"END
"
275,0,0,0,0,0,2023,10,2,13,51,59,0,0,0,3.94,3.30,4.98,4.99,45.43,36.07,32.69,41.48,31.87,989.43,0.99,-0.80,9.41,6.01,-4.85,-125.77,"END
"
276,0,0,0,0,0,2023,10,2,13,52,0,0,0,0,3.94,3.31,4.98,4.99,45.89,35.10,32.71,41.41,31.85,989.56,0.99,-0.76,9.37,6.04,-4.64,-127.33,"END
"
277,0,0,0,0,0,2023,10,2,13,52,1,0,0,0,3.93,3.30,4.98,4.99,46.53,36.34,32.70,41.45,31.87,989.32,0.96,-0.76,9.41,5.78,-4.62,-125.41,"END
"
278,0,0,0,0,0,2023,10,2,13,52,2,0,0,0,3.94,3.31,4.98,4.99,45.74,35.39,32.69,41.45,31.87,989.05,0.99,-0.80,9.41,6.01,-4.85,-128.08,"END
"
279,0,0,0,0,0,2023,10,2,13,52,3,0,0,0,3.93,3.31,4.98,4.99,45.67,36.59,32.68,41.41,31.89,989.09,0.99,-0.80,9.33,6.06,-4.89,-128.02,"END
"
280,0,0,0,0,0,2023,10,2,13,52,4,0,0,0,3.94,3.31,4.98,4.96,45.40,35.17,32.69,41.38,31.87,989.31,0.99,-0.76,9.37,6.04,-4.64,-123.91,"END
"
281,0,0,0,0,0,2023,10,2,13,52,5,0,0,0,3.93,3.30,4.98,4.99,46.71,36.49,32.66,41.39,31.91,989.28,0.99,-0.84,9.41,6.01,-5.08,-128.40,"END
"
282,0,0,0,0,0,2023,10,2,13,52,6,0,0,0,3.94,3.31,4.98,4.99,46.00,34.68,32.65,41.38,31.86,989.14,1.03,-0.76,9.41,6.24,-4.62,-127.21,"END
"
283,0,0,0,0,0,2023,10,2,13,52,7,0,0,0,3.93,3.30,4.98,4.99,45.92,36.42,32.66,41.40,31.89,989.38,0.99,-0.80,9.45,5.99,-4.83,-126.18,"END
"
284,0,0,0,0,0,2023,10,2,13,52,8,0,0,0,3.94,3.31,4.98,4.96,46.28,35.04,32.63,41.41,31.86,989.29,1.03,-0.84,9.41,6.24,-5.08,-127.80,"END
"
285,0,0,0,0,0,2023,10,2,13,52,9,0,0,0,3.92,3.30,4.98,4.99,46.49,36.35,32.64,41.38,31.83,989.33,1.11,-0.76,9.41,6.70,-4.62,-126.93,"END
"
286,0,0,0,0,0,2023,10,2,13,52,10,0,0,0,3.94,3.31,4.98,4.99,45.60,35.04,32.64,41.41,31.83,989.38,0.96,-0.76,9.37,5.81,-4.64,-125.92,"END
"
287,0,0,0,0,0,2023,10,2,13,52,11,0,0,0,3.89,3.30,4.98,4.98,46.70,36.31,32.65,41.38,31.85,989.40,1.03,-0.84,9.48,6.19,-5.04,-125.22,"END
"
288,0,0,0,0,0,2023,10,2,13,52,12,0,0,0,3.94,3.31,4.98,4.99,45.98,34.61,32.67,41.41,31.87,989.40,0.96,-0.76,9.48,5.74,-4.59,-124.93,"END
"
289,0,0,0,0,0,2023,10,2,13,52,13,0,0,0,3.93,3.31,4.98,4.99,46.63,36.56,32.65,41.36,31.87,989.31,1.03,-0.76,9.37,6.27,-4.64,-125.04,"END
"
290,0,0,0,0,0,2023,10,2,13,52,14,0,0,0,3.94,3.31,4.98,4.99,45.76,34.24,32.63,41.37,31.87,989.08,0.96,-0.80,9.33,5.83,-4.89,-126.47,"END
"
291,0,0,0,0,0,2023,10,2,13,52,15,0,0,0,3.93,3.30,4.98,4.99,46.16,36.22,32.65,41.38,31.89,989.32,1.03,-0.76,9.41,6.24,-4.62,-125.49,"END
"
292,0,0,0,0,0,2023,10,2,13,52,16,0,0,0,3.94,3.31,4.98,4.99,45.68,34.63,32.64,41.38,31.87,989.39,0.99,-0.76,9.41,6.01,-4.62,-123.35,"END
"
293,0,0,0,0,0,2023,10,2,13,52,17,0,0,0,3.93,3.30,4.98,4.99,45.92,36.83,32.64,41.40,31.91,989.08,0.99,-0.84,9.41,6.01,-5.08,-126.80,"END
"
294,0,0,0,0,0,2023,10,2,13,52,18,0,0,0,3.94,3.31,4.98,4.99,45.86,35.09,32.64,41.38,31.88,989.15,0.92,-0.76,9.56,5.47,-4.55,-123.82,"END
"
295,0,0,0,0,0,2023,10,2,13,52,19,0,0,0,3.93,3.30,4.98,4.98,46.15,36.29,32.63,41.38,31.91,989.53,0.92,-0.80,9.29,5.62,-4.92,-127.40,"END
"
296,0,0,0,0,0,2023,10,2,13,52,20,0,0,0,3.94,3.31,4.98,4.99,46.06,34.59,32.64,41.32,31.90,989.35,1.07,-0.80,9.33,6.52,-4.89,-125.52,"END
"
297,0,0,0,0,0,2023,10,2,13,52,21,0,0,0,3.93,3.30,4.98,4.95,46.02,36.55,32.63,41.38,31.90,989.48,1.03,-0.80,9.41,6.24,-4.85,-127.29,"END
"
298,0,0,0,0,0,2023,10,2,13,52,22,0,0,0,3.94,3.31,4.98,4.99,45.79,34.94,32.64,41.32,31.90,989.51,0.99,-0.76,9.41,6.01,-4.62,-125.79,"END
"
299,0,0,0,0,0,2023,10,2,13,52,23,0,0,0,3.93,3.30,4.98,4.93,46.75,36.34,32.64,41.31,31.91,989.45,0.99,-0.80,9.29,6.08,-4.91,-127.86,"END
"
300,0,0,0,0,0,2023,10,2,13,52,24,0,0,0,3.94,3.31,4.98,4.99,46.15,35.32,32.64,41.36,31.91,989.46,0.96,-0.76,9.48,5.74,-4.59,-125.81,"END
"
301,0,0,0,0,0,2023,10,2,13,52,25,0,0,0,3.93,3.30,4.98,4.99,45.99,36.61,32.63,41.32,31.91,989.66,1.03,-0.69,9.45,6.22,-4.14,-127.15,"END
"
302,0,0,0,0,0,2023,10,2,13,52,26,0,0,0,3.94,3.31,4.98,4.99,45.93,35.02,32.63,41.29,31.95,989.53,0.92,-0.76,9.22,5.67,-4.72,-124.36,"END
"
303,0,0,0,0,0,2023,10,2,13,52,27,0,0,0,3.93,3.30,4.98,4.98,44.58,36.04,32.64,41.27,31.94,989.50,1.07,-0.80,9.45,6.44,-4.83,-126.44,"END
"
304,0,0,0,0,0,2023,10,2,13,52,28,0,0,0,3.90,3.31,4.98,4.99,45.89,35.01,32.64,41.31,31.94,989.53,1.03,-0.84,9.37,6.26,-5.10,-126.89,"END
"
305,0,0,0,0,0,2023,10,2,13,52,29,0,0,0,3.94,3.30,4.98,4.99,45.44,36.13,32.65,41.29,31.95,989.61,1.07,-0.80,9.33,6.52,-4.89,-128.44,"END
"
306,0,0,0,0,0,2023,10,2,13,52,30,0,0,0,3.90,3.31,4.98,4.99,45.84,34.72,32.65,41.30,31.97,989.61,1.03,-0.69,9.41,6.25,-4.16,-125.14,"END
"
307,0,0,0,0,0,2023,10,2,13,52,31,0,0,0,3.94,3.30,4.98,4.98,45.72,35.22,32.66,41.27,31.98,989.46,1.07,-0.76,9.71,6.27,-4.48,-127.50,"END
"
308,0,0,0,0,0,2023,10,2,13,52,32,0,0,0,3.91,3.31,4.98,4.99,46.03,35.15,32.65,41.30,31.98,989.61,0.96,-0.80,9.45,5.76,-4.84,-125.58,"END
"
309,0,0,0,0,0,2023,10,2,13,52,33,0,0,0,3.94,3.30,4.98,4.99,46.34,36.55,32.66,41.27,31.97,989.49,0.99,-0.73,9.71,5.83,-4.26,-126.18,"END
"
310,0,0,0,0,0,2023,10,2,13,52,34,0,0,0,3.91,3.31,4.98,4.99,46.08,34.79,32.67,41.25,31.98,989.61,0.96,-0.80,9.37,5.81,-4.87,-126.66,"END
"
311,0,0,0,0,0,2023,10,2,13,52,35,0,0,0,3.93,3.31,4.98,4.99,46.01,34.66,32.68,41.26,31.99,989.44,1.03,-0.76,9.37,6.27,-4.64,-126.03,"END
"
312,0,0,0,0,0,2023,10,2,13,52,36,0,0,0,3.94,3.31,4.98,4.99,45.73,34.65,32.66,41.29,32.01,989.61,1.07,-0.80,9.52,6.39,-4.79,-128.45,"END
"
313,0,0,0,0,0,2023,10,2,13,52,37,0,0,0,3.93,3.30,4.98,4.99,46.32,36.52,32.69,41.27,32.01,989.59,0.99,-0.84,9.45,5.99,-5.06,-126.02,"END
"
314,0,0,0,0,0,2023,10,2,13,52,38,0,0,0,3.94,3.31,4.98,4.99,46.11,35.33,32.68,41.25,32.04,989.59,1.07,-0.69,9.37,6.50,-4.17,-126.00,"END
"
315,0,0,0,0,0,2023,10,2,13,52,39,0,0,0,3.93,3.30,4.98,4.99,46.33,36.58,32.69,41.27,32.04,989.52,0.96,-0.84,9.56,5.69,-5.00,-126.30,"END
"
316,0,0,0,0,0,2023,10,2,13,52,40,0,0,0,3.94,3.31,4.98,4.95,46.24,34.80,32.70,41.24,32.04,989.78,1.03,-0.76,9.45,6.22,-4.60,-125.07,"END
"
317,0,0,0,0,0,2023,10,2,13,52,41,0,0,0,3.93,3.30,4.98,4.99,46.48,36.67,32.70,41.23,32.04,989.55,1.03,-0.80,9.45,6.22,-4.83,-125.40,"END
"
318,0,0,0,0,0,2023,10,2,13,52,42,0,0,0,3.94,3.31,4.98,4.99,45.98,35.31,32.71,41.23,32.03,989.54,1.07,-0.76,9.37,6.50,-4.64,-128.07,"END
"
319,0,0,0,0,0,2023,10,2,13,52,43,0,0,0,3.93,3.30,4.98,4.99,45.65,36.72,32.72,41.20,32.03,989.56,1.03,-0.80,9.41,6.24,-4.85,-125.74,"END
"
320,0,0,0,0,0,2023,10,2,13,52,44,0,0,0,3.94,3.31,4.98,4.96,45.64,35.28,32.71,41.22,32.05,989.57,1.11,-0.84,9.41,6.70,-5.08,-125.04,"END
"
321,0,0,0,0,0,2023,10,2,13,52,45,0,0,0,3.93,3.30,4.98,4.98,45.72,36.51,32.72,41.20,32.05,989.61,1.07,-0.84,9.48,6.42,-5.04,-125.45,"END
"
322,0,0,0,0,0,2023,10,2,13,52,46,0,0,0,3.94,3.31,4.98,4.97,45.26,35.06,32.71,41.22,32.09,989.40,1.03,-0.80,9.56,6.14,-4.77,-127.61,"END
"
323,0,0,0,0,0,2023,10,2,13,52,47,0,0,0,3.94,3.30,4.98,4.99,46.35,36.11,32.72,41.21,32.07,989.35,1.07,-0.80,9.64,6.32,-4.73,-126.92,"END
"
324,0,0,0,0,0,2023,10,2,13,52,48,0,0,0,3.94,3.31,4.98,4.99,45.93,34.73,32.71,41.18,32.07,989.13,0.99,-0.76,9.41,6.01,-4.62,-127.06,"END
"
325,0,0,0,0,0,2023,10,2,13,52,49,0,0,0,3.91,3.30,4.98,4.99,45.98,36.47,32.72,41.21,32.09,988.95,0.99,-0.80,9.41,6.01,-4.85,-125.80,"END
"
326,0,0,0,0,0,2023,10,2,13,52,50,0,0,0,3.94,3.31,4.98,4.96,46.07,35.27,32.72,41.17,32.12,989.12,0.92,-0.73,9.45,5.53,-4.38,-124.42,"END
"
327,0,0,0,0,0,2023,10,2,13,52,51,0,0,0,3.87,3.30,4.98,4.99,46.45,36.69,32.74,41.22,32.11,989.52,0.96,-0.73,9.41,5.79,-4.39,-127.20,"END
"
328,0,0,0,0,0,2023,10,2,13,52,52,0,0,0,3.93,3.31,4.98,4.99,45.89,35.36,32.73,41.19,32.13,989.28,0.99,-0.80,9.33,6.06,-4.89,-126.03,"END
"
329,0,0,0,0,0,2023,10,2,13,52,53,0,0,0,3.87,3.30,4.98,4.99,46.33,36.74,32.74,41.20,32.12,989.43,1.03,-0.76,9.37,6.27,-4.64,-126.25,"END
"
330,0,0,0,0,0,2023,10,2,13,52,54,0,0,0,3.94,3.32,4.98,4.99,46.06,34.83,32.76,41.23,32.10,989.51,1.03,-0.76,9.06,6.48,-4.79,-126.84,"END
"
331,0,0,0,0,0,2023,10,2,13,52,55,0,0,0,3.93,3.30,4.98,4.99,46.21,36.53,32.74,41.19,32.13,989.33,1.03,-0.76,9.45,6.22,-4.60,-125.66,"END
"
332,0,0,0,0,0,2023,10,2,13,52,56,0,0,0,3.94,3.31,4.98,4.99,45.99,35.37,32.76,41.19,32.13,989.36,1.03,-0.80,9.45,6.22,-4.83,-127.21,"END
"
333,0,0,0,0,0,2023,10,2,13,52,57,0,0,0,3.92,3.31,4.98,4.99,46.86,36.61,32.77,41.22,32.15,989.30,1.07,-0.84,9.37,6.49,-5.10,-125.12,"END
"
334,0,0,0,0,0,2023,10,2,13,52,58,0,0,0,3.94,3.31,4.98,4.99,45.84,35.71,32.77,41.18,32.15,989.31,1.03,-0.69,9.06,6.48,-4.32,-125.45,"END
"
335,0,0,0,0,0,2023,10,2,13,52,59,0,0,0,3.93,3.30,4.98,4.98,46.40,36.88,32.76,41.19,32.12,989.07,0.99,-0.80,9.60,5.89,-4.76,-125.19,"END
"
336,0,0,0,0,0,2023,10,2,13,53,0,0,0,0,3.93,3.31,4.98,4.99,45.95,35.20,32.78,41.22,32.20,989.23,0.92,-0.76,9.41,5.55,-4.63,-123.98,"END
"
337,0,0,0,0,0,2023,10,2,13,53,1,0,0,0,3.94,3.30,4.98,4.99,47.05,36.28,32.78,41.24,32.16,989.26,1.03,-0.73,9.45,6.22,-4.37,-125.24,"END
"
338,0,0,0,0,0,2023,10,2,13,53,2,0,0,0,3.94,3.31,4.98,4.99,46.35,35.06,32.78,41.20,32.16,989.01,1.07,-0.76,9.37,6.50,-4.64,-126.45,"END
"
339,0,0,0,0,0,2023,10,2,13,53,3,0,0,0,3.94,3.30,4.98,4.96,45.18,36.47,32.79,41.23,32.18,988.96,0.92,-0.84,9.48,5.51,-5.05,-125.83,"END
"
340,0,0,0,0,0,2023,10,2,13,53,4,0,0,0,3.94,3.31,4.98,4.99,45.99,35.27,32.79,41.20,32.18,988.93,0.99,-0.80,9.41,6.01,-4.85,-123.10,"END
"
341,0,0,0,0,0,2023,10,2,13,53,5,0,0,0,3.93,3.30,4.98,4.97,45.94,36.37,32.79,41.23,32.21,988.88,0.99,-0.80,9.52,5.94,-4.79,-124.20,"END
"
342,0,0,0,0,0,2023,10,2,13,53,6,0,0,0,3.94,3.31,4.98,4.99,45.69,35.22,32.83,41.20,32.20,989.46,0.96,-0.69,9.37,5.81,-4.18,-125.32,"END
"
343,0,0,0,0,0,2023,10,2,13,53,7,0,0,0,3.93,3.30,4.98,4.98,44.90,36.97,32.81,41.22,32.21,989.47,1.07,-0.76,9.45,6.45,-4.60,-125.66,"END
"
344,0,0,0,0,0,2023,10,2,13,53,8,0,0,0,3.93,3.31,4.98,4.99,45.75,35.40,32.82,41.23,32.21,989.41,0.99,-0.76,9.18,6.16,-4.74,-126.24,"END
"
345,0,0,0,0,0,2023,10,2,13,53,9,0,0,0,3.94,3.30,4.99,4.99,44.91,36.48,32.82,41.21,32.22,989.48,0.99,-0.84,9.41,6.01,-5.08,-127.95,"END
"
346,0,0,0,0,0,2023,10,2,13,53,10,0,0,0,3.89,3.31,4.98,4.99,46.27,34.98,32.82,41.21,32.23,989.58,1.03,-0.76,9.64,6.10,-4.51,-124.16,"END
"
347,0,0,0,0,0,2023,10,2,13,53,11,0,0,0,3.93,3.30,4.98,4.98,45.59,36.32,32.84,41.24,32.25,989.56,1.11,-0.80,9.41,6.70,-4.85,-125.78,"END
"
348,0,0,0,0,0,2023,10,2,13,53,12,0,0,0,3.93,3.31,4.98,4.99,45.98,35.08,32.83,41.24,32.27,989.47,1.30,-0.76,9.37,7.87,-4.62,-127.09,"END
"
349,0,0,0,0,0,2023,10,2,13,53,13,0,0,0,3.93,3.30,4.98,4.99,45.94,35.19,32.85,41.20,32.23,989.60,0.99,-0.80,9.41,6.01,-4.85,-123.76,"END
"
350,0,0,0,0,0,2023,10,2,13,53,14,0,0,0,3.90,3.31,4.98,4.99,46.08,35.13,32.85,41.20,32.26,989.90,1.07,-0.80,9.41,6.47,-4.85,-127.44,"END
"
351,0,0,0,0,0,2023,10,2,13,53,15,0,0,0,3.94,3.30,4.98,4.98,46.14,36.40,32.85,41.21,32.27,989.26,1.03,-0.84,9.37,6.26,-5.10,-126.23,"END
"
352,0,0,0,0,0,2023,10,2,13,53,16,0,0,0,3.90,3.31,4.98,4.99,46.11,35.36,32.83,41.20,32.25,989.26,1.03,-0.80,9.33,6.29,-4.89,-128.16,"END
"
353,0,0,0,0,0,2023,10,2,13,53,17,0,0,0,3.93,3.30,4.98,4.99,46.63,35.63,32.86,41.20,32.25,989.50,1.07,-0.80,9.41,6.47,-4.85,-126.16,"END
"
354,0,0,0,0,0,2023,10,2,13,53,18,0,0,0,3.94,3.31,4.98,4.99,45.91,35.22,32.86,41.23,32.27,989.45,1.03,-0.76,9.41,6.24,-4.62,-127.13,"END
"
355,0,0,0,0,0,2023,10,2,13,53,19,0,0,0,3.94,3.31,4.98,4.99,46.19,36.75,32.87,41.22,32.27,989.29,1.07,-0.84,9.45,6.44,-5.06,-126.89,"END
"
356,0,0,0,0,0,2023,10,2,13,53,20,0,0,0,3.94,3.31,4.98,4.99,45.83,34.85,32.88,41.24,32.27,989.57,1.03,-0.80,9.45,6.22,-4.83,-123.46,"END
"
357,0,0,0,0,0,2023,10,2,13,53,21,0,0,0,3.92,3.30,4.98,4.99,46.53,36.91,32.88,41.24,32.30,989.63,1.03,-0.73,9.60,6.12,-4.30,-125.25,"END
"
358,0,0,0,0,0,2023,10,2,13,53,22,0,0,0,3.94,3.31,4.98,4.95,46.12,35.42,32.89,41.21,32.30,989.62,0.99,-0.73,9.37,6.04,-4.41,-126.04,"END
"
359,0,0,0,0,0,2023,10,2,13,53,23,0,0,0,3.93,3.30,4.98,4.99,46.12,37.03,32.89,41.23,32.28,989.52,1.03,-0.80,9.37,6.27,-4.87,-126.36,"END
"
360,0,0,0,0,0,2023,10,2,13,53,24,0,0,0,3.94,3.31,4.98,4.98,46.21,35.41,32.90,41.19,32.28,989.67,1.07,-0.80,9.41,6.47,-4.85,-125.24,"END
"
361,0,0,0,0,0,2023,10,2,13,53,25,0,0,0,3.93,3.30,4.98,4.99,46.74,36.83,32.89,41.20,32.28,989.31,1.03,-0.69,9.41,6.25,-4.16,-127.17,"END
"
362,0,0,0,0,0,2023,10,2,13,53,26,0,0,0,3.94,3.31,4.98,4.95,46.28,35.22,32.87,41.20,32.31,989.51,0.99,-0.84,9.37,6.03,-5.10,-125.00,"END
"
363,0,0,0,0,0,2023,10,2,13,53,27,0,0,0,3.93,3.30,4.98,4.99,46.24,36.88,32.87,41.22,32.31,989.52,1.07,-0.76,9.37,6.50,-4.64,-125.75,"END
"
Packet Number,SIV,FixType,Latitude,Longitude,Altitude,Year,Month,Day,Hour,Min,Sec,NNV,NEV,NDV,Battery,3v3 Supply,5v Supply,Radio Supply,Analog Internal,Analog External,Altimeter Temp,Digital Internal,Digital Eternal,Pressure,Accel A,Accel Y,Accel z,Pitch,Roll,Yaw
415,0,0,448543827,-473906790,10593169,2023,10,2,13,54,19,0,0,0,3.93,3.30,4.98,4.99,46.11,36.88,33.08,41.28,32.58,989.46,1.11,-0.73,9.33,6.76,-4.42,-125.57,"END
"
416,0,0,448563342,-473846038,10593897,2023,10,2,13,54,20,0,0,0,3.94,3.31,4.98,4.99,45.87,35.80,33.08,41.29,32.58,989.49,1.03,-0.76,9.06,6.48,-4.79,-126.33,"END
"
417,0,0,448582848,-473785281,10594625,2023,10,2,13,54,21,0,0,0,3.92,3.30,4.98,4.99,46.79,37.20,33.10,41.31,32.59,989.60,1.07,-0.84,9.37,6.49,-5.10,-127.27,"END
"
418,0,0,448602344,-473724518,10595353,2023,10,2,13,54,22,0,0,0,3.93,3.31,4.98,4.99,46.06,35.48,33.08,41.27,32.59,989.59,0.99,-0.76,9.14,6.19,-4.76,-124.97,"END
"
419,0,0,448621831,-473663751,10596080,2023,10,2,13,54,23,0,0,0,3.93,3.30,4.98,4.99,45.97,37.29,33.09,41.30,32.60,989.61,0.96,-0.76,9.41,5.78,-4.62,-126.82,"END
"
420,0,0,448641309,-473602979,10596807,2023,10,2,13,54,24,0,0,0,3.93,3.31,4.98,4.99,46.03,36.03,33.10,41.30,32.61,989.61,1.03,-0.80,9.41,6.24,-4.85,-124.41,"END
"
421,0,0,444635011,-476234037,10447307,2023,10,2,13,54,25,0,0,0,3.93,3.30,4.98,4.99,46.19,37.06,33.11,41.26,32.65,989.61,1.15,-0.76,9.45,6.90,-4.60,-127.12,"END
"
422,0,0,444361876,-476370293,10437116,2023,10,2,13,54,26,0,0,0,3.93,3.31,4.98,4.99,46.17,35.72,33.12,41.25,32.64,989.60,0.99,-0.80,9.33,6.06,-4.89,-125.21,"END
"
423,0,0,442473177,-477575233,10366657,2023,10,2,13,54,27,0,0,0,3.94,3.30,4.98,4.96,46.00,36.93,33.13,41.27,32.63,989.53,0.99,-0.84,9.41,6.01,-5.08,-125.15,"END
"
424,0,0,446614408,-474776777,10521165,2023,10,2,13,54,28,0,0,0,3.94,3.31,4.98,4.99,46.09,35.78,33.12,41.34,32.63,989.60,0.99,-0.69,9.45,5.99,-4.15,-126.42,"END
"
425,0,0,446634919,-474716731,10521931,2023,10,2,13,54,29,0,0,0,3.93,3.29,4.98,4.96,46.28,37.20,33.11,41.31,32.63,989.56,0.96,-0.84,9.56,5.69,-5.00,-125.62,"END
"
426,0,0,446655422,-474656680,10522696,2023,10,2,13,54,30,0,0,0,3.93,3.31,4.98,4.99,45.91,35.42,33.12,41.26,32.60,989.49,1.03,-0.76,9.41,6.24,-4.62,-126.04,"END
"
427,0,0,448777384,-473177431,10601886,2023,10,2,13,54,31,0,0,0,3.93,3.30,4.98,4.99,45.21,37.02,33.13,41.33,32.65,989.50,1.03,-0.84,9.41,6.24,-5.08,-126.08,"END
"
428,0,0,448796785,-473116618,10602610,2023,10,2,13,54,32,0,0,0,3.93,3.31,4.98,4.99,45.87,35.71,33.13,41.30,32.64,989.63,1.03,-0.76,9.37,6.27,-4.64,-126.69,"END
"
429,0,0,448816177,-473055801,10603333,2023,10,2,13,54,33,0,0,0,3.93,3.30,4.98,4.99,44.90,36.76,33.14,41.34,32.64,989.66,1.07,-0.69,9.52,6.40,-4.11,-124.51,"END
"
430,0,0,446737337,-474416423,10525753,2023,10,2,13,54,34,0,0,0,3.91,3.31,4.98,4.99,45.95,35.77,33.16,41.31,32.66,989.89,0.99,-0.80,9.45,5.99,-4.83,-124.11,"END
"
431,0,0,446757792,-474356345,10526516,2023,10,2,13,54,35,0,0,0,3.92,3.31,4.98,4.99,45.03,37.33,33.15,41.28,32.67,989.94,0.96,-0.76,9.41,5.78,-4.62,-124.56,"END
"
432,0,0,446778238,-474296262,10527279,2023,10,2,13,54,36,0,0,0,3.93,3.31,4.98,4.99,45.55,35.73,33.15,41.28,32.69,989.65,0.99,-0.73,9.37,6.04,-4.41,-124.83,"END
"
433,0,0,444892653,-475521515,10456920,2023,10,2,13,54,37,0,0,0,3.94,3.31,4.98,4.99,45.83,36.14,33.16,41.30,32.70,989.58,1.03,-0.80,9.41,6.24,-4.85,-126.74,"END
"
434,0,0,448912994,-472751637,10606947,2023,10,2,13,54,38,0,0,0,3.88,3.31,4.98,4.99,45.89,35.85,33.15,41.30,32.69,989.58,1.07,-0.76,9.41,6.47,-4.62,-125.87,"END
"
435,0,0,448932328,-472690789,10607668,2023,10,2,13,54,39,0,0,0,3.93,3.30,4.98,4.99,45.81,36.86,33.17,41.29,32.69,989.76,0.99,-0.73,9.41,6.02,-4.39,-123.80,"END
"
436,0,0,448951654,-472629936,10608390,2023,10,2,13,54,40,0,0,0,3.86,3.31,4.98,4.99,46.29,35.43,33.16,41.28,32.70,989.49,1.03,-0.84,9.37,6.26,-5.10,-126.81,"END
"
437,0,0,446880326,-473995768,10531089,2023,10,2,13,54,41,0,0,0,3.93,3.30,4.98,4.98,45.77,37.20,33.17,41.34,32.72,989.56,1.03,-0.76,9.41,6.24,-4.62,-124.15,"END
"
438,0,0,446900715,-473935653,10531849,2023,10,2,13,54,42,0,0,0,3.93,3.32,4.98,4.99,45.76,35.28,33.18,41.34,32.71,989.53,0.99,-0.76,9.33,6.06,-4.66,-125.17,"END
"
439,0,0,444728879,-475362333,10450809,2023,10,2,13,54,43,0,0,0,3.93,3.30,4.98,4.98,46.91,37.04,33.18,41.30,32.71,989.59,0.92,-0.80,9.10,5.74,-5.02,-124.01,"END
"
440,0,0,442856632,-476578696,10380961,2023,10,2,13,54,44,0,0,0,3.92,3.31,4.98,4.99,45.64,35.94,33.19,41.30,32.72,989.64,1.03,-0.76,9.45,6.22,-4.60,-127.15,"END
"
441,0,0,442879106,-476520023,10381799,2023,10,2,13,54,45,0,0,0,3.93,3.30,4.98,4.99,46.12,37.00,33.18,41.35,32.72,989.70,1.03,-0.76,9.37,6.27,-4.64,-125.80,"END
"
442,0,0,438201558,-479594773,10207365,2023,10,2,13,54,46,0,0,0,3.94,3.31,4.98,4.98,46.00,35.99,33.18,41.35,32.73,989.48,1.07,-0.69,9.41,6.48,-4.16,-125.90,"END
"
443,0,0,433026469,-482944682,10014543,2023,10,2,13,54,47,0,0,0,3.93,3.31,4.98,4.99,45.89,37.13,33.19,41.35,32.73,989.58,0.99,-0.76,9.41,6.01,-4.62,-125.98,"END
"
444,0,0,430241672,-484707101,9910876,2023,10,2,13,54,48,0,0,0,3.93,3.31,4.98,4.98,46.06,35.98,33.20,41.35,32.74,989.52,1.03,-0.88,9.52,6.16,-5.25,-127.67,"END
"
445,0,0,433081518,-482834317,10016593,2023,10,2,13,54,49,0,0,0,3.93,3.31,4.98,4.99,46.26,37.29,33.19,41.32,32.74,989.54,1.03,-0.73,9.45,6.22,-4.37,-124.46,"END
"
446,0,0,438913200,-478959963,10233896,2023,10,2,13,54,50,0,0,0,3.93,3.31,4.98,4.95,46.00,35.91,33.22,41.34,32.77,989.61,1.07,-0.73,9.45,6.45,-4.37,-126.23,"END
"
447,0,0,443013755,-476167864,10386822,2023,10,2,13,54,51,0,0,0,3.92,3.30,4.98,4.99,46.65,37.20,33.22,41.34,32.77,989.73,0.99,-0.69,9.33,6.07,-4.20,-126.36,"END
"
448,0,0,445212823,-474629732,10468866,2023,10,2,13,54,52,0,0,0,3.93,3.31,4.98,4.95,45.46,35.81,33.21,41.34,32.78,989.43,1.07,-0.76,9.41,6.47,-4.62,-126.09,"END
"
449,0,0,443058564,-476050431,10388494,2023,10,2,13,54,53,0,0,0,3.93,3.30,4.98,4.99,46.21,37.24,33.21,41.39,32.76,989.48,1.03,-0.84,9.45,6.21,-5.06,-127.20,"END
"
450,0,0,433218988,-482558280,10021713,2023,10,2,13,54,54,0,0,0,3.94,3.31,4.98,4.99,45.49,35.21,33.22,41.38,32.78,989.50,0.99,-0.80,9.37,6.04,-4.87,-123.52,"END
"
451,0,0,431512826,-483633991,9958187,2023,10,2,13,54,55,0,0,0,3.93,3.30,4.98,4.98,46.00,37.18,33.22,41.38,32.80,989.96,1.07,-0.76,9.41,6.47,-4.62,-125.95,"END
"
452,0,0,430473060,-484273338,9919487,2023,10,2,13,54,56,0,0,0,3.93,3.31,4.98,4.98,45.65,35.82,33.21,41.38,32.80,989.35,1.11,-0.84,9.22,6.83,-5.18,-127.82,"END
"
453,0,0,454401441,-467989556,10811794,2023,10,2,13,54,57,0,0,0,3.88,3.30,4.98,4.99,46.62,37.34,33.21,41.36,32.79,989.63,0.99,-0.76,9.45,5.99,-4.60,-124.71,"END
"
454,0,0,451274171,-470150093,10695072,2023,10,2,13,54,58,0,0,0,3.94,3.31,4.98,4.99,45.95,35.22,33.22,41.36,32.75,989.63,1.03,-0.73,9.41,6.25,-4.39,-124.74,"END
"
455,0,0,447245898,-472912890,10544731,2023,10,2,13,54,59,0,0,0,3.89,3.30,4.98,4.99,46.49,36.62,33.21,41.36,32.80,989.71,0.99,-0.76,9.41,6.01,-4.62,-125.35,"END
"
456,0,0,446313521,-473511854,10509937,2023,10,2,13,55,0,0,0,0,3.93,3.31,4.98,4.99,46.13,35.27,33.24,41.36,32.79,989.65,0.84,-0.76,9.41,5.09,-4.63,-124.76,"END
"
457,0,0,451328462,-469965106,10697099,2023,10,2,13,55,1,0,0,0,3.93,3.30,4.98,4.99,46.22,37.78,33.25,41.37,32.79,989.64,0.99,-0.73,9.45,5.99,-4.37,-125.60,"END
"
458,0,0,451346540,-469903434,10697774,2023,10,2,13,55,2,0,0,0,3.94,3.31,4.98,4.99,46.08,35.64,33.25,41.37,32.80,989.44,1.07,-0.80,9.41,6.47,-4.85,-126.44,"END
"
459,0,0,459051970,-464326695,10985350,2023,10,2,13,55,3,0,0,0,3.90,3.30,4.98,4.98,45.72,37.18,33.24,41.38,32.80,989.63,1.07,-0.76,9.41,6.47,-4.62,-125.45,"END
"
460,0,0,456357623,-466226695,10884803,2023,10,2,13,55,4,0,0,0,3.93,3.31,4.98,4.99,45.89,35.85,33.25,41.35,32.82,989.56,1.07,-0.76,9.37,6.50,-4.64,-126.15,"END
"
461,0,0,458441157,-464663533,10962557,2023,10,2,13,55,5,0,0,0,3.92,3.30,4.98,4.99,46.86,36.90,33.25,41.41,32.82,989.42,1.03,-0.76,9.37,6.27,-4.64,-125.48,"END
"
462,0,0,448854069,-471465133,10604748,2023,10,2,13,55,6,0,0,0,3.93,3.31,4.98,4.99,45.94,35.51,33.26,41.40,32.83,989.30,1.07,-0.84,9.33,6.52,-5.12,-125.77,"END
"
463,0,0,442520675,-475811566,10368429,2023,10,2,13,55,7,0,0,0,3.93,3.30,4.98,4.99,46.60,37.18,33.25,41.42,32.84,989.38,1.11,-0.80,9.41,6.70,-4.85,-127.68,"END
"
464,0,0,441127722,-476721634,10316473,2023,10,2,13,55,8,0,0,0,3.93,3.31,4.98,4.99,45.95,35.59,33.27,41.37,32.81,989.38,0.99,-0.84,9.37,6.03,-5.10,-125.02,"END
"
465,0,0,443415718,-475110124,10401817,2023,10,2,13,55,9,0,0,0,3.93,3.30,4.98,4.95,46.62,37.43,33.27,41.40,32.83,989.49,0.96,-0.84,9.41,5.78,-5.08,-126.36,"END
"
466,0,0,445594264,-473557943,10483099,2023,10,2,13,55,10,0,0,0,3.93,3.31,4.98,4.99,46.19,35.79,33.28,41.39,32.83,989.31,0.84,-0.61,9.10,5.27,-3.83,-124.68,"END
"
467,0,0,445327507,-473698632,10473145,2023,10,2,13,55,11,0,0,0,3.93,3.30,4.98,4.97,46.68,37.34,33.30,41.36,32.85,989.38,1.07,-0.76,9.41,6.47,-4.62,-126.76,"END
"
468,0,0,376787933,-612379436,7947542,2023,10,2,13,55,12,0,0,0,3.94,3.31,4.98,4.99,46.22,35.82,33.30,41.37,32.83,989.42,1.07,-0.80,9.48,6.42,-4.81,-125.22,"END
"
469,0,0,373995819,-616658469,7847064,2023,10,2,13,55,13,0,0,0,3.93,3.30,4.98,4.99,44.76,37.33,33.28,41.38,32.81,989.22,0.99,-0.84,9.10,6.21,-5.25,-126.81,"END
"
470,0,0,376696628,-612108284,7944252,2023,10,2,13,55,14,0,0,0,3.93,3.31,4.98,4.99,45.90,36.26,33.28,41.38,32.84,989.34,1.19,-0.69,9.10,7.40,-4.29,-125.66,"END
"
471,0,0,376737498,-612065088,7945724,2023,10,2,13,55,15,0,0,0,3.93,3.30,4.98,4.97,44.66,37.14,33.30,41.41,32.86,989.25,1.03,-0.73,9.45,6.22,-4.37,-125.84,"END
"
472,0,0,376778360,-612021883,7947197,2023,10,2,13,55,16,0,0,0,3.92,3.31,4.98,4.99,45.97,36.39,33.30,41.39,32.87,989.30,0.84,-0.80,9.29,5.15,-4.92,-125.57,"END
"
473,0,0,374161574,-616487879,7853021,2023,10,2,13,55,17,0,0,0,3.92,3.30,4.98,4.99,45.16,37.15,33.31,41.42,32.89,989.22,0.96,-0.80,9.41,5.78,-4.85,-124.73,"END
"
474,0,0,371158726,-619269984,7745247,2023,10,2,13,55,18,0,0,0,3.93,3.31,4.98,4.99,45.72,35.99,33.31,41.45,32.85,989.30,1.03,-0.80,9.45,6.22,-4.83,-126.03,"END
"
475,0,0,371201186,-619228221,7746769,2023,10,2,13,55,19,0,0,0,3.93,3.30,4.98,4.99,45.43,36.67,33.31,41.41,32.88,989.13,1.03,-0.84,9.41,6.24,-5.08,-127.77,"END
"
476,0,0,368093003,-622083523,7635555,2023,10,2,13,55,20,0,0,0,3.87,3.31,4.98,4.99,45.84,35.86,33.33,41.45,32.84,989.26,1.03,-0.76,9.37,6.27,-4.64,-126.52,"END
"
477,0,0,371286087,-619144670,7749812,2023,10,2,13,55,21,0,0,0,3.93,3.30,4.98,4.98,46.67,37.45,33.32,41.38,32.87,989.26,1.11,-0.84,9.48,6.64,-5.04,-126.55,"END
"
478,0,0,374368617,-616274464,7860464,2023,10,2,13,55,22,0,0,0,3.85,3.31,4.98,4.99,45.94,35.86,33.33,41.41,32.89,989.32,1.07,-0.80,9.45,6.44,-4.83,-128.17,"END
"
479,0,0,377457221,-615092824,7971667,2023,10,2,13,55,23,0,0,0,3.94,3.30,4.98,4.99,46.15,36.61,33.33,41.38,32.85,989.17,1.03,-0.80,9.41,6.24,-4.85,-126.75,"END
"
480,0,0,377386151,-613426979,7969104,2023,10,2,13,55,24,0,0,0,3.93,3.32,4.98,4.99,45.89,35.92,33.33,41.45,32.88,989.30,0.96,-0.80,9.37,5.81,-4.87,-125.32,"END
"
481,0,0,377537271,-615005123,7974553,2023,10,2,13,55,25,0,0,0,3.92,3.30,4.98,4.98,46.56,36.90,33.34,41.40,32.90,989.21,0.99,-0.76,9.33,6.06,-4.66,-124.90,"END
"
482,0,0,374590924,-617793959,7868457,2023,10,2,13,55,26,0,0,0,3.88,3.31,4.98,4.99,46.15,35.93,33.34,41.44,32.91,989.38,1.15,-0.80,9.56,6.82,-4.77,-125.04,"END
"
483,0,0,374575494,-616060851,7867902,2023,10,2,13,55,27,0,0,0,3.93,3.30,4.98,4.99,45.79,37.42,33.35,41.44,32.91,989.55,0.99,-0.84,9.37,6.03,-5.10,-125.45,"END
"
484,0,0,371583034,-618851992,7760457,2023,10,2,13,55,28,0,0,0,3.93,3.31,4.98,4.98,45.73,35.52,33.36,41.47,32.92,989.42,1.03,-0.84,9.41,6.24,-5.08,-123.13,"END
"
485,0,0,374658197,-615975351,7870876,2023,10,2,13,55,29,0,0,0,3.93,3.30,4.98,4.99,46.19,36.83,33.35,41.47,32.91,989.36,1.07,-0.80,9.33,6.52,-4.89,-126.58,"END
"
486,0,0,377626345,-613155797,7977765,2023,10,2,13,55,30,0,0,0,3.93,3.31,4.98,4.99,46.12,35.89,33.36,41.41,32.93,989.37,1.03,-0.76,9.37,6.27,-4.64,-127.20,"END
"
487,0,0,380308251,-608598043,8074601,2023,10,2,13,55,31,0,0,0,3.93,3.30,4.98,4.98,46.42,37.67,33.36,41.48,32.94,989.34,0.99,-0.69,9.41,6.02,-4.16,-124.13,"END
"
488,0,0,380510664,-610125037,8081919,2023,10,2,13,55,32,0,0,0,3.93,3.31,4.98,4.95,46.08,35.71,33.38,41.44,32.95,989.41,1.07,-0.73,9.22,6.61,-4.48,-125.71,"END
"
489,0,0,377855330,-614644407,7986024,2023,10,2,13,55,33,0,0,0,3.93,3.30,4.98,4.99,46.11,37.32,33.39,41.43,32.95,989.40,0.99,-0.80,9.41,6.01,-4.85,-124.29,"END
"
490,0,0,380613991,-610276489,8085655,2023,10,2,13,55,34,0,0,0,3.93,3.31,4.98,4.94,45.97,36.12,33.38,41.49,32.97,989.36,1.03,-0.80,9.52,6.17,-4.79,-124.45,"END
"
491,0,0,378084975,-614579852,7994308,2023,10,2,13,55,35,0,0,0,3.93,3.30,4.98,4.99,46.30,37.34,33.39,41.50,32.99,989.51,1.03,-0.76,9.41,6.24,-4.62,-125.24,"END
"
492,0,0,378124840,-614535846,7995746,2023,10,2,13,55,36,0,0,0,3.93,3.31,4.98,4.99,46.21,35.10,33.39,41.47,32.97,989.57,1.03,-0.80,9.41,6.24,-4.85,-126.27,"END
"
493,0,0,378164698,-614491831,7997184,2023,10,2,13,55,37,0,0,0,3.93,3.30,4.98,4.99,46.21,37.31,33.41,41.48,32.97,989.40,1.03,-0.80,9.45,6.22,-4.83,-126.63,"END
"
494,0,0,378100724,-612903243,7994876,2023,10,2,13,55,38,0,0,0,3.94,3.31,4.98,4.95,45.75,35.86,33.40,41.51,32.98,989.52,1.07,-0.84,9.68,6.29,-4.94,-127.28,"END
"
