Packet Number,SIV,FixType,Latitude,Longitude,Altitude,Year,Month,Day,Hour,Min,Sec,NNV,NEV,NDV,Battery,3v3 Supply,5v Supply,Radio Supply,Analog Internal,Analog External,Altimeter Temp,Digital Internal,Digital Eternal,Pressure,Accel A,Accel Y,Accel z,Pitch,Roll,Yaw
0,0,0,0,0,0,2020,8,2,0,0,2,0,0,0,3.58,3.32,4.99,4.99,24.29,25.20,21.40,21.45,21.42,988.37,-3.63,0.65,8.99,-21.96,3.84,19.59,"END
"
1,0,0,0,0,0,2020,8,2,0,0,3,0,0,0,3.58,3.31,4.98,4.98,24.31,25.83,21.41,21.48,21.45,988.31,-3.75,0.65,8.91,-22.76,3.85,22.95,"END
"
2,0,0,0,0,0,2020,8,2,0,0,4,0,0,0,3.59,3.32,4.98,4.96,22.78,24.61,21.40,21.48,21.42,988.24,-3.75,0.65,8.95,-22.67,3.83,18.23,"END
"
3,0,0,0,0,0,2020,8,2,0,0,5,0,0,0,3.58,3.31,4.98,4.99,25.35,24.69,21.40,21.48,21.48,988.26,-3.60,0.61,8.91,-21.92,3.64,21.15,"END
"
4,0,0,0,0,0,2020,8,2,0,0,6,0,0,0,3.59,3.32,4.98,4.99,24.31,24.48,21.40,21.52,21.40,988.35,-3.60,0.57,8.95,-21.85,3.40,21.41,"END
"
5,0,0,0,0,0,2020,8,2,0,0,7,0,0,0,3.58,3.31,4.98,4.99,23.99,24.81,21.40,21.54,21.45,988.42,-3.67,0.61,8.95,-22.26,3.62,21.27,"END
"
6,0,0,0,0,0,2020,8,2,0,0,8,0,0,0,3.58,3.32,4.98,4.98,23.46,24.57,21.41,21.61,21.45,988.48,-3.63,0.65,8.95,-22.04,3.85,21.20,"END
"
7,0,0,0,0,0,2020,8,2,0,0,9,0,0,0,3.54,3.31,4.98,4.98,24.16,25.30,21.40,21.61,21.41,988.23,-3.71,0.69,8.91,-22.54,4.08,20.00,"END
"
8,0,0,0,0,0,2020,8,2,0,0,10,0,0,0,3.58,3.32,4.98,4.99,23.78,23.53,21.41,21.65,21.42,988.21,-3.63,0.61,8.99,-21.97,3.61,22.63,"END
"
9,0,0,0,0,0,2020,8,2,0,0,11,0,0,0,3.48,3.31,4.98,4.99,24.24,24.93,21.39,21.71,21.38,988.21,-3.63,0.61,8.95,-22.05,3.63,22.22,"END
"
10,0,0,0,0,0,2020,8,2,0,0,12,0,0,0,3.58,3.32,4.98,4.99,23.35,24.95,21.39,21.71,21.37,988.37,-3.67,0.65,8.95,-22.25,3.85,21.72,"END
"
11,0,0,0,0,0,2020,8,2,0,0,13,0,0,0,3.58,3.31,4.98,4.98,24.65,24.75,21.41,21.74,21.42,988.26,-3.67,0.57,8.95,-22.26,3.39,21.71,"END
"
12,0,0,0,0,0,2020,8,2,0,0,14,0,0,0,3.57,3.32,4.98,4.99,24.67,23.84,21.39,21.80,21.40,987.96,-3.67,0.73,8.95,-22.24,4.30,20.59,"END
"
13,0,0,0,0,0,2020,8,2,0,0,15,0,0,0,3.55,3.31,4.98,4.99,24.15,25.22,21.39,21.84,21.40,988.35,-3.67,0.50,9.06,-22.02,2.91,22.64,"END
"
14,0,0,0,0,0,2020,8,2,0,0,16,0,0,0,3.57,3.32,4.98,4.99,25.27,24.34,21.37,21.90,21.40,988.35,-3.63,0.65,8.91,-22.13,3.87,22.31,"END
"
15,0,0,0,0,0,2020,8,2,0,0,17,0,0,0,3.57,3.31,4.98,4.99,24.98,24.71,21.39,21.91,21.39,988.33,-3.94,0.61,8.80,-24.07,3.63,21.66,"END
"
16,0,0,0,0,0,2020,8,2,0,0,18,0,0,0,3.58,3.32,4.98,4.99,23.46,23.48,21.40,21.98,21.39,988.48,-3.63,0.65,8.91,-22.13,3.87,22.35,"END
"
17,0,0,0,0,0,2020,8,2,0,0,19,0,0,0,3.58,3.31,4.98,4.99,25.13,25.03,21.40,22.00,21.39,988.13,-3.67,0.57,8.91,-22.35,3.41,19.38,"END
"
18,0,0,0,0,0,2020,8,2,0,0,20,0,0,0,3.58,3.32,4.98,4.99,24.46,24.15,21.40,22.02,21.40,988.33,-3.71,0.69,8.95,-22.46,4.06,21.16,"END
"
19,0,0,0,0,0,2020,8,2,0,0,21,0,0,0,3.58,3.31,4.98,4.95,24.94,25.08,21.40,22.08,21.40,988.36,-3.48,0.73,8.68,-21.78,4.44,22.18,"END
"
20,0,0,0,0,0,2020,8,2,0,0,22,0,0,0,3.58,3.32,4.98,4.99,23.46,24.22,21.40,22.13,21.45,988.35,-3.75,0.65,8.87,-22.84,3.86,22.11,"END
"
21,0,0,0,0,0,2020,8,2,0,0,23,0,0,0,3.58,3.31,4.98,4.92,25.68,24.74,21.40,22.16,21.45,988.25,-3.60,0.61,8.99,-21.76,3.62,23.47,"END
"
22,0,0,0,0,0,2020,8,2,0,0,24,0,0,0,3.58,3.32,4.98,4.99,24.60,22.65,21.40,22.22,21.40,988.19,-3.63,0.61,8.99,-21.97,3.61,21.73,"END
"
23,0,0,0,0,0,2020,8,2,0,0,25,0,0,0,3.59,3.31,4.98,4.98,25.30,25.32,21.41,22.25,21.41,988.26,-3.67,0.57,8.99,-22.18,3.38,20.69,"END
"
24,0,0,0,0,0,2020,8,2,0,0,26,0,0,0,3.58,3.32,4.98,4.99,23.85,24.98,21.41,22.27,21.42,988.38,-3.71,0.61,9.10,-22.13,3.56,22.19,"END
"
25,0,0,0,0,0,2020,8,2,0,0,27,0,0,0,3.58,3.31,4.98,4.96,25.35,25.06,21.39,22.34,21.46,988.26,-3.63,0.73,8.76,-22.46,4.38,22.69,"END
"
26,0,0,0,0,0,2020,8,2,0,0,28,0,0,0,3.54,3.32,4.98,4.99,26.20,24.92,21.41,22.38,21.41,988.25,-3.10,0.19,5.97,-27.43,1.63,23.57,"END
"
27,0,0,0,0,0,2020,8,2,0,0,29,0,0,0,3.58,3.31,4.98,4.99,25.09,24.57,21.41,22.41,21.42,988.22,-3.67,0.96,9.37,-21.30,5.43,21.57,"END
"
Packet Number,SIV,FixType,Latitude,Longitude,Altitude,Year,Month,Day,Hour,Min,Sec,NNV,NEV,NDV,Battery,3v3 Supply,5v Supply,Radio Supply,Analog Internal,Analog External,Altimeter Temp,Digital Internal,Digital Eternal,Pressure,Accel A,Accel Y,Accel z,Pitch,Roll,Yaw
Packet Number,SIV,FixType,Latitude,Longitude,Altitude,Year,Month,Day,Hour,Min,Sec,NNV,NEV,NDV,Battery,3v3 Supply,5v Supply,Radio Supply,Analog Internal,Analog External,Altimeter Temp,Digital Internal,Digital Eternal,Pressure,Accel A,Accel Y,Accel z,Pitch,Roll,Yaw
Packet Number,SIV,FixType,Latitude,Longitude,Altitude,Year,Month,Day,Hour,Min,Sec,NNV,NEV,NDV,Battery,3v3 Supply,5v Supply,Radio Supply,Analog Internal,Analog External,Altimeter Temp,Digital Internal,Digital Eternal,Pressure,Accel A,Accel Y,Accel z,Pitch,Roll,Yaw
0,0,0,0,0,,-33.22,EN1,0,0,0,0,0.19,-3.252,0,0,0,0,,-55.59,EN
4,0,0,0,0,0,2020,8,2,0,0,6,0,0,0,3.91,3.32,4.98,4.99,31.51,28.87,25.49,28.06,25.34,988.10,2.26,-2.10,10.25,12.17,-11.33,-77.04,"END
"
5,0,0,0,0,0,2020,8,2,0,0,7,0,0,0,3.89,3.31,4.99,4.99,32.18,28.92,25.50,28.08,25.30,987.97,0.69,-4.70,8.49,4.06,-28.91,-34.56,"END
"
6,0,0,0,0,0,2020,8,2,0,0,8,0,0,0,3.89,3.32,4.98,4.99,31.74,29.15,25.52,28.11,25.32,988.03,1.26,-4.36,7.34,8.41,-30.33,-50.76,"END
"
7,0,0,0,0,0,2020,8,2,0,0,9,0,0,0,3.89,3.31,4.98,4.99,32.10,29.33,25.51,28.12,25.33,988.18,0.57,-3.02,9.29,3.36,-17.98,-40.70,"END
"
8,0,0,0,0,0,2020,8,2,0,0,10,0,0,0,3.90,3.32,4.98,4.96,31.36,28.79,25.53,28.14,25.33,987.91,0.38,-2.83,8.61,2.42,-18.19,-38.42,"END
"
9,0,0,0,0,0,2020,8,2,0,0,11,0,0,0,3.90,3.30,4.99,4.99,32.11,29.31,25.54,28.14,25.34,988.35,-2.22,3.29,6.85,-16.28,24.56,-11.15,"END
"
10,0,0,0,0,0,2020,8,2,0,0,12,0,0,0,3.90,3.31,4.98,4.95,31.71,29.05,25.54,28.24,25.34,988.75,-3.37,6.58,8.18,-17.77,36.63,4.98,"END
"
11,0,0,0,0,0,2020,8,2,0,0,13,0,0,0,3.89,3.31,4.99,4.98,31.92,29.33,25.55,28.23,25.34,988.28,-3.14,7.46,3.63,-20.71,57.24,-8.97,"END
"
12,0,0,0,0,0,2020,8,2,0,0,14,0,0,0,3.90,3.31,4.98,4.99,31.78,29.48,25.55,28.27,25.33,988.75,-0.15,6.69,7.73,-0.86,40.90,-19.90,"END
"
13,0,0,0,0,0,2020,8,2,0,0,15,0,0,0,3.89,3.30,4.98,4.99,33.47,29.35,25.53,28.30,25.33,988.08,0.19,-1.49,8.41,1.28,-10.05,-33.45,"END
"
14,0,0,0,0,0,2020,8,2,0,0,16,0,0,0,3.89,3.31,4.98,4.99,30.08,28.95,25.54,28.33,25.36,988.19,-4.93,-4.25,10.67,-23.25,-19.86,-44.49,"END
"
15,0,0,0,0,0,2020,8,2,0,0,17,0,0,0,3.85,3.30,4.98,4.98,32.76,28.84,25.56,28.34,25.34,988.88,-0.54,-8.38,-2.68,-3.48,-71.95,-89.15,"END
"
16,0,0,0,0,0,2020,8,2,0,0,18,0,0,0,3.89,3.32,4.98,4.99,32.25,26.99,25.55,28.41,25.36,988.75,-0.42,-9.68,-1.11,-2.47,-83.01,-74.78,"END
"
Packet Number,SIV,FixType,Latitude,Longitude,Altitude,Year,Month,Day,Hour,Min,Sec,NNV,NEV,NDV,Battery,3v3 Supply,5v Supply,Radio Supply,Analog Internal,Analog External,Altimeter Temp,Digital Internal,Digital Eternal,Pressure,Accel A,Accel Y,Accel z,Pitch,Roll,Yaw
Packet Number,SIV,FixType,Latitude,Longitude,Altitude,Year,Month,Day,Hour,Min,Sec,NNV,NEV,NDV,Battery,3v3 Supply,5v Supply,Radio Supply,Analog Internal,Analog External,Altimeter Temp,Digital Internal,Digital Eternal,Pressure,Accel A,Accel Y,Accel z,Pitch,Roll,Yaw
141,0,0,393119465,-1125653006,8540237,2023,10,3,22,28,52,0,0,0,3.87,3.31,4.98,4.98,37.85,29.43,26.42,31.67,26.01,988.22,-4.21,-5.28,6.92,-25.79,-33.09,-41.44,"END
"
142,0,0,386653762,-1117071453,8304628,2023,10,3,22,28,53,0,0,0,3.89,3.32,4.98,4.99,37.34,29.84,26.43,31.67,25.98,988.22,-4.21,-5.28,7.00,-25.64,-32.88,-42.40,"END
"
143,0,0,386686499,-1117024219,8305818,2023,10,3,22,28,54,0,0,0,3.88,3.31,4.98,4.99,38.18,29.91,26.45,31.68,25.98,988.28,-4.21,-5.20,6.92,-25.91,-32.70,-42.15,"END
"
144,0,0,393214575,-1125506756,8543711,2023,10,3,22,28,55,0,0,0,3.89,3.31,4.98,4.99,37.19,29.53,26.44,31.72,26.00,988.26,-4.25,-5.28,7.04,-25.76,-32.71,-42.65,"END
"
145,0,0,393246259,-1125458008,8544869,2023,10,3,22,28,56,0,0,0,3.87,3.31,4.98,4.99,38.06,29.89,26.45,31.77,26.04,988.21,-4.21,-5.20,7.00,-25.76,-32.50,-42.93,"END
"
146,0,0,393277932,-1125409262,8546026,2023,10,3,22,28,57,0,0,0,3.88,3.31,4.98,4.99,37.55,29.39,26.45,31.76,26.05,988.25,-4.25,-5.35,7.00,-25.72,-33.19,-41.21,"END
"
147,0,0,393309595,-1125360516,8547183,2023,10,3,22,28,58,0,0,0,3.88,3.30,4.98,4.96,38.65,30.15,26.47,31.77,26.08,988.21,-4.17,-5.28,6.96,-25.51,-33.04,-40.82,"END
"
148,0,0,393341248,-1125311772,8548339,2023,10,3,22,28,59,0,0,0,3.89,3.31,4.98,4.99,37.55,29.38,26.47,31.83,26.05,988.15,-4.21,-5.32,7.04,-25.50,-32.96,-44.22,"END
"
149,0,0,386882709,-1116740843,8312951,2023,10,3,22,29,0,0,0,0,3.88,3.30,4.98,4.99,38.29,30.75,26.47,31.86,26.08,988.39,-4.17,-5.32,6.96,-25.45,-33.23,-42.47,"END
"
150,0,0,393404525,-1125214288,8550651,2023,10,3,22,29,1,0,0,0,3.89,3.31,4.98,4.99,37.58,29.62,26.49,31.84,26.05,988.23,-4.05,-5.20,6.92,-25.09,-32.96,-42.22,"END
"
151,0,0,393436147,-1125165548,8551806,2023,10,3,22,29,2,0,0,0,3.87,3.31,4.98,4.98,37.02,29.82,26.49,31.90,26.07,987.99,-4.21,-5.28,6.96,-25.72,-32.98,-43.05,"END
"
152,0,0,393467760,-1125116809,8552961,2023,10,3,22,29,3,0,0,0,3.89,3.31,4.98,4.99,37.61,29.75,26.50,31.92,26.06,988.27,-4.28,-5.32,7.04,-25.91,-32.83,-43.28,"END
"
153,0,0,387013317,-1116551950,8317699,2023,10,3,22,29,4,0,0,0,3.89,3.31,4.98,4.98,36.48,29.22,26.49,31.91,26.11,988.15,-4.13,-5.20,6.81,-25.74,-33.15,-42.67,"END
"
154,0,0,387045944,-1116504730,8318885,2023,10,3,22,29,5,0,0,0,3.86,3.31,4.98,4.99,37.64,29.92,26.51,31.96,26.06,988.22,-4.17,-5.32,6.96,-25.45,-33.23,-41.19,"END
"
155,0,0,387078562,-1116457511,8320071,2023,10,3,22,29,6,0,0,0,3.88,3.31,4.98,4.99,37.74,29.79,26.52,31.97,26.09,988.14,-4.21,-5.35,7.00,-25.52,-33.25,-42.62,"END
"
156,0,0,387111169,-1116410293,8321257,2023,10,3,22,29,7,0,0,0,3.87,3.31,4.98,4.99,37.79,29.54,26.52,31.94,26.08,988.36,-4.13,-5.28,7.08,-25.08,-32.79,-42.97,"END
"
157,0,0,387143766,-1116363076,8322442,2023,10,3,22,29,8,0,0,0,3.89,3.30,4.98,4.98,37.57,29.09,26.51,31.97,26.08,988.18,-4.28,-5.32,7.00,-25.98,-32.94,-42.74,"END
"
158,0,0,387176354,-1116315860,8323627,2023,10,3,22,29,9,0,0,0,3.87,3.31,4.98,4.99,38.01,29.21,26.54,31.99,26.09,988.18,-4.25,-5.24,7.27,-25.35,-31.91,-42.96,"END
"
159,0,0,387208931,-1116268646,8324812,2023,10,3,22,29,10,0,0,0,3.89,3.30,4.98,4.99,39.19,30.79,26.54,31.99,26.11,988.35,-4.21,-5.24,6.77,-26.17,-33.32,-42.44,"END
"
160,0,0,380995228,-1108238953,8099443,2023,10,3,22,29,11,0,0,0,3.84,3.31,4.98,4.99,37.62,29.68,26.55,32.05,26.08,988.23,-4.17,-5.24,6.96,-25.57,-32.85,-42.11,"END
"
161,0,0,381028798,-1108193164,8100657,2023,10,3,22,29,12,0,0,0,3.88,3.31,4.98,4.98,38.81,29.76,26.54,32.05,26.13,988.21,-4.17,-5.24,6.96,-25.57,-32.85,-41.97,"END
"
162,0,0,381062359,-1108147376,8101871,2023,10,3,22,29,13,0,0,0,3.89,3.31,4.98,4.99,37.95,29.83,26.55,32.07,26.11,988.05,-4.25,-5.24,7.00,-25.90,-32.62,-42.78,"END
"
163,0,0,381095909,-1108101588,8103085,2023,10,3,22,29,14,0,0,0,3.89,3.31,4.98,4.99,37.56,30.14,26.56,32.05,26.12,988.33,-4.21,-5.28,6.92,-25.79,-33.09,-42.95,"END
"
164,0,0,381129450,-1108055802,8104298,2023,10,3,22,29,15,0,0,0,3.86,3.31,4.98,4.99,38.16,29.63,26.57,32.09,26.14,988.22,-4.28,-5.24,6.92,-26.26,-32.77,-42.28,"END
"
165,0,0,381162981,-1108010018,8105512,2023,10,3,22,29,16,0,0,0,3.88,3.31,4.98,4.99,38.85,29.74,26.59,32.09,26.14,988.25,-4.13,-5.20,7.00,-25.35,-32.62,-44.20,"END
"
166,0,0,381196502,-1107964234,8106724,2023,10,3,22,29,17,0,0,0,3.88,3.31,4.98,4.98,38.10,30.06,26.60,32.10,26.17,988.26,-4.17,-5.32,7.00,-25.38,-33.13,-42.65,"END
"
167,0,0,381230013,-1107918451,8107937,2023,10,3,22,29,18,0,0,0,3.88,3.31,4.98,4.99,37.60,30.34,26.61,32.15,26.12,988.23,-4.32,-5.32,7.04,-26.11,-32.77,-43.18,"END
"
168,0,0,381263515,-1107872670,8109149,2023,10,3,22,29,19,0,0,0,3.88,3.31,4.98,4.99,38.05,29.17,26.61,32.16,26.17,988.28,-4.25,-5.28,7.08,-25.68,-32.60,-42.76,"END
"
169,0,0,381297007,-1107826890,8110361,2023,10,3,22,29,20,0,0,0,3.87,3.31,4.98,4.99,38.62,30.74,26.61,32.13,26.16,988.16,-4.21,-5.28,7.04,-25.56,-32.77,-42.62,"END
"
170,0,0,381330489,-1107781111,8111572,2023,10,3,22,29,21,0,0,0,3.89,3.31,4.98,4.96,38.37,29.52,26.63,32.19,26.15,988.25,-4.13,-5.20,6.77,-25.82,-33.26,-41.69,"END
"
171,0,0,381363961,-1107735333,8112783,2023,10,3,22,29,22,0,0,0,3.87,3.30,4.98,4.99,38.30,29.91,26.62,32.22,26.15,988.07,-4.05,-5.32,7.11,-24.54,-32.99,-44.35,"END
"
172,0,0,381397423,-1107689556,8113994,2023,10,3,22,29,23,0,0,0,3.89,3.31,4.98,4.93,38.34,29.72,26.63,32.23,26.17,988.23,-4.13,-5.35,7.00,-25.11,-33.38,-42.56,"END
"
173,0,0,381430876,-1107643781,8115205,2023,10,3,22,29,24,0,0,0,3.89,3.31,4.98,4.99,37.80,31.16,26.64,32.23,26.18,988.11,-4.21,-5.24,6.96,-25.77,-32.79,-42.55,"END
"
174,0,0,381464319,-1107598007,8116415,2023,10,3,22,29,25,0,0,0,3.89,3.31,4.98,4.99,37.96,30.16,26.65,32.26,26.21,988.18,-4.17,-5.35,7.08,-25.17,-33.10,-42.48,"END
"
175,0,0,381497752,-1107552233,8117625,2023,10,3,22,29,26,0,0,0,3.88,3.31,4.98,4.99,38.91,30.39,26.65,32.23,26.20,988.23,-4.17,-5.24,7.00,-25.49,-32.75,-42.81,"END
"
176,0,0,381531175,-1107506461,8118834,2023,10,3,22,29,27,0,0,0,3.89,3.31,4.98,4.96,38.28,29.68,26.67,32.27,26.17,988.06,-4.25,-5.47,7.11,-25.32,-33.43,-42.52,"END
"
177,0,0,381564589,-1107460691,8120044,2023,10,3,22,29,28,0,0,0,3.83,3.30,4.98,4.99,38.61,30.31,26.67,32.29,26.20,988.22,-4.17,-5.32,7.00,-25.38,-33.13,-44.04,"END
"
178,0,0,381597993,-1107414921,8121253,2023,10,3,22,29,29,0,0,0,3.89,3.31,4.98,4.99,38.41,29.34,26.69,32.31,26.20,988.16,-4.28,-5.32,6.88,-26.22,-33.25,-41.20,"END
"
179,0,0,387858399,-1115324610,8348435,2023,10,3,22,29,30,0,0,0,3.88,3.30,4.98,4.99,38.46,29.87,26.67,32.30,26.20,988.24,-4.17,-5.32,7.00,-25.38,-33.13,-43.05,"END
"
180,0,0,387890769,-1115277421,8349613,2023,10,3,22,29,31,0,0,0,3.89,3.31,4.98,4.99,38.18,29.32,26.68,32.37,26.19,988.25,-4.09,-5.24,7.23,-24.63,-32.24,-43.77,"END
"
181,0,0,387923128,-1115230233,8350790,2023,10,3,22,29,32,0,0,0,3.89,3.30,4.98,4.99,38.06,30.27,26.70,32.36,26.22,988.16,-4.21,-5.28,6.96,-25.72,-32.98,-42.47,"END
"
182,0,0,387955478,-1115183047,8351967,2023,10,3,22,29,33,0,0,0,3.89,3.31,4.98,4.99,38.72,29.90,26.71,32.38,26.23,988.22,-4.13,-5.28,7.08,-25.08,-32.79,-43.66,"END
"
183,0,0,393078544,-1121796504,8538742,2023,10,3,22,29,34,0,0,0,3.88,3.30,4.98,4.98,37.86,30.77,26.71,32.38,26.23,988.22,-4.17,-5.24,6.77,-25.97,-33.39,-41.88,"END
"
184,0,0,388020147,-1115088677,8354320,2023,10,3,22,29,35,0,0,0,3.88,3.31,4.98,4.99,38.36,30.04,26.72,32.40,26.22,988.14,-4.21,-5.32,7.00,-25.58,-33.06,-43.05,"END
"
185,0,0,388052467,-1115041494,8355496,2023,10,3,22,29,36,0,0,0,3.87,3.30,4.98,4.99,38.18,30.91,26.72,32.48,26.23,988.30,-4.17,-5.35,7.04,-25.24,-33.21,-42.79,"END
"
186,0,0,388084777,-1114994312,8356672,2023,10,3,22,29,37,0,0,0,3.89,3.31,4.98,4.99,38.22,29.83,26.71,32.45,26.23,988.21,-4.13,-5.32,7.00,-25.17,-33.19,-42.45,"END
"
187,0,0,388117077,-1114947131,8357847,2023,10,3,22,29,38,0,0,0,3.90,3.31,4.98,4.99,37.77,29.16,26.72,32.45,26.23,988.30,-4.17,-5.28,7.00,-25.43,-32.94,-43.49,"END
"
188,0,0,388149368,-1114899951,8359022,2023,10,3,22,29,39,0,0,0,3.89,3.31,4.98,4.99,38.45,29.78,26.71,32.49,26.26,988.38,-4.21,-5.24,7.00,-25.70,-32.69,-42.94,"END
"
189,0,0,388181648,-1114852773,8360197,2023,10,3,22,29,40,0,0,0,3.89,3.31,4.98,4.94,39.74,30.14,26.73,32.48,26.27,988.29,-4.17,-5.28,6.92,-25.59,-33.15,-42.06,"END
"
190,0,0,388213918,-1114805596,8361372,2023,10,3,22,29,41,0,0,0,3.88,3.31,4.98,4.99,38.46,29.82,26.73,32.50,26.24,988.11,-4.21,-5.24,7.04,-25.62,-32.58,-42.68,"END
"
191,0,0,388246179,-1114758420,8362546,2023,10,3,22,29,42,0,0,0,3.88,3.30,4.98,4.97,38.30,30.99,26.75,32.59,26.25,988.27,-4.21,-5.28,7.00,-25.64,-32.88,-42.21,"END
"
192,0,0,382064620,-1106774268,8138144,2023,10,3,22,29,43,0,0,0,3.89,3.31,4.98,4.99,38.96,30.01,26.73,32.58,26.25,988.28,-4.21,-5.28,7.08,-25.48,-32.67,-43.07,"END
"
193,0,0,388310671,-1114664072,8364893,2023,10,3,22,29,44,0,0,0,3.89,3.31,4.98,4.99,38.79,30.37,26.72,32.54,26.25,988.15,-4.17,-5.28,7.04,-25.36,-32.83,-43.01,"END
"
194,0,0,388342902,-1114616900,8366066,2023,10,3,22,29,45,0,0,0,3.89,3.31,4.98,4.99,38.39,30.45,26.75,32.58,26.28,988.25,-4.17,-5.32,7.04,-25.30,-33.02,-43.33,"END
"
195,0,0,382164363,-1106637016,8141756,2023,10,3,22,29,46,0,0,0,3.88,3.31,4.98,4.98,38.60,29.43,26.76,32.59,26.27,988.27,-4.17,-5.28,6.88,-25.67,-33.26,-42.29,"END
"
196,0,0,382197591,-1106591267,8142959,2023,10,3,22,29,47,0,0,0,3.88,3.32,4.98,4.99,38.60,30.03,26.77,32.65,26.27,988.17,-4.13,-5.28,7.00,-25.23,-33.00,-42.86,"END
"
197,0,0,382230809,-1106545520,8144162,2023,10,3,22,29,48,0,0,0,3.88,3.30,4.98,4.99,37.82,30.06,26.77,32.60,26.31,988.29,-4.21,-5.32,6.96,-25.66,-33.17,-43.83,"END
"
198,0,0,382264017,-1106499773,8145364,2023,10,3,22,29,49,0,0,0,3.89,3.31,4.98,4.99,38.83,29.80,26.79,32.64,26.30,988.15,-4.17,-5.20,6.69,-26.19,-33.41,-41.28,"END
"
199,0,0,388503908,-1114381056,8371926,2023,10,3,22,29,50,0,0,0,3.87,3.31,4.98,4.98,38.78,30.31,26.79,32.70,26.29,988.27,-4.17,-5.24,7.00,-25.49,-32.75,-44.48,"END
"
200,0,0,388536080,-1114333891,8373097,2023,10,3,22,29,51,0,0,0,3.83,3.31,4.98,4.99,39.00,29.76,26.80,32.73,26.30,988.05,-4.13,-5.24,7.04,-25.21,-32.71,-43.77,"END
"
201,0,0,388568242,-1114286728,8374268,2023,10,3,22,29,52,0,0,0,3.89,3.30,4.98,4.98,38.49,29.32,26.82,32.71,26.30,988.15,-4.17,-5.28,6.96,-25.51,-33.04,-41.69,"END
"
202,0,0,388600394,-1114239565,8375439,2023,10,3,22,29,53,0,0,0,3.83,3.31,4.98,4.99,39.19,29.77,26.83,32.70,26.32,988.22,-4.21,-5.28,7.00,-25.64,-32.88,-42.71,"END
"
203,0,0,388632536,-1114192404,8376609,2023,10,3,22,29,54,0,0,0,3.89,3.30,4.99,4.99,37.48,25.65,26.83,32.72,26.30,988.32,-4.21,-5.28,6.77,-26.11,-33.51,-43.89,"END
"
204,0,0,388664668,-1114145244,8377779,2023,10,3,22,29,55,0,0,0,3.88,3.31,4.98,4.99,39.13,29.85,26.83,32.77,26.30,988.17,-4.25,-5.35,7.11,-25.49,-32.88,-43.74,"END
"
205,0,0,393769445,-1120732512,8563986,2023,10,3,22,29,56,0,0,0,3.88,3.30,4.98,4.98,38.71,29.95,26.84,32.80,26.30,988.11,-4.17,-5.32,7.15,-25.07,-32.71,-42.78,"END
"
206,0,0,388728903,-1114050927,8380117,2023,10,3,22,29,57,0,0,0,3.88,3.31,4.98,4.99,38.86,29.77,26.84,32.78,26.31,988.26,-4.13,-5.20,7.00,-25.35,-32.62,-43.56,"END
"
207,0,0,393832014,-1120635815,8566272,2023,10,3,22,29,58,0,0,0,3.89,3.31,4.98,4.99,39.28,29.96,26.86,32.80,26.33,988.17,-4.17,-5.28,7.08,-25.28,-32.73,-43.55,"END
"
208,0,0,393863284,-1120587469,8567415,2023,10,3,22,29,59,0,0,0,3.89,3.32,4.98,4.98,39.02,29.66,26.85,32.82,26.34,988.22,-4.21,-5.28,7.00,-25.64,-32.88,-43.12,"END
"
209,0,0,388825182,-1113909461,8383622,2023,10,3,22,30,0,0,0,0,3.88,3.30,4.98,4.98,40.07,29.84,26.87,32.84,26.33,988.24,-4.17,-5.24,7.04,-25.41,-32.64,-45.23,"END
"
210,0,0,388857255,-1113862308,8384790,2023,10,3,22,30,1,0,0,0,3.89,3.32,4.98,4.99,39.21,29.87,26.86,32.87,26.36,988.33,-4.17,-5.32,7.04,-25.30,-33.02,-42.91,"END
"
211,0,0,393957034,-1120442436,8570842,2023,10,3,22,30,2,0,0,0,3.88,3.30,4.98,4.98,38.75,29.88,26.88,32.82,26.36,988.25,-4.13,-5.28,7.04,-25.15,-32.90,-43.41,"END
"
212,0,0,388921372,-1113768006,8387125,2023,10,3,22,30,3,0,0,0,3.88,3.31,4.98,4.96,39.51,29.58,26.90,32.88,26.37,988.17,-4.17,-5.28,7.04,-25.36,-32.83,-43.83,"END
"
213,0,0,388953415,-1113720857,8388292,2023,10,3,22,30,4,0,0,0,3.88,3.31,4.98,4.98,39.30,30.86,26.90,32.90,26.38,988.14,-4.17,-5.28,7.00,-25.43,-32.94,-44.13,"END
"
214,0,0,388985449,-1113673709,8389458,2023,10,3,22,30,5,0,0,0,3.89,3.31,4.98,4.95,38.69,30.37,26.90,32.95,26.37,988.23,-4.17,-5.35,7.04,-25.24,-33.21,-42.63,"END
"
215,0,0,382827073,-1105722268,8165759,2023,10,3,22,30,6,0,0,0,3.89,3.30,4.98,4.98,39.06,30.08,26.91,32.98,26.34,988.23,-4.17,-5.28,7.00,-25.43,-32.94,-43.66,"END
"
216,0,0,382860106,-1105676542,8166956,2023,10,3,22,30,7,0,0,0,3.88,3.32,4.98,4.99,39.20,29.89,26.93,32.98,26.37,988.32,-4.17,-5.20,7.08,-25.39,-32.35,-43.32,"END
"
217,0,0,382893130,-1105630819,8168153,2023,10,3,22,30,8,0,0,0,3.88,3.30,4.98,4.99,39.19,30.82,26.92,32.96,26.38,988.35,-4.09,-5.28,7.00,-25.03,-33.06,-41.74,"END
"
218,0,0,382926144,-1105585096,8169349,2023,10,3,22,30,9,0,0,0,3.89,3.31,4.98,4.99,37.32,29.08,26.92,33.01,26.38,988.28,-4.13,-5.20,7.08,-25.19,-32.41,-42.86,"END
"
219,0,0,382959148,-1105539374,8170545,2023,10,3,22,30,10,0,0,0,3.89,3.30,4.98,4.99,39.37,30.79,26.94,32.99,26.40,988.25,-4.13,-5.28,6.96,-25.31,-33.11,-42.17,"END
"
220,0,0,389177444,-1113390847,8396450,2023,10,3,22,30,11,0,0,0,3.88,3.31,4.98,4.99,39.00,29.83,26.95,33.04,26.41,988.37,-4.17,-5.32,7.08,-25.22,-32.92,-43.10,"END
"
221,0,0,389209409,-1113343707,8397614,2023,10,3,22,30,12,0,0,0,3.89,3.31,4.98,4.98,38.53,30.52,26.96,33.06,26.40,988.24,-4.05,-5.28,7.04,-24.74,-33.02,-44.31,"END
"
222,0,0,389241364,-1113296569,8398778,2023,10,3,22,30,13,0,0,0,3.89,3.31,4.98,4.99,39.09,29.69,26.96,33.08,26.41,988.30,-4.17,-5.28,7.04,-25.36,-32.83,-43.37,"END
"
223,0,0,389273309,-1113249432,8399942,2023,10,3,22,30,14,0,0,0,3.89,3.30,4.99,4.99,39.68,30.39,26.96,33.08,26.43,988.19,-4.17,-5.24,7.15,-25.18,-32.33,-43.56,"END
"
224,0,0,383124023,-1105310784,8176520,2023,10,3,22,30,15,0,0,0,3.89,3.31,4.98,4.99,38.97,30.21,26.97,33.05,26.41,988.36,-4.13,-5.16,7.04,-25.33,-32.32,-43.49,"END
"
225,0,0,389337170,-1113155161,8402268,2023,10,3,22,30,16,0,0,0,3.87,3.31,4.98,4.99,38.45,30.29,26.99,33.09,26.45,988.25,-4.13,-5.20,7.08,-25.19,-32.41,-44.13,"END
"
226,0,0,394424440,-1119717442,8587929,2023,10,3,22,30,17,0,0,0,3.88,3.31,4.98,4.99,39.07,30.45,26.98,33.16,26.45,988.45,-4.13,-5.32,6.96,-25.25,-33.30,-42.10,"END
"
227,0,0,389400992,-1113060896,8404593,2023,10,3,22,30,18,0,0,0,3.87,3.30,4.98,4.99,39.94,30.29,26.99,33.09,26.45,988.29,-4.13,-5.20,7.04,-25.27,-32.51,-42.56,"END
"
228,0,0,389432887,-1113013765,8405755,2023,10,3,22,30,19,0,0,0,3.89,3.31,4.98,4.99,38.58,29.96,27.00,33.16,26.42,988.22,-4.13,-5.24,7.15,-24.98,-32.39,-42.89,"END
"
229,0,0,389464774,-1112966635,8406916,2023,10,3,22,30,20,0,0,0,3.88,3.30,4.98,4.99,39.29,30.93,27.01,33.18,26.43,988.27,-4.09,-5.24,7.08,-24.93,-32.66,-42.92,"END
"
230,0,0,383321553,-1105036515,8183679,2023,10,3,22,30,21,0,0,0,3.89,3.31,4.98,4.99,38.43,29.96,27.01,33.20,26.42,988.27,-4.17,-5.24,7.11,-25.26,-32.44,-43.17,"END
"
231,0,0,383354441,-1104990808,8184871,2023,10,3,22,30,22,0,0,0,3.90,3.30,4.98,4.94,38.37,30.10,27.01,33.21,26.44,988.21,-4.05,-5.32,7.00,-24.76,-33.32,-43.07,"END
"
232,0,0,389560373,-1112825253,8410399,2023,10,3,22,30,23,0,0,0,3.89,3.31,4.98,4.99,38.78,30.10,27.02,33.20,26.45,988.35,-4.09,-5.20,7.08,-24.99,-32.47,-43.04,"END
"
233,0,0,383420187,-1104899397,8187254,2023,10,3,22,30,24,0,0,0,3.89,3.30,4.98,4.98,38.51,30.87,27.02,33.27,26.45,988.26,-4.05,-5.16,7.04,-24.91,-32.45,-44.45,"END
"
234,0,0,383453045,-1104853693,8188445,2023,10,3,22,30,25,0,0,0,3.89,3.31,4.98,4.99,39.07,29.96,27.02,33.22,26.45,988.26,-4.13,-5.20,7.04,-25.27,-32.51,-43.15,"END
"
235,0,0,383485894,-1104807990,8189636,2023,10,3,22,30,26,0,0,0,3.89,3.30,4.98,4.99,38.58,30.74,27.01,33.25,26.43,988.28,-4.05,-5.24,7.08,-24.72,-32.72,-42.19,"END
"
236,0,0,389687702,-1112636762,8415038,2023,10,3,22,30,27,0,0,0,3.88,3.31,4.98,4.99,39.02,30.15,27.03,33.22,26.47,988.22,-4.13,-5.28,6.81,-25.62,-33.54,-43.29,"END
"
237,0,0,389719509,-1112589642,8416197,2023,10,3,22,30,28,0,0,0,3.87,3.30,4.98,4.98,38.62,31.19,27.04,33.22,26.46,988.08,-4.17,-5.20,7.00,-25.55,-32.56,-41.91,"END
"
238,0,0,389751307,-1112542523,8417355,2023,10,3,22,30,29,0,0,0,3.89,3.31,4.98,4.99,38.80,30.00,27.05,33.30,26.48,988.36,-4.05,-5.28,7.08,-24.67,-32.91,-43.20,"END
"
239,0,0,389783095,-1112495406,8418514,2023,10,3,22,30,30,0,0,0,3.87,3.30,4.98,4.98,39.58,30.16,27.05,33.30,26.46,988.38,-4.17,-5.20,7.08,-25.39,-32.35,-42.99,"END
"
240,0,0,389814873,-1112448289,8419671,2023,10,3,22,30,31,0,0,0,3.88,3.32,4.98,4.99,39.15,30.26,27.05,33.30,26.49,988.17,-4.09,-5.24,7.23,-24.63,-32.24,-43.94,"END
"
241,0,0,389846641,-1112401174,8420829,2023,10,3,22,30,32,0,0,0,3.88,3.30,4.98,4.99,38.20,30.24,27.06,33.34,26.49,988.19,-4.17,-5.24,7.11,-25.26,-32.44,-43.57,"END
"
242,0,0,389878400,-1112354060,8421986,2023,10,3,22,30,33,0,0,0,3.84,3.31,4.98,4.99,39.42,30.02,27.06,33.37,26.47,988.27,-4.13,-5.16,7.04,-25.33,-32.32,-42.57,"END
"
243,0,0,389910148,-1112306948,8423143,2023,10,3,22,30,34,0,0,0,3.88,3.30,4.98,4.99,39.35,29.58,27.07,33.37,26.49,988.14,-4.05,-5.20,7.38,-24.18,-31.70,-44.24,"END
"
244,0,0,389941887,-1112259837,8424300,2023,10,3,22,30,35,0,0,0,3.83,3.32,4.98,4.99,38.93,30.05,27.06,33.35,26.48,988.24,-4.05,-5.20,7.08,-24.78,-32.53,-44.73,"END
"
245,0,0,389973616,-1112212726,8425456,2023,10,3,22,30,36,0,0,0,3.89,3.30,4.98,4.99,40.11,29.65,27.06,33.34,26.48,988.24,-4.13,-5.20,7.11,-25.11,-32.31,-44.60,"END
"
246,0,0,390005336,-1112165618,8426612,2023,10,3,22,30,37,0,0,0,3.88,3.31,4.98,4.99,39.54,30.36,27.06,33.32,26.48,988.06,-4.05,-5.28,7.11,-24.59,-32.81,-43.66,"END
"
247,0,0,390037045,-1112118510,8427768,2023,10,3,22,30,38,0,0,0,3.88,3.31,4.98,4.98,39.50,30.07,27.07,33.36,26.51,988.01,-4.09,-5.24,7.08,-24.93,-32.66,-43.63,"END
"
248,0,0,390068745,-1112071404,8428923,2023,10,3,22,30,39,0,0,0,3.85,3.32,4.98,4.99,39.71,29.90,27.09,33.41,26.49,988.30,-4.09,-5.28,7.11,-24.80,-32.75,-43.57,"END
"
249,0,0,390100435,-1112024298,8430078,2023,10,3,22,30,40,0,0,0,3.88,3.30,4.98,4.99,39.35,29.96,27.10,33.40,26.49,988.20,-4.17,-5.24,7.04,-25.41,-32.64,-41.90,"END
"
250,0,0,390132115,-1111977194,8431233,2023,10,3,22,30,41,0,0,0,3.88,3.31,4.98,4.99,39.14,29.90,27.09,33.41,26.53,988.02,-4.17,-5.20,7.04,-25.47,-32.45,-44.08,"END
"
251,0,0,390163785,-1111930092,8432387,2023,10,3,22,30,42,0,0,0,3.88,3.30,4.98,4.99,39.53,30.26,27.12,33.44,26.52,988.30,-4.13,-5.28,7.08,-25.08,-32.79,-43.43,"END
"
252,0,0,390195446,-1111882990,8433541,2023,10,3,22,30,43,0,0,0,3.89,3.31,4.98,4.99,39.87,29.93,27.12,33.41,26.55,988.16,-4.13,-5.24,7.11,-25.06,-32.50,-44.05,"END
"
253,0,0,390227096,-1111835890,8434695,2023,10,3,22,30,44,0,0,0,3.87,3.30,4.98,4.99,39.54,30.07,27.12,33.44,26.54,988.28,-4.13,-5.16,7.08,-25.25,-32.22,-44.84,"END
"
254,0,0,390258737,-1111788791,8435848,2023,10,3,22,30,45,0,0,0,3.88,3.31,4.98,4.98,40.26,30.04,27.12,33.42,26.55,988.24,-4.13,-5.24,7.08,-25.13,-32.60,-43.48,"END
"
255,0,0,384966099,-1104935662,8243329,2023,10,3,22,30,46,0,0,0,3.87,3.30,4.98,4.98,39.68,30.80,27.12,33.47,26.57,988.20,-4.09,-5.28,7.23,-24.57,-32.43,-44.24,"END
"
256,0,0,390321990,-1111694596,8438154,2023,10,3,22,30,47,0,0,0,3.89,3.31,4.98,4.94,39.31,30.36,27.14,33.47,26.53,988.33,-4.09,-5.24,7.08,-24.93,-32.66,-44.42,"END
"
257,0,0,348480013,-1152776939,6942700,2023,10,3,22,30,48,0,0,0,3.88,3.31,4.98,4.98,39.37,30.63,27.13,33.47,26.54,988.13,-4.05,-5.20,7.08,-24.78,-32.53,-43.59,"END
"
258,0,0,349708243,-1151614680,6985603,2023,10,3,22,30,49,0,0,0,3.88,3.31,4.98,4.99,39.84,30.24,27.13,33.46,26.55,988.23,-4.09,-5.35,6.92,-25.06,-33.66,-42.19,"END
"
259,0,0,349706294,-1151580652,6985535,2023,10,3,22,30,50,0,0,0,3.88,3.30,4.98,4.98,39.69,30.03,27.14,33.50,26.57,988.15,-4.09,-5.16,7.11,-24.97,-32.18,-45.04,"END
"
260,0,0,348471031,-1152675895,6942387,2023,10,3,22,30,51,0,0,0,3.88,3.31,4.98,4.94,38.38,30.44,27.14,33.52,26.56,988.27,-4.09,-5.09,6.85,-25.63,-32.53,-44.32,"END
"
261,0,0,348468028,-1152642222,6942282,2023,10,3,22,30,52,0,0,0,3.83,3.31,4.98,4.98,39.49,30.69,27.13,33.53,26.55,988.29,-4.13,-5.32,7.04,-25.10,-33.08,-42.29,"END
"
262,0,0,348465021,-1152608553,6942177,2023,10,3,22,30,53,0,0,0,3.88,3.32,4.98,4.99,39.34,29.68,27.15,33.50,26.56,988.28,-4.13,-5.24,7.04,-25.21,-32.71,-42.75,"END
"
263,0,0,348462010,-1152574888,6942072,2023,10,3,22,30,54,0,0,0,3.88,3.30,4.98,4.99,39.36,31.15,27.14,33.54,26.53,988.31,-4.05,-5.20,7.04,-24.86,-32.64,-42.89,"END
"
264,0,0,348458994,-1152541226,6941967,2023,10,3,22,30,55,0,0,0,3.88,3.31,4.98,4.99,39.81,29.70,27.15,33.55,26.55,988.28,-4.17,-5.20,7.08,-25.39,-32.35,-43.14,"END
"
265,0,0,348455974,-1152507569,6941861,2023,10,3,22,30,56,0,0,0,3.85,3.31,4.98,4.99,39.81,30.03,27.16,33.59,26.54,988.30,-4.05,-5.24,7.08,-24.72,-32.72,-43.56,"END
"
266,0,0,348452949,-1152473916,6941756,2023,10,3,22,30,57,0,0,0,3.88,3.31,4.98,4.99,39.85,30.45,27.14,33.55,26.55,988.23,-4.09,-5.20,6.88,-25.37,-33.00,-42.78,"END
"
267,0,0,348449920,-1152440266,6941650,2023,10,3,22,30,58,0,0,0,3.83,3.30,4.98,4.99,40.20,30.85,27.15,33.57,26.55,988.37,-4.13,-5.20,7.08,-25.19,-32.41,-43.51,"END
"
268,0,0,347245983,-1153497348,6899665,2023,10,3,22,30,59,0,0,0,3.88,3.31,4.98,4.99,40.20,30.32,27.16,33.60,26.55,988.37,-4.09,-5.20,7.08,-24.99,-32.47,-44.07,"END
"
269,0,0,347241934,-1153464040,6899524,2023,10,3,22,31,0,0,0,0,3.87,3.30,4.98,4.98,39.96,31.28,27.16,33.66,26.55,988.24,-4.13,-5.20,7.00,-25.35,-32.62,-43.67,"END
"
270,0,0,343474620,-1149949434,6768587,2023,10,3,22,31,1,0,0,0,3.89,3.31,4.98,4.99,39.85,30.17,27.17,33.61,26.60,988.31,-4.05,-5.09,6.88,-25.34,-32.48,-43.25,"END
"
271,0,0,350876373,-1156805310,7026470,2023,10,3,22,31,2,0,0,0,3.88,3.31,4.98,4.99,40.56,30.46,27.18,33.62,26.56,988.27,-4.13,-5.20,7.11,-25.11,-32.31,-43.78,"END
"
272,0,0,348434709,-1152272080,6941119,2023,10,3,22,31,3,0,0,0,3.88,3.31,4.98,4.99,40.03,30.13,27.18,33.63,26.57,988.36,-4.09,-5.24,7.11,-24.85,-32.56,-43.09,"END
"
273,0,0,318787191,-1125638664,5928471,2023,10,3,22,31,4,0,0,0,3.88,3.30,4.98,4.95,39.29,30.58,27.20,33.67,26.59,988.38,-4.09,-5.24,7.38,-24.33,-31.83,-43.88,"END
"
274,0,0,361723919,-1173271120,7408814,2023,10,3,22,31,5,0,0,0,3.88,3.31,4.98,4.99,39.99,30.30,27.21,33.65,26.56,988.35,-4.13,-5.28,7.04,-25.15,-32.90,-42.85,"END
"
275,0,0,368433347,-1186089930,7647716,2023,10,3,22,31,6,0,0,0,3.88,3.30,4.98,4.99,40.26,31.45,27.21,33.71,26.62,988.40,-4.09,-5.28,7.08,-24.87,-32.85,-44.17,"END
"
276,0,0,373541780,-1204051995,7830750,2023,10,3,22,31,7,0,0,0,3.88,3.31,4.98,4.99,40.44,30.09,27.22,33.69,26.59,988.39,-4.09,-5.09,6.77,-25.79,-32.74,-43.28,"END
"
277,0,0,366576742,-1189836212,7581433,2023,10,3,22,31,8,0,0,0,3.89,3.30,4.98,4.99,39.88,30.73,27.21,33.68,26.61,988.13,-4.02,-5.24,7.04,-24.59,-32.89,-43.40,"END
"
278,0,0,364661706,-1193705880,7513203,2023,10,3,22,31,9,0,0,0,3.88,3.31,4.98,4.99,39.90,30.54,27.22,33.66,26.63,988.36,-4.13,-5.24,7.04,-25.21,-32.71,-44.46,"END
"
279,0,0,361271812,-1186834521,7392780,2023,10,3,22,31,10,0,0,0,3.87,3.30,4.98,4.97,39.78,29.88,27.22,33.73,26.61,988.29,-4.09,-5.12,7.30,-24.64,-31.47,-46.14,"END
"
280,0,0,366334937,-1193246772,7572810,2023,10,3,22,31,11,0,0,0,3.85,3.31,4.98,4.99,40.26,30.38,27.23,33.70,26.63,988.27,-4.09,-5.20,7.08,-24.99,-32.47,-43.83,"END
"
281,0,0,366532706,-1189683486,7579863,2023,10,3,22,31,12,0,0,0,3.88,3.31,4.98,4.99,40.53,30.45,27.26,33.73,26.62,988.47,-4.09,-5.24,7.04,-25.01,-32.77,-42.23,"END
"
282,0,0,366521684,-1189645317,7579470,2023,10,3,22,31,13,0,0,0,3.89,3.31,4.98,4.99,40.41,30.01,27.26,33.77,26.62,988.35,-4.05,-5.24,6.65,-25.58,-33.92,-41.58,"END
"
283,0,0,345791363,-1174662552,6849029,2023,10,3,22,31,14,0,0,0,3.87,3.31,4.98,4.99,39.91,30.08,27.27,33.74,26.65,988.32,-4.02,-5.28,7.08,-24.46,-32.97,-43.04,"END
"
284,0,0,355050527,-1178995834,7172999,2023,10,3,22,31,15,0,0,0,3.85,3.31,4.98,4.99,40.97,30.05,27.28,33.72,26.66,988.40,-4.09,-5.20,7.11,-24.91,-32.37,-43.83,"END
"
285,0,0,353088833,-1171401199,7104040,2023,10,3,22,31,16,0,0,0,3.88,3.31,4.98,4.98,39.91,30.45,27.29,33.73,26.66,988.28,-4.09,-5.16,7.15,-24.89,-32.07,-43.54,"END
"
286,0,0,357571978,-1172129094,7261879,2023,10,3,22,31,17,0,0,0,3.84,3.31,4.98,4.99,40.34,29.88,27.28,33.82,26.68,988.43,-4.17,-5.35,7.00,-25.32,-33.32,-42.22,"END
"
287,0,0,356068530,-1172882721,7208850,2023,10,3,22,31,18,0,0,0,3.89,3.31,4.98,4.99,41.17,29.71,27.30,33.77,26.69,988.42,-4.09,-5.24,7.08,-24.93,-32.66,-45.25,"END
"
288,0,0,363084893,-1182737278,7457131,2023,10,3,22,31,19,0,0,0,3.89,3.31,4.98,4.99,39.67,30.22,27.29,33.80,26.67,988.38,-4.09,-5.20,7.00,-25.14,-32.68,-44.43,"END
"
289,0,0,366643912,-1186066911,7583829,2023,10,3,22,31,20,0,0,0,3.88,3.30,4.98,4.98,39.70,30.59,27.30,33.79,26.68,988.40,-4.05,-5.24,7.08,-24.72,-32.72,-43.69,"END
"
290,0,0,363348064,-1179611450,7466483,2023,10,3,22,31,21,0,0,0,3.83,3.31,4.98,4.99,40.40,30.23,27.31,33.80,26.71,988.32,-4.09,-5.24,7.08,-24.93,-32.66,-43.63,"END
"
291,0,0,366624668,-1185990578,7583142,2023,10,3,22,31,22,0,0,0,3.88,3.30,4.98,4.98,40.61,30.03,27.32,33.79,26.69,988.25,-4.13,-5.32,7.04,-25.10,-33.08,-43.47,"END
"
292,0,0,359741617,-1176160882,7338572,2023,10,3,22,31,23,0,0,0,3.88,3.31,4.98,4.97,40.30,30.25,27.29,33.80,26.70,988.31,-4.09,-5.24,7.08,-24.93,-32.66,-43.75,"END
"
293,0,0,359732922,-1176124549,7338265,2023,10,3,22,31,24,0,0,0,3.87,3.31,4.98,4.98,39.42,30.73,27.30,33.84,26.70,988.31,-4.05,-5.24,6.85,-25.19,-33.37,-43.61,"END
"
294,0,0,357791179,-1179718560,7269618,2023,10,3,22,31,25,0,0,0,3.88,3.31,4.98,4.99,40.27,30.17,27.30,33.79,26.73,988.27,-4.05,-5.24,7.11,-24.65,-32.62,-44.15,"END
"
295,0,0,363015789,-1182476813,7454676,2023,10,3,22,31,26,0,0,0,3.88,3.31,4.98,4.99,40.62,31.17,27.31,33.83,26.70,988.53,-4.05,-5.24,7.11,-24.65,-32.62,-43.49,"END
"
296,0,0,363005898,-1182439623,7454324,2023,10,3,22,31,27,0,0,0,3.88,3.31,4.98,4.95,40.22,30.05,27.30,33.82,26.71,988.32,-4.09,-5.28,7.08,-24.87,-32.85,-41.26,"END
"
297,0,0,366566817,-1185761690,7581079,2023,10,3,22,31,28,0,0,0,3.88,3.30,4.98,4.98,40.99,30.45,27.32,33.84,26.73,988.31,-4.09,-5.20,7.04,-25.06,-32.58,-43.36,"END
"
298,0,0,368234774,-1185201587,7640620,2023,10,3,22,31,29,0,0,0,3.88,3.31,4.98,4.94,40.90,30.23,27.33,33.88,26.71,988.30,-4.05,-5.16,7.15,-24.68,-32.13,-43.99,"END
"
299,0,0,368226081,-1185163018,7640310,2023,10,3,22,31,30,0,0,0,3.88,3.30,4.98,4.98,40.29,31.54,27.32,33.86,26.71,988.54,-4.02,-5.24,7.08,-24.52,-32.78,-43.88,"END
"
300,0,0,364606985,-1181692850,7511255,2023,10,3,22,31,31,0,0,0,3.88,3.31,4.98,4.99,40.40,30.20,27.31,33.84,26.71,988.40,-4.09,-5.28,7.11,-24.80,-32.75,-44.53,"END
"
301,0,0,362956373,-1182253739,7452565,2023,10,3,22,31,32,0,0,0,3.88,3.31,4.98,4.98,40.17,31.07,27.31,33.88,26.71,988.43,-4.05,-5.20,7.00,-24.93,-32.74,-42.70,"END
"
302,0,0,361361713,-1182791885,7395967,2023,10,3,22,31,33,0,0,0,3.88,3.31,4.98,4.95,40.77,30.44,27.32,33.86,26.73,988.46,-4.09,-5.20,7.08,-24.99,-32.47,-44.14,"END
"
303,0,0,358143415,-1176450819,7282059,2023,10,3,22,31,34,0,0,0,3.83,3.31,4.98,4.98,40.12,31.33,27.33,33.87,26.72,988.41,-4.13,-5.20,7.08,-25.19,-32.41,-44.13,"END
"
304,0,0,354986681,-1170338190,7170752,2023,10,3,22,31,35,0,0,0,3.88,3.31,4.98,4.99,40.47,29.91,27.33,33.89,26.74,988.41,-4.05,-5.24,7.04,-24.80,-32.83,-44.65,"END
"
305,0,0,360010801,-1172880077,7348101,2023,10,3,22,31,36,0,0,0,3.87,3.31,4.98,4.98,39.35,30.73,27.32,33.91,26.76,988.36,-4.09,-5.20,7.11,-24.91,-32.37,-44.91,"END
"
306,0,0,346898788,-1155451143,6887570,2023,10,3,22,31,37,0,0,0,3.89,3.31,4.98,4.99,40.41,30.22,27.37,33.88,26.74,988.43,-4.17,-5.28,6.88,-25.67,-33.26,-42.26,"END
"
307,0,0,340624918,-1155162382,6669995,2023,10,3,22,31,38,0,0,0,3.85,3.30,4.98,4.98,40.20,30.61,27.36,33.89,26.76,988.43,-4.13,-5.24,7.15,-24.98,-32.39,-43.25,"END
"
308,0,0,344768373,-1158822768,6813477,2023,10,3,22,31,39,0,0,0,3.88,3.31,4.98,4.99,40.50,30.44,27.36,33.85,26.74,988.35,-4.05,-5.16,7.11,-24.76,-32.24,-45.00,"END
"
309,0,0,354067121,-1165014918,7138408,2023,10,3,22,31,40,0,0,0,3.85,3.30,4.98,4.98,41.01,31.00,27.37,33.92,26.75,988.35,-4.02,-5.20,6.81,-25.11,-33.35,-44.60,"END
"
310,0,0,362866929,-1181919442,7449388,2023,10,3,22,31,41,0,0,0,3.88,3.31,4.98,4.99,40.59,30.51,27.37,33.96,26.76,988.44,-4.09,-5.20,7.04,-25.06,-32.58,-45.05,"END
"
311,0,0,356874241,-1174183414,7237257,2023,10,3,22,31,42,0,0,0,3.88,3.30,4.98,4.98,40.41,31.04,27.37,33.93,26.77,988.22,-4.09,-5.28,7.04,-24.95,-32.96,-43.57,"END
"
312,0,0,349410577,-1163914876,6975199,2023,10,3,22,31,43,0,0,0,3.88,3.31,4.98,4.99,41.03,30.54,27.35,33.95,26.78,988.22,-4.17,-5.28,7.11,-25.20,-32.62,-43.77,"END
"
313,0,0,222879771,-1066406943,3053932,2023,10,3,22,31,44,0,0,0,3.88,3.31,4.98,4.98,41.00,30.81,27.37,33.99,26.77,988.57,-4.02,-5.28,7.08,-24.46,-32.97,-43.71,"END
"
314,0,0,222867967,-1066400429,3053625,2023,10,3,22,31,45,0,0,0,3.88,3.31,4.98,4.99,40.36,30.31,27.37,33.97,26.80,988.33,-4.09,-5.24,7.11,-24.85,-32.56,-45.44,"END
"
315,0,0,222856162,-1066393917,3053317,2023,10,3,22,31,46,0,0,0,3.88,3.30,4.98,4.96,41.35,30.73,27.38,33.98,26.79,988.42,-4.13,-5.24,6.88,-25.52,-33.13,-43.00,"END
"
316,0,0,222844357,-1066387408,3053010,2023,10,3,22,31,47,0,0,0,3.89,3.31,4.98,4.99,41.00,30.22,27.40,34.02,26.80,988.46,-4.09,-5.24,7.08,-24.93,-32.66,-43.17,"END
"
317,0,0,225216053,-1072253471,3115019,2023,10,3,22,31,48,0,0,0,3.88,3.30,4.98,4.99,40.77,31.19,27.40,34.00,26.79,988.46,-4.05,-5.28,7.04,-24.74,-33.02,-42.40,"END
"
318,0,0,221183362,-1062377690,3009892,2023,10,3,22,31,49,0,0,0,3.89,3.31,4.98,4.99,40.69,30.38,27.41,34.05,26.80,988.34,-4.09,-5.32,7.19,-24.59,-32.72,-43.29,"END
"
319,0,0,222808934,-1066367895,3052088,2023,10,3,22,31,50,0,0,0,3.87,3.31,4.98,4.97,39.45,31.15,27.42,33.99,26.80,988.49,-4.09,-5.24,7.11,-24.85,-32.56,-44.67,"END
"
320,0,0,225784427,-1073754493,3129957,2023,10,3,22,31,51,0,0,0,3.88,3.31,4.98,4.99,40.85,29.90,27.43,34.05,26.82,988.39,-4.09,-5.28,7.11,-24.80,-32.75,-42.86,"END
"
321,0,0,225769653,-1073747709,3129568,2023,10,3,22,31,52,0,0,0,3.88,3.31,4.98,4.97,39.92,30.72,27.42,33.99,26.81,988.31,-4.09,-5.24,7.38,-24.33,-31.83,-47.20,"END
"
322,0,0,228049833,-1079511556,3189789,2023,10,3,22,31,53,0,0,0,3.85,3.31,4.98,4.99,40.82,30.49,27.44,34.02,26.81,988.39,-4.05,-5.32,7.08,-24.61,-33.10,-44.01,"END
"
323,0,0,283758687,-967846248,4798775,2023,10,3,22,31,54,0,0,0,3.87,3.30,4.98,4.99,40.60,30.63,27.44,34.04,26.82,988.46,-4.17,-5.16,7.08,-25.45,-32.16,-43.81,"END
"
324,0,0,283769100,-967838379,4799098,2023,10,3,22,31,55,0,0,0,3.88,3.31,4.98,4.99,40.68,30.33,27.45,34.09,26.84,988.29,-4.05,-5.20,6.65,-25.64,-33.72,-42.57,"END
"
325,0,0,283779511,-967830508,4799422,2023,10,3,22,31,56,0,0,0,3.88,3.30,4.98,4.99,40.17,30.86,27.47,34.08,26.84,988.54,-4.02,-5.24,7.11,-24.44,-32.68,-44.77,"END
"
326,0,0,283789921,-967822636,4799745,2023,10,3,22,31,57,0,0,0,3.84,3.31,4.98,4.99,40.86,30.34,27.47,34.08,26.84,988.47,-4.05,-5.24,7.15,-24.57,-32.51,-44.04,"END
"
327,0,0,283800329,-967814763,4800069,2023,10,3,22,31,58,0,0,0,3.87,3.30,4.98,4.99,41.42,31.22,27.47,34.09,26.84,988.45,-4.13,-5.24,7.08,-25.13,-32.60,-44.08,"END
"
328,0,0,283810735,-967806890,4800392,2023,10,3,22,31,59,0,0,0,3.82,3.31,4.98,4.99,40.67,30.66,27.48,34.11,26.85,988.54,-4.02,-5.20,7.08,-24.57,-32.59,-44.07,"END
"
329,0,0,283821139,-967799015,4800715,2023,10,3,22,32,0,0,0,0,3.89,3.31,4.98,4.98,40.49,30.75,27.47,34.08,26.86,988.44,-4.02,-5.24,7.04,-24.59,-32.89,-44.27,"END
"
330,0,0,283831542,-967791140,4801039,2023,10,3,22,32,1,0,0,0,3.88,3.31,4.98,4.99,40.74,30.48,27.48,34.14,26.85,988.42,-4.09,-5.24,6.92,-25.24,-33.09,-42.83,"END
"
331,0,0,283841943,-967783264,4801362,2023,10,3,22,32,2,0,0,0,3.87,3.31,4.98,4.98,40.09,31.01,27.48,34.17,26.86,988.43,-4.09,-5.24,7.08,-24.93,-32.66,-43.41,"END
"
332,0,0,280913463,-961436728,4710666,2023,10,3,22,32,3,0,0,0,3.83,3.31,4.98,4.99,40.77,30.47,27.47,34.10,26.86,988.39,-4.05,-5.28,7.08,-24.67,-32.91,-43.12,"END
"
333,0,0,280926306,-961428694,4711062,2023,10,3,22,32,4,0,0,0,3.88,3.30,4.98,4.99,39.74,30.69,27.48,34.17,26.87,988.30,-4.13,-5.24,7.11,-25.06,-32.50,-44.26,"END
"
334,0,0,280939148,-961420659,4711459,2023,10,3,22,32,5,0,0,0,3.88,3.31,4.98,4.97,40.77,30.38,27.48,34.15,26.87,988.36,-4.02,-5.24,7.08,-24.52,-32.78,-44.27,"END
"
335,0,0,280951988,-961412622,4711855,2023,10,3,22,32,6,0,0,0,3.87,3.31,4.98,4.99,40.65,31.17,27.51,34.12,26.87,988.48,-4.05,-5.32,7.08,-24.61,-33.10,-42.98,"END
"
336,0,0,286557749,-965223723,4886022,2023,10,3,22,32,7,0,0,0,3.88,3.31,4.98,4.99,40.82,30.89,27.51,34.16,26.87,988.39,-4.05,-5.24,7.08,-24.72,-32.72,-43.26,"END
"
337,0,0,284639107,-964592547,4826157,2023,10,3,22,32,8,0,0,0,3.88,3.30,4.98,4.98,39.26,30.95,27.50,34.14,26.91,988.21,-4.13,-5.28,7.08,-25.08,-32.79,-44.00,"END
"
338,0,0,290803802,-968860228,5019428,2023,10,3,22,32,9,0,0,0,3.88,3.31,4.98,4.97,40.87,30.29,27.52,34.18,26.89,988.40,-4.09,-5.28,7.15,-24.72,-32.64,-43.85,"END
"
339,0,0,284826800,-969270388,4832002,2023,10,3,22,32,10,0,0,0,3.87,3.30,4.98,4.99,40.11,31.33,27.52,34.21,26.90,988.44,-4.05,-5.32,7.04,-24.69,-33.21,-42.98,"END
"
340,0,0,279228473,-965217335,4658764,2023,10,3,22,32,11,0,0,0,3.89,3.31,4.98,4.94,40.73,30.27,27.51,34.18,26.91,988.53,-4.02,-5.28,7.00,-24.61,-33.19,-43.44,"END
"
341,0,0,278971508,-960639189,4650867,2023,10,3,22,32,12,0,0,0,3.89,3.30,4.98,4.99,41.32,31.36,27.52,34.19,26.89,988.35,-4.05,-5.24,7.11,-24.65,-32.62,-45.54,"END
"
342,0,0,278984901,-960631169,4651278,2023,10,3,22,32,13,0,0,0,3.88,3.31,4.98,4.99,40.81,30.89,27.50,34.25,26.91,988.40,-4.09,-5.28,6.85,-25.33,-33.49,-44.03,"END
"
343,0,0,283795354,-963218779,4799914,2023,10,3,22,32,14,0,0,0,3.88,3.31,4.98,4.98,40.31,31.34,27.54,34.26,26.92,988.38,-4.09,-5.24,7.04,-25.01,-32.77,-43.18,"END
"
344,0,0,280825995,-956776016,4707966,2023,10,3,22,32,15,0,0,0,3.88,3.31,4.98,4.96,39.91,30.66,27.53,34.23,26.90,988.46,-4.05,-5.20,7.04,-24.86,-32.64,-43.93,"END
"
345,0,0,280840273,-956767793,4708407,2023,10,3,22,32,16,0,0,0,3.84,3.30,4.98,4.99,40.74,31.30,27.53,34.25,26.94,988.36,-4.05,-5.28,6.88,-25.05,-33.45,-42.40,"END
"
346,0,0,283642434,-958567613,4795163,2023,10,3,22,32,17,0,0,0,3.89,3.31,4.98,4.99,40.87,30.33,27.53,34.25,26.91,988.46,-4.02,-5.20,7.04,-24.65,-32.70,-44.71,"END
"
347,0,0,284751481,-964512368,4829656,2023,10,3,22,32,18,0,0,0,3.88,3.30,4.98,4.99,40.01,30.78,27.51,34.25,26.91,988.33,-4.09,-5.28,7.11,-24.80,-32.75,-43.58,"END
"
348,0,0,288388086,-985452365,4943374,2023,10,3,22,32,19,0,0,0,3.88,3.31,4.98,4.99,40.87,30.18,27.53,34.21,26.90,988.34,-4.05,-5.35,7.19,-24.33,-32.97,-43.19,"END
"
349,0,0,276246698,-979797276,4567431,2023,10,3,22,32,20,0,0,0,3.85,3.30,4.98,4.98,40.89,31.25,27.54,34.28,26.92,988.31,-4.05,-5.24,7.04,-24.80,-32.83,-43.64,"END
"
350,0,0,268696174,-979436394,4339144,2023,10,3,22,32,21,0,0,0,3.88,3.31,4.98,4.99,40.35,30.40,27.55,34.25,26.95,988.36,-4.09,-5.20,7.11,-24.91,-32.37,-44.73,"END
"
351,0,0,268260363,-973024887,4326101,2023,10,3,22,32,22,0,0,0,3.85,3.30,4.98,4.98,40.84,31.22,27.57,34.28,26.95,988.48,-4.09,-5.24,7.08,-24.93,-32.66,-44.27,"END
"
352,0,0,263391916,-968954675,4181401,2023,10,3,22,32,23,0,0,0,3.88,3.31,4.98,4.99,40.48,30.23,27.55,34.23,26.95,988.50,-4.09,-5.24,7.08,-24.93,-32.66,-43.43,"END
"
353,0,0,275554612,-973185212,4546326,2023,10,3,22,32,24,0,0,0,3.88,3.30,4.98,4.99,40.51,31.44,27.55,34.32,26.93,988.28,-4.05,-5.20,7.15,-24.63,-32.32,-43.79,"END
"
354,0,0,287220270,-982663133,4906754,2023,10,3,22,32,25,0,0,0,3.88,3.31,4.98,4.99,40.44,30.62,27.55,34.28,26.95,988.42,-4.09,-5.24,7.11,-24.85,-32.56,-42.98,"END
"
355,0,0,308440827,-1000639719,5586591,2023,10,3,22,32,26,0,0,0,3.88,3.30,4.98,4.99,40.33,32.34,27.56,34.30,26.96,988.27,-4.09,-5.24,7.11,-24.85,-32.56,-43.41,"END
"
356,0,0,308437246,-1000632082,5586473,2023,10,3,22,32,27,0,0,0,3.88,3.31,4.98,4.99,39.74,30.38,27.58,34.34,26.96,988.45,-4.05,-5.28,6.96,-24.90,-33.23,-44.03,"END
"
357,0,0,332205003,-1013595578,6381066,2023,10,3,22,32,28,0,0,0,3.88,3.30,4.98,4.95,40.54,30.78,27.58,34.33,26.98,988.32,-4.09,-5.28,7.11,-24.80,-32.75,-44.26,"END
"
358,0,0,332194335,-1013587559,6380702,2023,10,3,22,32,29,0,0,0,3.88,3.31,4.98,4.99,41.07,30.10,27.59,34.30,26.97,988.34,-4.05,-5.24,7.15,-24.57,-32.51,-44.23,"END
"
359,0,0,333645586,-1006890841,6430241,2023,10,3,22,32,30,0,0,0,3.89,3.31,4.98,4.99,40.11,31.26,27.60,34.33,26.96,988.31,-4.05,-5.20,7.15,-24.63,-32.32,-43.12,"END
"
360,0,0,332172992,-1013571522,6379975,2023,10,3,22,32,31,0,0,0,3.88,3.31,4.98,4.99,40.05,30.38,27.60,34.36,27.02,988.44,-4.05,-5.28,7.08,-24.67,-32.91,-44.53,"END
"
361,0,0,333369179,-1008068957,6420797,2023,10,3,22,32,32,0,0,0,3.88,3.31,4.98,4.97,40.53,30.95,27.61,34.34,26.98,988.40,-4.05,-5.20,7.08,-24.78,-32.53,-43.69,"END
"
362,0,0,331803120,-1015117406,6367367,2023,10,3,22,32,33,0,0,0,3.88,3.31,4.98,4.99,40.82,30.82,27.62,34.34,27.01,988.26,-4.09,-5.28,7.00,-25.03,-33.06,-44.39,"END
"
363,0,0,328292717,-1030253846,6248075,2023,10,3,22,32,34,0,0,0,3.87,3.30,4.98,4.97,39.67,30.09,27.62,34.37,27.02,988.13,-4.02,-5.24,7.11,-24.44,-32.68,-45.19,"END
"
364,0,0,326308673,-1038379417,6180948,2023,10,3,22,32,35,0,0,0,3.85,3.31,4.98,4.99,40.94,30.61,27.63,34.37,26.99,988.08,-4.02,-5.20,7.15,-24.42,-32.38,-44.11,"END
"
365,0,0,330083802,-1022486670,6308858,2023,10,3,22,32,36,0,0,0,3.88,3.30,4.98,4.99,40.00,30.80,27.63,34.42,27.00,988.25,-4.05,-5.28,7.15,-24.52,-32.70,-43.93,"END
"
366,0,0,333323271,-1008028358,6419229,2023,10,3,22,32,37,0,0,0,3.88,3.31,4.98,4.99,41.18,30.49,27.64,34.40,27.00,988.32,-4.09,-5.12,7.11,-25.02,-31.98,-45.51,"END
"
367,0,0,334768119,-1001278851,6468634,2023,10,3,22,32,38,0,0,0,3.87,3.30,4.98,4.98,40.05,31.08,27.65,34.41,27.00,988.13,-4.09,-5.32,7.00,-24.97,-33.25,-44.52,"END
"
368,0,0,333304892,-1008012117,6418602,2023,10,3,22,32,39,0,0,0,3.88,3.31,4.98,4.99,40.91,30.68,27.66,34.43,26.98,988.30,-4.13,-5.24,7.11,-25.06,-32.50,-44.20,"END
"
369,0,0,331725324,-1015061453,6364716,2023,10,3,22,32,40,0,0,0,3.88,3.31,4.98,4.99,40.57,31.52,27.65,34.38,27.02,988.30,-4.21,-5.20,6.92,-25.91,-32.70,-43.73,"END
"
370,0,0,331714202,-1015053460,6364338,2023,10,3,22,32,41,0,0,0,3.83,3.32,4.98,4.99,40.54,30.30,27.66,34.37,27.02,988.20,-4.09,-5.24,7.08,-24.93,-32.66,-45.02,"END
"
371,0,0,333277307,-1007987755,6417659,2023,10,3,22,32,42,0,0,0,3.89,3.31,4.98,4.99,40.63,27.41,27.66,34.44,26.99,988.28,-4.13,-5.24,7.15,-24.98,-32.39,-43.87,"END
"
372,0,0,334731316,-1001237492,6467375,2023,10,3,22,32,43,0,0,0,3.88,3.31,4.98,4.99,40.70,30.68,27.64,34.41,27.03,988.22,-4.05,-5.24,7.04,-24.80,-32.83,-44.55,"END
"
373,0,0,334723948,-1001229219,6467122,2023,10,3,22,32,44,0,0,0,3.87,3.30,4.98,4.98,40.12,30.95,27.64,34.37,27.01,988.28,-4.05,-5.28,7.04,-24.74,-33.02,-45.45,"END
"
374,0,0,333249702,-1007963391,6416717,2023,10,3,22,32,45,0,0,0,3.84,3.31,4.98,4.99,41.03,30.64,27.65,34.45,26.99,988.20,-4.05,-5.20,7.08,-24.78,-32.53,-45.15,"END
"
375,0,0,332012629,-1013451241,6374508,2023,10,3,22,32,46,0,0,0,3.88,3.31,4.98,4.99,40.27,31.18,27.66,34.44,27.00,988.32,-4.05,-5.24,6.65,-25.58,-33.92,-41.98,"END
"
376,0,0,332001920,-1013443222,6374143,2023,10,3,22,32,47,0,0,0,3.88,3.31,4.98,4.97,40.69,31.09,27.68,34.40,27.04,988.21,-4.09,-5.28,7.11,-24.80,-32.75,-43.65,"END
"
377,0,0,330384804,-1020429385,6319090,2023,10,3,22,32,48,0,0,0,3.88,3.31,4.98,4.98,40.97,31.57,27.68,34.48,27.02,988.27,-4.05,-5.24,7.04,-24.80,-32.83,-44.51,"END
"
378,0,0,330372174,-1020421470,6318661,2023,10,3,22,32,49,0,0,0,3.88,3.31,4.98,4.99,41.11,30.38,27.70,34.48,27.03,988.32,-3.94,-5.20,6.92,-24.46,-33.15,-43.93,"END
"
379,0,0,328626936,-1027729951,6259404,2023,10,3,22,32,50,0,0,0,3.88,3.30,4.98,4.99,40.81,31.79,27.69,34.49,27.04,988.51,-4.05,-5.24,7.04,-24.80,-32.83,-43.12,"END
"
380,0,0,330346909,-1020405642,6317801,2023,10,3,22,32,51,0,0,0,3.88,3.31,4.98,4.99,40.91,31.08,27.71,34.48,27.06,988.20,-4.02,-5.20,7.08,-24.57,-32.59,-43.30,"END
"
381,0,0,330334272,-1020397728,6317372,2023,10,3,22,32,52,0,0,0,3.87,3.30,4.98,4.98,40.18,31.94,27.74,34.42,27.05,988.38,-4.02,-5.12,7.19,-24.46,-31.89,-45.57,"END
"
382,0,0,330321634,-1020389814,6316942,2023,10,3,22,32,53,0,0,0,3.89,3.31,4.98,4.94,41.22,30.72,27.72,34.48,27.05,988.44,-4.09,-5.24,7.11,-24.85,-32.56,-42.98,"END
"
383,0,0,331569401,-1014949553,6359404,2023,10,3,22,32,54,0,0,0,3.87,3.31,4.98,4.98,41.00,31.40,27.73,34.47,27.05,988.41,-4.13,-5.24,7.04,-25.21,-32.71,-44.91,"END
"
384,0,0,331558247,-1014941560,6359025,2023,10,3,22,32,55,0,0,0,3.88,3.31,4.98,4.99,41.34,30.17,27.72,34.46,27.07,988.36,-3.98,-5.24,7.11,-24.24,-32.74,-44.51,"END
"
385,0,0,331547090,-1014933568,6358645,2023,10,3,22,32,56,0,0,0,3.88,3.30,4.98,4.98,41.31,31.62,27.72,34.48,27.05,988.46,-4.02,-5.09,7.04,-24.82,-32.12,-44.66,"END
"
386,0,0,331535931,-1014925575,6358264,2023,10,3,22,32,57,0,0,0,3.88,3.31,4.98,4.94,40.86,30.53,27.72,34.54,27.06,988.44,-4.13,-5.24,6.88,-25.52,-33.13,-43.62,"END
"
387,0,0,331524770,-1014917583,6357884,2023,10,3,22,32,58,0,0,0,3.82,3.30,4.98,4.99,40.38,31.57,27.72,34.48,27.07,988.34,-4.05,-5.24,7.15,-24.57,-32.51,-43.12,"END
"
388,0,0,331513607,-1014909590,6357504,2023,10,3,22,32,59,0,0,0,3.88,3.31,4.98,4.99,40.57,30.57,27.72,34.54,27.06,988.50,-4.05,-5.32,7.08,-24.61,-33.10,-44.85,"END
"
389,0,0,331502441,-1014901598,6357124,2023,10,3,22,33,0,0,0,0,3.87,3.30,4.98,4.98,41.00,30.95,27.71,34.47,27.05,988.27,-4.05,-5.32,7.23,-24.31,-32.68,-46.25,"END
"
390,0,0,329754591,-1022289399,6297673,2023,10,3,22,33,1,0,0,0,3.88,3.31,4.98,4.99,41.48,26.62,27.72,34.48,27.02,988.26,-4.09,-5.24,7.08,-24.93,-32.66,-45.26,"END
"
391,0,0,427841675,-1144163216,9821596,2023,10,3,22,33,2,0,0,0,3.89,3.30,4.98,4.99,41.18,30.86,27.73,34.49,27.06,988.53,-4.09,-5.35,7.27,-24.39,-32.70,-44.57,"END
"
392,0,0,428039967,-1136648845,9828970,2023,10,3,22,33,3,0,0,0,3.88,3.31,4.98,4.99,41.20,30.32,27.73,34.49,27.05,988.33,-4.13,-5.28,7.08,-25.08,-32.79,-44.50,"END
"
393,0,0,430431256,-1148107423,9917932,2023,10,3,22,33,4,0,0,0,3.81,3.31,4.98,4.98,41.31,31.65,27.74,34.49,27.08,988.18,-4.02,-5.32,7.08,-24.41,-33.16,-44.84,"END
"
394,0,0,430423091,-1148069728,9917628,2023,10,3,22,33,5,0,0,0,3.88,3.31,4.98,4.99,41.57,30.90,27.75,34.47,27.06,988.33,-4.09,-5.28,7.04,-24.95,-32.96,-44.69,"END
"
395,0,0,427628685,-1149350715,9813676,2023,10,3,22,33,6,0,0,0,3.87,3.30,4.98,4.98,41.04,31.59,27.77,34.53,27.09,988.33,-4.02,-5.24,7.08,-24.52,-32.78,-44.91,"END
"
396,0,0,427531531,-1151682393,9810063,2023,10,3,22,33,7,0,0,0,3.88,3.31,4.98,4.99,40.88,30.27,27.79,34.54,27.11,988.37,-4.09,-5.24,7.08,-24.93,-32.66,-44.29,"END
"
397,0,0,430146921,-1155620919,9907351,2023,10,3,22,33,8,0,0,0,3.88,3.30,4.98,4.99,40.98,31.32,27.80,34.51,27.11,988.51,-4.02,-5.32,7.04,-24.48,-33.27,-44.49,"END
"
398,0,0,430137697,-1155582525,9907007,2023,10,3,22,33,9,0,0,0,3.88,3.31,4.98,4.99,40.92,30.98,27.80,34.47,27.12,988.44,-4.09,-5.28,7.08,-24.87,-32.85,-44.76,"END
"
399,0,0,427774659,-1143869590,9819104,2023,10,3,22,33,10,0,0,0,3.87,3.30,4.98,4.95,41.03,30.73,27.80,34.52,27.14,988.32,-4.05,-5.32,7.11,-24.54,-32.99,-44.08,"END
"
400,0,0,422487649,-1127968894,9622667,2023,10,3,22,33,11,0,0,0,3.89,3.31,4.98,4.99,41.30,31.16,27.81,34.52,27.16,988.41,-4.02,-5.20,7.11,-24.50,-32.49,-44.33,"END
"
401,0,0,419286883,-1131140567,9503923,2023,10,3,22,33,12,0,0,0,3.89,3.30,4.98,4.99,41.13,31.72,27.80,34.53,27.13,988.47,-4.02,-5.20,7.04,-24.65,-32.70,-44.38,"END
"
402,0,0,419277856,-1131106992,9503588,2023,10,3,22,33,13,0,0,0,3.88,3.31,4.98,4.99,41.58,31.03,27.80,34.52,27.16,988.44,-4.05,-5.28,7.08,-24.67,-32.91,-44.14,"END
"
403,0,0,435274813,-1155453438,10098290,2023,10,3,22,33,14,0,0,0,3.88,3.30,4.98,4.97,41.48,31.33,27.81,34.56,27.19,988.26,-4.05,-5.24,7.04,-24.80,-32.83,-43.16,"END
"
404,0,0,432850944,-1151601066,10008007,2023,10,3,22,33,15,0,0,0,3.88,3.31,4.98,4.99,41.17,30.86,27.82,34.56,27.15,988.37,-4.02,-5.24,7.53,-23.63,-31.54,-46.08,"END
"
405,0,0,430332914,-1147655241,9914272,2023,10,3,22,33,16,0,0,0,3.88,3.31,4.98,4.96,40.84,31.25,27.83,34.52,27.19,988.39,-4.05,-5.24,7.11,-24.65,-32.62,-43.88,"END
"
406,0,0,430324684,-1147617575,9913966,2023,10,3,22,33,17,0,0,0,3.86,3.31,4.98,4.99,41.03,30.70,27.83,34.50,27.16,988.27,-4.13,-5.24,7.23,-24.83,-32.18,-44.74,"END
"
407,0,0,430521846,-1140144716,9921303,2023,10,3,22,33,18,0,0,0,3.88,3.31,4.98,4.99,39.83,30.03,27.82,34.52,27.17,988.30,-4.02,-5.20,7.34,-24.05,-31.86,-46.37,"END
"
408,0,0,433010068,-1144045978,10013933,2023,10,3,22,33,19,0,0,0,3.88,3.32,4.98,4.99,41.61,30.93,27.85,34.55,27.15,988.25,-4.09,-5.28,7.08,-24.87,-32.85,-44.23,"END
"
409,0,0,433003009,-1144008032,10013670,2023,10,3,22,33,20,0,0,0,3.87,3.30,4.98,4.98,40.99,27.35,27.84,34.57,27.19,988.41,-4.05,-5.20,7.11,-24.70,-32.43,-44.69,"END
"
410,0,0,435935587,-1135225427,10122911,2023,10,3,22,33,21,0,0,0,3.85,3.31,4.98,4.99,41.34,30.78,27.85,34.59,27.20,988.27,-4.02,-5.24,7.23,-24.22,-32.36,-44.53,"END
"
411,0,0,433227537,-1129758284,10022031,2023,10,3,22,33,22,0,0,0,3.87,3.30,4.98,4.99,41.59,31.25,27.86,34.53,27.22,988.48,-4.05,-5.24,7.08,-24.72,-32.72,-44.15,"END
"
412,0,0,433501608,-1123948762,10032238,2023,10,3,22,33,23,0,0,0,3.83,3.31,4.98,4.99,41.17,30.52,27.87,34.61,27.20,988.33,-4.09,-5.20,7.04,-25.06,-32.58,-44.34,"END
"
413,0,0,433217210,-1129684903,10021646,2023,10,3,22,33,24,0,0,0,3.88,3.31,4.98,4.99,40.76,30.64,27.87,34.59,27.20,988.39,-4.09,-5.28,7.27,-24.50,-32.33,-43.63,"END
"
414,0,0,433212038,-1129648215,10021454,2023,10,3,22,33,25,0,0,0,3.88,3.31,4.98,4.99,41.14,30.43,27.88,34.63,27.19,988.45,-4.02,-5.32,7.11,-24.33,-33.06,-44.15,"END
"
415,0,0,430807257,-1118818972,9931925,2023,10,3,22,33,26,0,0,0,3.88,3.30,4.98,4.99,41.24,31.28,27.88,34.59,27.20,988.27,-4.02,-5.32,7.50,-23.60,-32.01,-44.97,"END
"
416,0,0,430802909,-1118783776,9931763,2023,10,3,22,33,27,0,0,0,3.88,3.31,4.98,4.99,41.59,30.57,27.90,34.58,27.20,988.33,-4.09,-5.24,7.08,-24.93,-32.66,-45.03,"END
"
417,0,0,430727698,-1125554352,9928964,2023,10,3,22,33,28,0,0,0,3.89,3.31,4.98,4.99,41.43,32.10,27.89,34.63,27.23,988.39,-4.02,-5.24,7.04,-24.59,-32.89,-43.89,"END
"
418,0,0,427891593,-1134119615,9823453,2023,10,3,22,33,29,0,0,0,3.88,3.31,4.98,4.99,41.94,30.71,27.91,34.58,27.26,988.31,-3.94,-5.28,7.08,-24.05,-33.09,-44.43,"END
"
419,0,0,430717072,-1125482849,9928568,2023,10,3,22,33,30,0,0,0,3.87,3.30,4.98,4.99,41.60,31.46,27.91,34.57,27.22,988.34,-4.05,-5.24,7.08,-24.72,-32.72,-44.87,"END
"
420,0,0,433466922,-1123658759,10030946,2023,10,3,22,33,31,0,0,0,3.88,3.31,4.98,4.99,41.17,30.61,27.92,34.63,27.23,988.43,-4.02,-5.24,6.69,-25.29,-33.87,-42.42,"END
"
421,0,0,436293987,-1129011851,10136266,2023,10,3,22,33,32,0,0,0,3.88,3.31,4.98,4.98,41.00,31.50,27.92,34.59,27.23,988.57,-4.09,-5.24,6.96,-25.16,-32.98,-43.39,"END
"
422,0,0,436289646,-1128974472,10136105,2023,10,3,22,33,33,0,0,0,3.88,3.31,4.98,4.99,41.95,30.95,27.94,34.63,27.24,988.47,-4.02,-5.24,7.04,-24.59,-32.89,-44.02,"END
"
423,0,0,441717397,-1124040728,10338466,2023,10,3,22,33,34,0,0,0,3.88,3.31,4.98,4.98,40.33,31.39,27.92,34.66,27.24,988.40,-3.98,-5.24,7.19,-24.09,-32.52,-45.12,"END
"
424,0,0,439281769,-1127081602,10247637,2023,10,3,22,33,35,0,0,0,3.88,3.31,4.98,4.97,41.69,30.47,27.94,34.63,27.26,988.53,-4.02,-5.20,7.08,-24.57,-32.59,-44.42,"END
"
425,0,0,439278436,-1127043667,10247513,2023,10,3,22,33,36,0,0,0,3.88,3.30,4.98,4.99,40.55,32.07,27.94,34.66,27.29,988.55,-4.09,-5.28,7.34,-24.35,-32.12,-44.57,"END
"
426,0,0,433245416,-1137906752,10022697,2023,10,3,22,33,37,0,0,0,3.88,3.31,4.98,4.99,41.04,30.99,27.95,34.70,27.28,988.48,-4.09,-5.20,7.11,-24.91,-32.37,-43.86,"END
"
427,0,0,430674359,-1125196905,9926979,2023,10,3,22,33,38,0,0,0,3.87,3.31,4.98,4.98,41.65,30.94,27.94,34.63,27.26,988.33,-4.05,-5.35,7.15,-24.41,-33.08,-44.09,"END
"
428,0,0,430668996,-1125161170,9926779,2023,10,3,22,33,39,0,0,0,3.88,3.31,4.98,4.96,39.99,31.19,27.94,34.69,27.27,988.30,-4.05,-5.24,7.08,-24.72,-32.72,-43.82,"END
"
429,0,0,430745917,-1118326367,9929642,2023,10,3,22,33,40,0,0,0,3.82,3.30,4.98,4.99,41.08,31.36,27.95,34.68,27.28,988.48,-4.09,-5.24,7.08,-24.93,-32.66,-43.65,"END
"
430,0,0,430741497,-1118291192,9929477,2023,10,3,22,33,41,0,0,0,3.88,3.31,4.98,4.99,41.15,30.84,27.95,34.70,27.27,988.40,-3.86,-5.28,7.30,-23.20,-32.57,-44.99,"END
"
431,0,0,430780321,-1111651672,9930922,2023,10,3,22,33,42,0,0,0,3.88,3.30,4.98,4.98,41.45,32.04,27.95,34.68,27.29,988.30,-4.09,-5.20,7.08,-24.99,-32.47,-44.94,"END
"
432,0,0,430776823,-1111617026,9930792,2023,10,3,22,33,43,0,0,0,3.88,3.31,4.98,4.99,41.14,30.48,27.96,34.66,27.30,988.53,-4.05,-5.24,7.08,-24.72,-32.72,-42.94,"END
"
433,0,0,428185943,-1113520327,9834399,2023,10,3,22,33,44,0,0,0,3.86,3.30,4.98,4.98,40.89,31.08,27.97,34.73,27.27,988.34,-4.02,-5.28,7.11,-24.39,-32.87,-44.50,"END
"
434,0,0,428235128,-1107451082,9836229,2023,10,3,22,33,45,0,0,0,3.88,3.31,4.98,4.99,41.04,31.10,27.98,34.70,27.31,988.24,-4.05,-5.32,7.04,-24.69,-33.21,-44.88,"END
"
435,0,0,430631313,-1124911070,9925377,2023,10,3,22,33,46,0,0,0,3.86,3.30,4.98,4.99,40.52,32.24,27.98,34.73,27.30,988.41,-5.20,-5.28,6.43,-32.03,-32.56,-43.66,"END
"
436,0,0,432996632,-1145089515,10013432,2023,10,3,22,33,47,0,0,0,3.88,3.31,4.98,4.99,40.92,30.77,27.99,34.70,27.32,988.56,-6.00,-5.51,5.58,-37.44,-33.89,-41.18,"END
"
437,0,0,436012934,-1143588050,10125793,2023,10,3,22,33,48,0,0,0,3.87,3.31,4.98,4.98,40.81,31.58,27.99,34.72,27.30,988.67,0.34,-7.69,5.51,2.08,-54.33,-96.37,"END
"
438,0,0,437068306,-1115514420,10165124,2023,10,3,22,33,49,0,0,0,3.89,3.31,4.98,4.99,41.17,30.48,27.98,34.74,27.33,988.48,-4.28,-7.34,5.85,-24.52,-45.36,-48.60,"END
"
439,0,0,444882092,-1136716692,10456526,2023,10,3,22,33,50,0,0,0,3.87,3.30,4.98,4.99,40.65,30.99,27.98,34.77,27.33,988.28,-7.08,-2.33,5.35,-50.46,-14.73,-23.26,"END
"
440,0,0,435799893,-1151414385,10117855,2023,10,3,22,33,51,0,0,0,3.88,3.31,4.98,4.99,40.71,30.82,27.98,34.73,27.31,988.52,-6.04,-1.30,7.30,-39.16,-7.81,-14.73,"END
"
441,0,0,426558044,-1160981461,9773871,2023,10,3,22,33,52,0,0,0,3.87,3.30,4.98,4.94,40.18,31.14,28.00,34.77,27.30,988.64,0.54,1.15,8.99,3.38,7.26,-38.95,"END
"
442,0,0,417775353,-1133101509,9447900,2023,10,3,22,33,53,0,0,0,3.88,3.31,4.98,4.99,41.52,30.73,28.00,34.78,27.32,988.94,0.84,1.91,9.48,4.97,11.36,-67.50,"END
"
443,0,0,417915784,-1117397598,9453103,2023,10,3,22,33,54,0,0,0,3.88,3.30,4.98,4.96,41.23,31.46,28.01,34.81,27.37,988.48,0.61,1.19,8.83,3.93,7.63,-67.49,"END
"
444,0,0,421333859,-1122415012,9579846,2023,10,3,22,33,55,0,0,0,3.87,3.31,4.98,4.99,41.04,30.84,28.02,34.76,27.34,988.70,0.08,0.76,9.64,0.45,4.54,-43.79,"END
"
445,0,0,424838964,-1118998812,9709986,2023,10,3,22,33,56,0,0,0,3.87,3.30,4.98,4.96,39.86,31.48,28.03,34.75,27.37,988.47,0.04,0.84,9.37,0.23,5.13,-44.64,"END
"
446,0,0,428225337,-1100624558,9835864,2023,10,3,22,33,57,0,0,0,3.88,3.31,4.98,4.99,41.27,30.88,28.04,34.77,27.40,988.54,-0.04,0.80,9.48,-0.23,4.84,-46.17,"END
"
447,0,0,428220825,-1094060984,9835697,2023,10,3,22,33,58,0,0,0,3.88,3.30,4.98,4.94,40.19,31.87,28.08,34.77,27.36,988.42,-0.08,0.80,9.37,-0.47,4.90,-46.09,"END
"
448,0,0,430913572,-1091587314,9935882,2023,10,3,22,33,59,0,0,0,3.86,3.31,4.98,4.99,41.47,30.66,28.05,34.75,27.40,988.40,0.00,0.76,9.52,0.00,4.59,-42.94,"END
"
449,0,0,430912835,-1091554079,9935854,2023,10,3,22,34,0,0,0,0,3.87,3.30,4.98,4.97,40.48,32.39,28.07,34.79,27.39,988.51,0.00,0.88,9.45,0.00,5.32,-48.63,"END
"
450,0,0,433545800,-1095934274,10033884,2023,10,3,22,34,1,0,0,0,3.87,3.31,4.98,4.99,40.89,31.43,28.08,34.74,27.41,988.45,-0.04,0.80,9.52,-0.23,4.82,-44.42,"END
"
451,0,0,433545054,-1095900100,10033856,2023,10,3,22,34,2,0,0,0,3.88,3.31,4.98,4.99,40.03,32.24,28.09,34.79,27.41,988.58,-0.04,0.88,9.45,-0.23,5.32,-45.37,"END
"
452,0,0,436177369,-1086923267,10131921,2023,10,3,22,34,3,0,0,0,3.82,3.31,4.98,4.99,41.25,30.80,28.09,34.80,27.41,988.38,-0.04,0.80,9.48,-0.23,4.84,-42.69,"END
"
453,0,0,436336754,-1093406784,10137860,2023,10,3,22,34,4,0,0,0,3.88,3.30,4.98,4.98,39.35,32.85,28.09,34.80,27.44,988.50,0.11,0.88,9.56,0.68,5.26,-44.91,"END
"
454,0,0,436337022,-1093372101,10137870,2023,10,3,22,34,5,0,0,0,3.82,3.31,4.98,4.99,41.15,31.05,28.10,34.83,27.44,988.45,-0.08,0.88,9.45,-0.46,5.32,-46.40,"END
"
455,0,0,436337286,-1093337418,10137880,2023,10,3,22,34,6,0,0,0,3.88,3.30,4.98,4.99,41.23,30.96,28.10,34.81,27.43,988.50,0.00,0.84,9.52,0.00,5.05,-46.67,"END
"
456,0,0,433541254,-1095729241,10033715,2023,10,3,22,34,7,0,0,0,3.88,3.31,4.98,4.99,41.38,31.00,28.09,34.80,27.44,988.37,-0.04,0.92,9.33,-0.23,5.62,-48.14,"END
"
457,0,0,428170566,-1086778985,9833827,2023,10,3,22,34,8,0,0,0,3.88,3.31,4.98,4.99,41.82,31.66,28.10,34.81,27.45,988.56,-0.04,0.84,9.41,-0.23,5.11,-46.98,"END
"
458,0,0,428169791,-1086746713,9833799,2023,10,3,22,34,9,0,0,0,3.82,3.31,4.98,4.99,41.14,30.80,28.10,34.80,27.45,988.53,-0.04,0.80,9.56,-0.23,4.80,-46.46,"END
"
459,0,0,428103420,-1080287337,9831330,2023,10,3,22,34,10,0,0,0,3.88,3.31,4.98,4.99,40.68,32.13,28.11,34.80,27.45,988.47,-0.04,0.84,9.29,-0.23,5.17,-46.16,"END
"
460,0,0,425277522,-1075643011,9726281,2023,10,3,22,34,11,0,0,0,3.88,3.31,4.98,4.97,41.38,31.07,28.10,34.80,27.47,988.51,-0.04,0.88,9.48,-0.23,5.30,-48.95,"END
"
461,0,0,425277720,-1075612124,9726288,2023,10,3,22,34,12,0,0,0,3.89,3.31,4.98,4.99,40.82,32.66,28.11,34.80,27.49,988.69,-0.04,0.84,9.52,-0.23,5.05,-44.41,"END
"
